{
"type": "FeatureCollection",
"name": "alaska_municipalities_centroids",
"crs": { "type": "name", "properties": { "name": "urn:ogc:def:crs:OGC:1.3:CRS84" } },
"features": [
{ "type": "Feature", "properties": { "NAME": "Bethel" }, "geometry": { "type": "Point", "coordinates": [ -161.791672045245434, 60.792787603808534 ] } },
{ "type": "Feature", "properties": { "NAME": "Chuathbaluk" }, "geometry": { "type": "Point", "coordinates": [ -159.248879755759305, 61.574574532061419 ] } },
{ "type": "Feature", "properties": { "NAME": "Kwethluk" }, "geometry": { "type": "Point", "coordinates": [ -161.414688063814452, 60.797816752229679 ] } },
{ "type": "Feature", "properties": { "NAME": "Lower Kalskag" }, "geometry": { "type": "Point", "coordinates": [ -160.355632513933614, 61.516326149243561 ] } },
{ "type": "Feature", "properties": { "NAME": "Mekoryuk" }, "geometry": { "type": "Point", "coordinates": [ -166.266790180368531, 60.370235703744513 ] } },
{ "type": "Feature", "properties": { "NAME": "Nightmute" }, "geometry": { "type": "Point", "coordinates": [ -164.828502215892485, 60.488893457258882 ] } },
{ "type": "Feature", "properties": { "NAME": "Platinum" }, "geometry": { "type": "Point", "coordinates": [ -161.719014294074555, 58.978137795828758 ] } },
{ "type": "Feature", "properties": { "NAME": "Upper Kalskag" }, "geometry": { "type": "Point", "coordinates": [ -160.333700998119724, 61.541600237409511 ] } },
{ "type": "Feature", "properties": { "NAME": "Eek" }, "geometry": { "type": "Point", "coordinates": [ -162.033105954426247, 60.216443414840988 ] } },
{ "type": "Feature", "properties": { "NAME": "Nunapitchuk" }, "geometry": { "type": "Point", "coordinates": [ -162.461524240226254, 60.877222611401102 ] } },
{ "type": "Feature", "properties": { "NAME": "Quinhagak" }, "geometry": { "type": "Point", "coordinates": [ -161.899347338767114, 59.751079729655906 ] } },
{ "type": "Feature", "properties": { "NAME": "Chefornak" }, "geometry": { "type": "Point", "coordinates": [ -164.254953606273887, 60.155046018451472 ] } },
{ "type": "Feature", "properties": { "NAME": "Goodnews Bay" }, "geometry": { "type": "Point", "coordinates": [ -161.575327069001986, 59.127163799578085 ] } },
{ "type": "Feature", "properties": { "NAME": "Napakiak" }, "geometry": { "type": "Point", "coordinates": [ -161.982205954127664, 60.692335945610679 ] } },
{ "type": "Feature", "properties": { "NAME": "Toksook Bay" }, "geometry": { "type": "Point", "coordinates": [ -165.139759627241688, 60.50430952308789 ] } },
{ "type": "Feature", "properties": { "NAME": "Aniak" }, "geometry": { "type": "Point", "coordinates": [ -159.545057171617174, 61.581713833896536 ] } },
{ "type": "Feature", "properties": { "NAME": "Akiak" }, "geometry": { "type": "Point", "coordinates": [ -161.212226452992695, 60.906141120980955 ] } },
{ "type": "Feature", "properties": { "NAME": "Napaskiak" }, "geometry": { "type": "Point", "coordinates": [ -161.761586046008546, 60.701857108980697 ] } },
{ "type": "Feature", "properties": { "NAME": "Chignik" }, "geometry": { "type": "Point", "coordinates": [ -158.408215674064223, 56.304198689975721 ] } },
{ "type": "Feature", "properties": { "NAME": "Nondalton" }, "geometry": { "type": "Point", "coordinates": [ -154.862691229983511, 59.971086107228174 ] } },
{ "type": "Feature", "properties": { "NAME": "Egegik" }, "geometry": { "type": "Point", "coordinates": [ -157.535499295642325, 58.23169609907751 ] } },
{ "type": "Feature", "properties": { "NAME": "Newhalen" }, "geometry": { "type": "Point", "coordinates": [ -154.89698957695532, 59.726982582428633 ] } },
{ "type": "Feature", "properties": { "NAME": "Pilot Point" }, "geometry": { "type": "Point", "coordinates": [ -157.765632560480213, 57.579974042453017 ] } },
{ "type": "Feature", "properties": { "NAME": "Port Heiden" }, "geometry": { "type": "Point", "coordinates": [ -158.605331312202594, 56.942594136511218 ] } },
{ "type": "Feature", "properties": { "NAME": "Aleknagik" }, "geometry": { "type": "Point", "coordinates": [ -158.68958265635095, 59.294616607890909 ] } },
{ "type": "Feature", "properties": { "NAME": "Clark's Point" }, "geometry": { "type": "Point", "coordinates": [ -158.532897104637698, 58.833464862778563 ] } },
{ "type": "Feature", "properties": { "NAME": "Dillingham" }, "geometry": { "type": "Point", "coordinates": [ -158.537836506138632, 59.055024968232246 ] } },
{ "type": "Feature", "properties": { "NAME": "Togiak" }, "geometry": { "type": "Point", "coordinates": [ -160.496741097138454, 58.956787878883048 ] } },
{ "type": "Feature", "properties": { "NAME": "Ekwok" }, "geometry": { "type": "Point", "coordinates": [ -157.486075531125863, 59.346186627073315 ] } },
{ "type": "Feature", "properties": { "NAME": "Manokotak" }, "geometry": { "type": "Point", "coordinates": [ -158.883511282966225, 58.850739860548799 ] } },
{ "type": "Feature", "properties": { "NAME": "New Stuyahok" }, "geometry": { "type": "Point", "coordinates": [ -157.271003123843968, 59.476179499852542 ] } },
{ "type": "Feature", "properties": { "NAME": "Wasilla" }, "geometry": { "type": "Point", "coordinates": [ -149.46609346549792, 61.577017650443096 ] } },
{ "type": "Feature", "properties": { "NAME": "Houston" }, "geometry": { "type": "Point", "coordinates": [ -149.800379072348022, 61.615866407497499 ] } },
{ "type": "Feature", "properties": { "NAME": "Palmer" }, "geometry": { "type": "Point", "coordinates": [ -149.114676605921915, 61.597170676315464 ] } },
{ "type": "Feature", "properties": { "NAME": "King Cove" }, "geometry": { "type": "Point", "coordinates": [ -162.304226078081143, 55.084888465906083 ] } },
{ "type": "Feature", "properties": { "NAME": "False Pass" }, "geometry": { "type": "Point", "coordinates": [ -163.334732487213387, 54.833975701564015 ] } },
{ "type": "Feature", "properties": { "NAME": "Cold Bay" }, "geometry": { "type": "Point", "coordinates": [ -162.75045222278618, 55.21346640283604 ] } },
{ "type": "Feature", "properties": { "NAME": "Sand Point" }, "geometry": { "type": "Point", "coordinates": [ -160.508608238108536, 55.318462815476622 ] } },
{ "type": "Feature", "properties": { "NAME": "Akutan" }, "geometry": { "type": "Point", "coordinates": [ -165.730350440453066, 54.173089198278582 ] } },
{ "type": "Feature", "properties": { "NAME": "Scammon Bay" }, "geometry": { "type": "Point", "coordinates": [ -165.583279321284436, 61.841928894510438 ] } },
{ "type": "Feature", "properties": { "NAME": "Chevak" }, "geometry": { "type": "Point", "coordinates": [ -165.594125301640901, 61.529559807286482 ] } },
{ "type": "Feature", "properties": { "NAME": "Kotlik" }, "geometry": { "type": "Point", "coordinates": [ -163.552996892241481, 63.030473468668902 ] } },
{ "type": "Feature", "properties": { "NAME": "Mountain Village" }, "geometry": { "type": "Point", "coordinates": [ -163.720936799946912, 62.091115674407682 ] } },
{ "type": "Feature", "properties": { "NAME": "Nunam Iqua" }, "geometry": { "type": "Point", "coordinates": [ -164.89984005894766, 62.510963165230194 ] } },
{ "type": "Feature", "properties": { "NAME": "St. Mary's" }, "geometry": { "type": "Point", "coordinates": [ -163.280504804205293, 62.071754863206735 ] } },
{ "type": "Feature", "properties": { "NAME": "Alakanuk" }, "geometry": { "type": "Point", "coordinates": [ -164.630543538842858, 62.690179741077422 ] } },
{ "type": "Feature", "properties": { "NAME": "Emmonak" }, "geometry": { "type": "Point", "coordinates": [ -164.51571721006917, 62.776158816907184 ] } },
{ "type": "Feature", "properties": { "NAME": "Hooper Bay" }, "geometry": { "type": "Point", "coordinates": [ -166.114516615821742, 61.524877525102077 ] } },
{ "type": "Feature", "properties": { "NAME": "Marshall" }, "geometry": { "type": "Point", "coordinates": [ -162.04875229533863, 61.875328768137635 ] } },
{ "type": "Feature", "properties": { "NAME": "Pilot Station" }, "geometry": { "type": "Point", "coordinates": [ -162.882784337648303, 61.942195272123911 ] } },
{ "type": "Feature", "properties": { "NAME": "Russian Mission" }, "geometry": { "type": "Point", "coordinates": [ -161.356677687234622, 61.782435302687738 ] } },
{ "type": "Feature", "properties": { "NAME": "Anaktuvuk Pass" }, "geometry": { "type": "Point", "coordinates": [ -151.716180933884658, 68.150000884768048 ] } },
{ "type": "Feature", "properties": { "NAME": "Wainwright" }, "geometry": { "type": "Point", "coordinates": [ -160.013034711595537, 70.64912352499978 ] } },
{ "type": "Feature", "properties": { "NAME": "Utqiagvik" }, "geometry": { "type": "Point", "coordinates": [ -156.757152275515949, 71.273087400209334 ] } },
{ "type": "Feature", "properties": { "NAME": "Kaktovik" }, "geometry": { "type": "Point", "coordinates": [ -143.625732703314924, 70.123102687566757 ] } },
{ "type": "Feature", "properties": { "NAME": "Point Hope" }, "geometry": { "type": "Point", "coordinates": [ -166.675093742700398, 68.344561794353424 ] } },
{ "type": "Feature", "properties": { "NAME": "Atqasuk" }, "geometry": { "type": "Point", "coordinates": [ -157.383505408942455, 70.481010845735426 ] } },
{ "type": "Feature", "properties": { "NAME": "Nuiqsut" }, "geometry": { "type": "Point", "coordinates": [ -150.989673253120202, 70.213481713033204 ] } },
{ "type": "Feature", "properties": { "NAME": "Brevig Mission" }, "geometry": { "type": "Point", "coordinates": [ -166.495457022775554, 65.341231723069328 ] } },
{ "type": "Feature", "properties": { "NAME": "Diomede" }, "geometry": { "type": "Point", "coordinates": [ -168.922577494702523, 65.753926067711944 ] } },
{ "type": "Feature", "properties": { "NAME": "Golovin" }, "geometry": { "type": "Point", "coordinates": [ -162.998941947872822, 64.563905761439898 ] } },
{ "type": "Feature", "properties": { "NAME": "Nome" }, "geometry": { "type": "Point", "coordinates": [ -165.412432747501356, 64.507398119224106 ] } },
{ "type": "Feature", "properties": { "NAME": "St. Michael" }, "geometry": { "type": "Point", "coordinates": [ -162.11427923863107, 63.468361135451126 ] } },
{ "type": "Feature", "properties": { "NAME": "Savoonga" }, "geometry": { "type": "Point", "coordinates": [ -170.483312787091393, 63.679700835090621 ] } },
{ "type": "Feature", "properties": { "NAME": "Shaktoolik" }, "geometry": { "type": "Point", "coordinates": [ -161.194944406788039, 64.355279216274226 ] } },
{ "type": "Feature", "properties": { "NAME": "Elim" }, "geometry": { "type": "Point", "coordinates": [ -162.276553222048051, 64.618225841255153 ] } },
{ "type": "Feature", "properties": { "NAME": "Koyuk" }, "geometry": { "type": "Point", "coordinates": [ -161.145456721470197, 64.941082475115678 ] } },
{ "type": "Feature", "properties": { "NAME": "Unalakleet" }, "geometry": { "type": "Point", "coordinates": [ -160.793562577499046, 63.888586805877779 ] } },
{ "type": "Feature", "properties": { "NAME": "Stebbins" }, "geometry": { "type": "Point", "coordinates": [ -162.260059773767495, 63.47031595641694 ] } },
{ "type": "Feature", "properties": { "NAME": "Teller" }, "geometry": { "type": "Point", "coordinates": [ -166.342216558509051, 65.25310079176262 ] } },
{ "type": "Feature", "properties": { "NAME": "Wales" }, "geometry": { "type": "Point", "coordinates": [ -168.07809960495274, 65.612083112414695 ] } },
{ "type": "Feature", "properties": { "NAME": "Gambell" }, "geometry": { "type": "Point", "coordinates": [ -171.716229233843848, 63.762377653062146 ] } },
{ "type": "Feature", "properties": { "NAME": "Shishmaref" }, "geometry": { "type": "Point", "coordinates": [ -166.11171826471471, 66.240336836887437 ] } },
{ "type": "Feature", "properties": { "NAME": "White Mountain" }, "geometry": { "type": "Point", "coordinates": [ -163.422836908340059, 64.681200157895418 ] } },
{ "type": "Feature", "properties": { "NAME": "Atka" }, "geometry": { "type": "Point", "coordinates": [ -174.218634877422716, 52.231142747002863 ] } },
{ "type": "Feature", "properties": { "NAME": "Adak" }, "geometry": { "type": "Point", "coordinates": [ -176.584823625262601, 51.889077420335227 ] } },
{ "type": "Feature", "properties": { "NAME": "St. George" }, "geometry": { "type": "Point", "coordinates": [ -169.628154592858266, 56.589914614189688 ] } },
{ "type": "Feature", "properties": { "NAME": "Unalaska" }, "geometry": { "type": "Point", "coordinates": [ -166.542399451047402, 53.937174265620982 ] } },
{ "type": "Feature", "properties": { "NAME": "St. Paul" }, "geometry": { "type": "Point", "coordinates": [ -169.950360660963213, 57.184097416312781 ] } },
{ "type": "Feature", "properties": { "NAME": "St. Paul" }, "geometry": { "type": "Point", "coordinates": [ -170.292987634055919, 57.164528408640564 ] } },
{ "type": "Feature", "properties": { "NAME": "Old Harbor" }, "geometry": { "type": "Point", "coordinates": [ -153.326599866873408, 57.211539250929626 ] } },
{ "type": "Feature", "properties": { "NAME": "Port Lions" }, "geometry": { "type": "Point", "coordinates": [ -152.860596266681483, 57.875147633760399 ] } },
{ "type": "Feature", "properties": { "NAME": "Akhiok" }, "geometry": { "type": "Point", "coordinates": [ -154.215101499501941, 56.945016432336878 ] } },
{ "type": "Feature", "properties": { "NAME": "Larsen Bay" }, "geometry": { "type": "Point", "coordinates": [ -154.003290905508464, 57.540763905323622 ] } },
{ "type": "Feature", "properties": { "NAME": "Ouzinkie" }, "geometry": { "type": "Point", "coordinates": [ -152.469679700717109, 57.922749110251303 ] } },
{ "type": "Feature", "properties": { "NAME": "Kodiak" }, "geometry": { "type": "Point", "coordinates": [ -152.408230158083427, 57.791465863506104 ] } },
{ "type": "Feature", "properties": { "NAME": "Cordova" }, "geometry": { "type": "Point", "coordinates": [ -145.627036057185222, 60.539756155080248 ] } },
{ "type": "Feature", "properties": { "NAME": "Valdez" }, "geometry": { "type": "Point", "coordinates": [ -146.304281655529252, 61.095511625340066 ] } },
{ "type": "Feature", "properties": { "NAME": "Whittier" }, "geometry": { "type": "Point", "coordinates": [ -148.637075940452888, 60.788137461511162 ] } },
{ "type": "Feature", "properties": { "NAME": "Tenakee Springs" }, "geometry": { "type": "Point", "coordinates": [ -135.189493700729798, 57.790479545451724 ] } },
{ "type": "Feature", "properties": { "NAME": "Angoon" }, "geometry": { "type": "Point", "coordinates": [ -134.514185820017275, 57.453886785797238 ] } },
{ "type": "Feature", "properties": { "NAME": "Pelican" }, "geometry": { "type": "Point", "coordinates": [ -136.217747297150623, 57.957686242165039 ] } },
{ "type": "Feature", "properties": { "NAME": "Hoonah" }, "geometry": { "type": "Point", "coordinates": [ -135.427870508110431, 58.111141266707598 ] } },
{ "type": "Feature", "properties": { "NAME": "Gustavus" }, "geometry": { "type": "Point", "coordinates": [ -135.734087470990886, 58.414914641830201 ] } },
{ "type": "Feature", "properties": { "NAME": "Ketchikan" }, "geometry": { "type": "Point", "coordinates": [ -131.672136779030126, 55.355891695462773 ] } },
{ "type": "Feature", "properties": { "NAME": "Saxman" }, "geometry": { "type": "Point", "coordinates": [ -131.589149986900026, 55.323164931077443 ] } },
{ "type": "Feature", "properties": { "NAME": "Noorvik" }, "geometry": { "type": "Point", "coordinates": [ -161.037625747688367, 66.829211107141873 ] } },
{ "type": "Feature", "properties": { "NAME": "Ambler" }, "geometry": { "type": "Point", "coordinates": [ -157.872542025630423, 67.089699122816199 ] } },
{ "type": "Feature", "properties": { "NAME": "Kiana" }, "geometry": { "type": "Point", "coordinates": [ -160.434363767958388, 66.972586414160745 ] } },
{ "type": "Feature", "properties": { "NAME": "Kivalina" }, "geometry": { "type": "Point", "coordinates": [ -164.521414465699593, 67.73174464041341 ] } },
{ "type": "Feature", "properties": { "NAME": "Kobuk" }, "geometry": { "type": "Point", "coordinates": [ -156.893840517439941, 66.931017755536331 ] } },
{ "type": "Feature", "properties": { "NAME": "Kotzebue" }, "geometry": { "type": "Point", "coordinates": [ -162.523231311297621, 66.876698184309859 ] } },
{ "type": "Feature", "properties": { "NAME": "Shungnak" }, "geometry": { "type": "Point", "coordinates": [ -157.149943545391409, 66.880520102419396 ] } },
{ "type": "Feature", "properties": { "NAME": "Buckland" }, "geometry": { "type": "Point", "coordinates": [ -161.134090164594937, 65.978444976064893 ] } },
{ "type": "Feature", "properties": { "NAME": "Selawik" }, "geometry": { "type": "Point", "coordinates": [ -159.999551828813907, 66.598825171958353 ] } },
{ "type": "Feature", "properties": { "NAME": "Deering" }, "geometry": { "type": "Point", "coordinates": [ -162.74390375849157, 66.072194977531097 ] } },
{ "type": "Feature", "properties": { "NAME": "Sitka" }, "geometry": { "type": "Point", "coordinates": [ -135.304965119425106, 57.179775786304802 ] } },
{ "type": "Feature", "properties": { "NAME": "Galena" }, "geometry": { "type": "Point", "coordinates": [ -156.86350458785617, 64.738082347167321 ] } },
{ "type": "Feature", "properties": { "NAME": "Grayling" }, "geometry": { "type": "Point", "coordinates": [ -160.107899236750512, 62.89975940057186 ] } },
{ "type": "Feature", "properties": { "NAME": "Huslia" }, "geometry": { "type": "Point", "coordinates": [ -156.338554392621745, 65.700127035828359 ] } },
{ "type": "Feature", "properties": { "NAME": "Koyukuk" }, "geometry": { "type": "Point", "coordinates": [ -157.694630113459766, 64.900777339278548 ] } },
{ "type": "Feature", "properties": { "NAME": "McGrath" }, "geometry": { "type": "Point", "coordinates": [ -155.562956682903291, 62.942375767086006 ] } },
{ "type": "Feature", "properties": { "NAME": "Nenana" }, "geometry": { "type": "Point", "coordinates": [ -149.085549702659875, 64.538366532248446 ] } },
{ "type": "Feature", "properties": { "NAME": "Ruby" }, "geometry": { "type": "Point", "coordinates": [ -155.500534972104759, 64.723290445492168 ] } },
{ "type": "Feature", "properties": { "NAME": "Tanana" }, "geometry": { "type": "Point", "coordinates": [ -152.068634506763942, 65.174619776972349 ] } },
{ "type": "Feature", "properties": { "NAME": "Nulato" }, "geometry": { "type": "Point", "coordinates": [ -158.238233258239319, 64.705234712002465 ] } },
{ "type": "Feature", "properties": { "NAME": "Anvik" }, "geometry": { "type": "Point", "coordinates": [ -160.213940439965, 62.654096167642599 ] } },
{ "type": "Feature", "properties": { "NAME": "Holy Cross" }, "geometry": { "type": "Point", "coordinates": [ -159.819804508520576, 62.186806804514696 ] } },
{ "type": "Feature", "properties": { "NAME": "Hughes" }, "geometry": { "type": "Point", "coordinates": [ -154.237621762449066, 66.045221005025439 ] } },
{ "type": "Feature", "properties": { "NAME": "Kaltag" }, "geometry": { "type": "Point", "coordinates": [ -158.743560097589267, 64.322287564620098 ] } },
{ "type": "Feature", "properties": { "NAME": "Nikolai" }, "geometry": { "type": "Point", "coordinates": [ -154.376323724924106, 63.009525455329609 ] } },
{ "type": "Feature", "properties": { "NAME": "Shageluk" }, "geometry": { "type": "Point", "coordinates": [ -159.562976599783497, 62.668424720601905 ] } },
{ "type": "Feature", "properties": { "NAME": "Allakaket" }, "geometry": { "type": "Point", "coordinates": [ -152.626951977910693, 66.550555354904105 ] } },
{ "type": "Feature", "properties": { "NAME": "Bettles" }, "geometry": { "type": "Point", "coordinates": [ -151.536146958285769, 66.908835886180526 ] } },
{ "type": "Feature", "properties": { "NAME": "Fort Yukon" }, "geometry": { "type": "Point", "coordinates": [ -145.241422763771737, 66.580666089352405 ] } },
{ "type": "Feature", "properties": { "NAME": "Anchorage" }, "geometry": { "type": "Point", "coordinates": [ -149.19000806892717, 61.148303300241494 ] } },
{ "type": "Feature", "properties": { "NAME": "Port Alexander" }, "geometry": { "type": "Point", "coordinates": [ -134.642490649678081, 56.224824976464589 ] } },
{ "type": "Feature", "properties": { "NAME": "Coffman Cove" }, "geometry": { "type": "Point", "coordinates": [ -132.837043037566758, 56.007384916585011 ] } },
{ "type": "Feature", "properties": { "NAME": "Hydaburg" }, "geometry": { "type": "Point", "coordinates": [ -132.820889468494755, 55.206113134998766 ] } },
{ "type": "Feature", "properties": { "NAME": "Kasaan" }, "geometry": { "type": "Point", "coordinates": [ -132.415890017954922, 55.555968386642789 ] } },
{ "type": "Feature", "properties": { "NAME": "Klawock" }, "geometry": { "type": "Point", "coordinates": [ -133.086825120240462, 55.55558471802496 ] } },
{ "type": "Feature", "properties": { "NAME": "Thorne Bay" }, "geometry": { "type": "Point", "coordinates": [ -132.533298915338264, 55.664868222639299 ] } },
{ "type": "Feature", "properties": { "NAME": "Kake" }, "geometry": { "type": "Point", "coordinates": [ -133.927937813867686, 56.969536203575174 ] } },
{ "type": "Feature", "properties": { "NAME": "Craig" }, "geometry": { "type": "Point", "coordinates": [ -133.121353770898025, 55.487333537949574 ] } },
{ "type": "Feature", "properties": { "NAME": "Whale Pass" }, "geometry": { "type": "Point", "coordinates": [ -133.115273309842962, 56.100340673564375 ] } },
{ "type": "Feature", "properties": { "NAME": "Edna Bay" }, "geometry": { "type": "Point", "coordinates": [ -133.665426491685395, 55.963655701824408 ] } },
{ "type": "Feature", "properties": { "NAME": "Kupreanof" }, "geometry": { "type": "Point", "coordinates": [ -132.988428433159271, 56.809164781092989 ] } },
{ "type": "Feature", "properties": { "NAME": "Wrangell" }, "geometry": { "type": "Point", "coordinates": [ -132.129224940064034, 56.293626454939108 ] } },
{ "type": "Feature", "properties": { "NAME": "Juneau" }, "geometry": { "type": "Point", "coordinates": [ -134.230339191101535, 58.443935176097625 ] } },
{ "type": "Feature", "properties": { "NAME": "Homer" }, "geometry": { "type": "Point", "coordinates": [ -151.512687210861628, 59.643521135629314 ] } },
{ "type": "Feature", "properties": { "NAME": "Kachemak" }, "geometry": { "type": "Point", "coordinates": [ -151.436342983298687, 59.674534721052211 ] } },
{ "type": "Feature", "properties": { "NAME": "Kenai" }, "geometry": { "type": "Point", "coordinates": [ -151.208390301071773, 60.561525742218528 ] } },
{ "type": "Feature", "properties": { "NAME": "Seward" }, "geometry": { "type": "Point", "coordinates": [ -149.394986172848689, 60.108833095654326 ] } },
{ "type": "Feature", "properties": { "NAME": "Soldotna" }, "geometry": { "type": "Point", "coordinates": [ -151.06711000548691, 60.486223060198796 ] } },
{ "type": "Feature", "properties": { "NAME": "Seldovia" }, "geometry": { "type": "Point", "coordinates": [ -151.712279981235582, 59.439368910846156 ] } },
{ "type": "Feature", "properties": { "NAME": "Anderson" }, "geometry": { "type": "Point", "coordinates": [ -149.156179066122519, 64.307394841475343 ] } },
{ "type": "Feature", "properties": { "NAME": "Delta Junction" }, "geometry": { "type": "Point", "coordinates": [ -145.705832715226819, 64.060320843998596 ] } },
{ "type": "Feature", "properties": { "NAME": "Eagle" }, "geometry": { "type": "Point", "coordinates": [ -141.197829937103421, 64.781255728608699 ] } },
{ "type": "Feature", "properties": { "NAME": "North Pole" }, "geometry": { "type": "Point", "coordinates": [ -147.359932675800479, 64.752948987896247 ] } },
{ "type": "Feature", "properties": { "NAME": "Fairbanks" }, "geometry": { "type": "Point", "coordinates": [ -147.653358992884648, 64.835293196516915 ] } }
]
}
