{
"type": "FeatureCollection",
"name": "alaska_centroids",
"crs": { "type": "name", "properties": { "name": "urn:ogc:def:crs:OGC:1.3:CRS84" } },
"features": [
{ "type": "Feature", "properties": { "NAME": "Akiachak" }, "geometry": { "type": "Point", "coordinates": [ -161.418520552733014, 60.899624407598971 ] } },
{ "type": "Feature", "properties": { "NAME": "Tanacross" }, "geometry": { "type": "Point", "coordinates": [ -143.431789507747993, 63.352347206796551 ] } },
{ "type": "Feature", "properties": { "NAME": "Nome" }, "geometry": { "type": "Point", "coordinates": [ -165.227893964160444, 64.511968937168007 ] } },
{ "type": "Feature", "properties": { "NAME": "Healy Lake" }, "geometry": { "type": "Point", "coordinates": [ -144.723505445226436, 63.974104953825055 ] } },
{ "type": "Feature", "properties": { "NAME": "Northway" }, "geometry": { "type": "Point", "coordinates": [ -141.778676474010524, 62.960168921485838 ] } },
{ "type": "Feature", "properties": { "NAME": "Dot Lake" }, "geometry": { "type": "Point", "coordinates": [ -144.016162291069634, 63.662593883624758 ] } },
{ "type": "Feature", "properties": { "NAME": "Eagle" }, "geometry": { "type": "Point", "coordinates": [ -141.113854193918257, 64.743421640902383 ] } },
{ "type": "Feature", "properties": { "NAME": "Chignik" }, "geometry": { "type": "Point", "coordinates": [ -158.408215674064223, 56.304198689975721 ] } },
{ "type": "Feature", "properties": { "NAME": "Chignik Lagoon" }, "geometry": { "type": "Point", "coordinates": [ -158.500239806912219, 56.30427293825074 ] } },
{ "type": "Feature", "properties": { "NAME": "Takotna" }, "geometry": { "type": "Point", "coordinates": [ -156.083806825316827, 62.98268863962118 ] } },
{ "type": "Feature", "properties": { "NAME": "Angoon" }, "geometry": { "type": "Point", "coordinates": [ -134.514185820017275, 57.453886785797238 ] } },
{ "type": "Feature", "properties": { "NAME": "Shageluk" }, "geometry": { "type": "Point", "coordinates": [ -159.562976599783497, 62.668424720601905 ] } },
{ "type": "Feature", "properties": { "NAME": "Stevens Village" }, "geometry": { "type": "Point", "coordinates": [ -149.080196082434639, 66.02455374636358 ] } },
{ "type": "Feature", "properties": { "NAME": "Nanwalek" }, "geometry": { "type": "Point", "coordinates": [ -151.910716041371217, 59.330008326478726 ] } },
{ "type": "Feature", "properties": { "NAME": "Ruby" }, "geometry": { "type": "Point", "coordinates": [ -155.500534972104788, 64.723290445492182 ] } },
{ "type": "Feature", "properties": { "NAME": "Port Graham" }, "geometry": { "type": "Point", "coordinates": [ -151.846508676816512, 59.339803112560858 ] } },
{ "type": "Feature", "properties": { "NAME": "Salamatof" }, "geometry": { "type": "Point", "coordinates": [ -151.315473326136896, 60.615423753119472 ] } },
{ "type": "Feature", "properties": { "NAME": "Pilot Station" }, "geometry": { "type": "Point", "coordinates": [ -162.882784337648303, 61.942195272123911 ] } },
{ "type": "Feature", "properties": { "NAME": "Nikolski" }, "geometry": { "type": "Point", "coordinates": [ -168.938090142320391, 52.900153285146502 ] } },
{ "type": "Feature", "properties": { "NAME": "Kalskag" }, "geometry": { "type": "Point", "coordinates": [ -160.333700998119724, 61.541600237409511 ] } },
{ "type": "Feature", "properties": { "NAME": "Tanana" }, "geometry": { "type": "Point", "coordinates": [ -152.068633834258577, 65.174619817693838 ] } },
{ "type": "Feature", "properties": { "NAME": "Mountain Village" }, "geometry": { "type": "Point", "coordinates": [ -163.785480345581107, 62.099795276785436 ] } },
{ "type": "Feature", "properties": { "NAME": "Kongiganak" }, "geometry": { "type": "Point", "coordinates": [ -162.85444730301279, 59.985735620696389 ] } },
{ "type": "Feature", "properties": { "NAME": "Venetie" }, "geometry": { "type": "Point", "coordinates": [ -146.402207566634246, 67.029145005287845 ] } },
{ "type": "Feature", "properties": { "NAME": "Huslia" }, "geometry": { "type": "Point", "coordinates": [ -156.295791614956585, 65.690361686129975 ] } },
{ "type": "Feature", "properties": { "NAME": "Ohogamiut" }, "geometry": { "type": "Point", "coordinates": [ -161.87296857652845, 61.59220226753655 ] } },
{ "type": "Feature", "properties": { "NAME": "Paimiut" }, "geometry": { "type": "Point", "coordinates": [ -165.764121543352985, 61.724522208548066 ] } },
{ "type": "Feature", "properties": { "NAME": "Iliamna" }, "geometry": { "type": "Point", "coordinates": [ -154.869817988262582, 59.795745917189279 ] } },
{ "type": "Feature", "properties": { "NAME": "Nunam Iqua" }, "geometry": { "type": "Point", "coordinates": [ -164.899842533812603, 62.510962397333003 ] } },
{ "type": "Feature", "properties": { "NAME": "Egegik" }, "geometry": { "type": "Point", "coordinates": [ -157.446626872938111, 58.215113252101276 ] } },
{ "type": "Feature", "properties": { "NAME": "Igiugig" }, "geometry": { "type": "Point", "coordinates": [ -155.873791778272988, 59.305589052047431 ] } },
{ "type": "Feature", "properties": { "NAME": "Ninilchik" }, "geometry": { "type": "Point", "coordinates": [ -151.495366113812906, 59.985430861426799 ] } },
{ "type": "Feature", "properties": { "NAME": "Kenaitze" }, "geometry": { "type": "Point", "coordinates": [ -150.622124018464007, 60.520763361370037 ] } },
{ "type": "Feature", "properties": { "NAME": "Noorvik" }, "geometry": { "type": "Point", "coordinates": [ -161.037625747688338, 66.829211107141859 ] } },
{ "type": "Feature", "properties": { "NAME": "Twin Hills" }, "geometry": { "type": "Point", "coordinates": [ -160.282607548665482, 59.081494359141573 ] } },
{ "type": "Feature", "properties": { "NAME": "Kotzebue" }, "geometry": { "type": "Point", "coordinates": [ -162.523231311297621, 66.876698184309873 ] } },
{ "type": "Feature", "properties": { "NAME": "Noatak" }, "geometry": { "type": "Point", "coordinates": [ -163.030911777626301, 67.598633677934259 ] } },
{ "type": "Feature", "properties": { "NAME": "Kipnuk" }, "geometry": { "type": "Point", "coordinates": [ -164.061542490864724, 59.937310553851916 ] } },
{ "type": "Feature", "properties": { "NAME": "Kobuk" }, "geometry": { "type": "Point", "coordinates": [ -156.893840517439941, 66.931017755536331 ] } },
{ "type": "Feature", "properties": { "NAME": "Kwigillingok" }, "geometry": { "type": "Point", "coordinates": [ -163.17182022547118, 59.876711285833906 ] } },
{ "type": "Feature", "properties": { "NAME": "Ambler" }, "geometry": { "type": "Point", "coordinates": [ -157.872542025630452, 67.089699122816185 ] } },
{ "type": "Feature", "properties": { "NAME": "Ouzinkie" }, "geometry": { "type": "Point", "coordinates": [ -152.425136200231265, 57.916220235123937 ] } },
{ "type": "Feature", "properties": { "NAME": "Kwethluk" }, "geometry": { "type": "Point", "coordinates": [ -161.414688063814452, 60.797816752229679 ] } },
{ "type": "Feature", "properties": { "NAME": "Larsen Bay" }, "geometry": { "type": "Point", "coordinates": [ -154.003290905508464, 57.540763905323622 ] } },
{ "type": "Feature", "properties": { "NAME": "Old Harbor" }, "geometry": { "type": "Point", "coordinates": [ -153.32659778923869, 57.211539321743835 ] } },
{ "type": "Feature", "properties": { "NAME": "Red Devil" }, "geometry": { "type": "Point", "coordinates": [ -157.345993427638348, 61.773490372731338 ] } },
{ "type": "Feature", "properties": { "NAME": "Ekwok" }, "geometry": { "type": "Point", "coordinates": [ -157.486075531125863, 59.346186627073315 ] } },
{ "type": "Feature", "properties": { "NAME": "Oscarville" }, "geometry": { "type": "Point", "coordinates": [ -161.772911971914681, 60.728758783310553 ] } },
{ "type": "Feature", "properties": { "NAME": "Platinum" }, "geometry": { "type": "Point", "coordinates": [ -161.784099840468798, 58.99236803216656 ] } },
{ "type": "Feature", "properties": { "NAME": "Akutan" }, "geometry": { "type": "Point", "coordinates": [ -165.780308825216053, 54.13880494917683 ] } },
{ "type": "Feature", "properties": { "NAME": "Eyak" }, "geometry": { "type": "Point", "coordinates": [ -145.596834768171277, 60.52723642997924 ] } },
{ "type": "Feature", "properties": { "NAME": "Arctic Village" }, "geometry": { "type": "Point", "coordinates": [ -145.610118484219214, 68.095511664979227 ] } },
{ "type": "Feature", "properties": { "NAME": "Atmautluak" }, "geometry": { "type": "Point", "coordinates": [ -162.272331513013313, 60.86143944670318 ] } },
{ "type": "Feature", "properties": { "NAME": "Andreafsky" }, "geometry": { "type": "Point", "coordinates": [ -163.291752686442578, 62.063404301466925 ] } },
{ "type": "Feature", "properties": { "NAME": "Anvik" }, "geometry": { "type": "Point", "coordinates": [ -160.213938766421734, 62.654093928291466 ] } },
{ "type": "Feature", "properties": { "NAME": "Nuiqsut" }, "geometry": { "type": "Point", "coordinates": [ -150.989673253120202, 70.213481713033204 ] } },
{ "type": "Feature", "properties": { "NAME": "Point Hope" }, "geometry": { "type": "Point", "coordinates": [ -166.675093742700398, 68.344561794353424 ] } },
{ "type": "Feature", "properties": { "NAME": "St. Michael" }, "geometry": { "type": "Point", "coordinates": [ -162.114279238631099, 63.468361135451126 ] } },
{ "type": "Feature", "properties": { "NAME": "Savoonga" }, "geometry": { "type": "Point", "coordinates": [ -170.483312787091364, 63.679700835090614 ] } },
{ "type": "Feature", "properties": { "NAME": "Chuloonawick" }, "geometry": { "type": "Point", "coordinates": [ -164.134931303015293, 62.94978963712925 ] } },
{ "type": "Feature", "properties": { "NAME": "Mary's Igloo" }, "geometry": { "type": "Point", "coordinates": [ -165.072184734024859, 65.151981174666389 ] } },
{ "type": "Feature", "properties": { "NAME": "Naknek" }, "geometry": { "type": "Point", "coordinates": [ -156.896974935078447, 58.784939268966028 ] } },
{ "type": "Feature", "properties": { "NAME": "South Naknek" }, "geometry": { "type": "Point", "coordinates": [ -156.991018459943632, 58.663752128980995 ] } },
{ "type": "Feature", "properties": { "NAME": "Tuntutuliak" }, "geometry": { "type": "Point", "coordinates": [ -162.663825464553241, 60.344437336739027 ] } },
{ "type": "Feature", "properties": { "NAME": "Tununak" }, "geometry": { "type": "Point", "coordinates": [ -165.207275824582211, 60.579233886608733 ] } },
{ "type": "Feature", "properties": { "NAME": "Akhiok" }, "geometry": { "type": "Point", "coordinates": [ -154.215101499501941, 56.945016432336878 ] } },
{ "type": "Feature", "properties": { "NAME": "Scammon Bay" }, "geometry": { "type": "Point", "coordinates": [ -165.583279321284436, 61.841928894510438 ] } },
{ "type": "Feature", "properties": { "NAME": "St. Paul" }, "geometry": { "type": "Point", "coordinates": [ -170.275042332403046, 57.182238257258511 ] } },
{ "type": "Feature", "properties": { "NAME": "Unalaska" }, "geometry": { "type": "Point", "coordinates": [ -166.514716821578105, 53.88372159528204 ] } },
{ "type": "Feature", "properties": { "NAME": "Chefornak" }, "geometry": { "type": "Point", "coordinates": [ -164.254953606273887, 60.155046018451472 ] } },
{ "type": "Feature", "properties": { "NAME": "Sitka" }, "geometry": { "type": "Point", "coordinates": [ -135.332930130447835, 57.060394988955416 ] } },
{ "type": "Feature", "properties": { "NAME": "Chilkat" }, "geometry": { "type": "Point", "coordinates": [ -135.891436115944856, 59.399700794137281 ] } },
{ "type": "Feature", "properties": { "NAME": "Hoonah" }, "geometry": { "type": "Point", "coordinates": [ -135.427870508110431, 58.111141266707598 ] } },
{ "type": "Feature", "properties": { "NAME": "Minto" }, "geometry": { "type": "Point", "coordinates": [ -149.372384253943608, 65.151781587538338 ] } },
{ "type": "Feature", "properties": { "NAME": "Buckland" }, "geometry": { "type": "Point", "coordinates": [ -161.134090164594937, 65.978444976064893 ] } },
{ "type": "Feature", "properties": { "NAME": "Gulkana" }, "geometry": { "type": "Point", "coordinates": [ -145.373837439038198, 62.268860938695369 ] } },
{ "type": "Feature", "properties": { "NAME": "Mentasta Lake" }, "geometry": { "type": "Point", "coordinates": [ -143.712718309357911, 62.916142590823547 ] } },
{ "type": "Feature", "properties": { "NAME": "Tatitlek" }, "geometry": { "type": "Point", "coordinates": [ -146.681144392957691, 60.889537565174322 ] } },
{ "type": "Feature", "properties": { "NAME": "Chistochina" }, "geometry": { "type": "Point", "coordinates": [ -144.599133151288527, 62.608204080156412 ] } },
{ "type": "Feature", "properties": { "NAME": "Hughes" }, "geometry": { "type": "Point", "coordinates": [ -154.248496237083486, 66.042794137842222 ] } },
{ "type": "Feature", "properties": { "NAME": "Tetlin" }, "geometry": { "type": "Point", "coordinates": [ -142.478775122492209, 63.132853585460815 ] } },
{ "type": "Feature", "properties": { "NAME": "Yakutat" }, "geometry": { "type": "Point", "coordinates": [ -139.596648991484784, 59.566978777559598 ] } },
{ "type": "Feature", "properties": { "NAME": "Chevak" }, "geometry": { "type": "Point", "coordinates": [ -165.594125301640901, 61.529559807286482 ] } },
{ "type": "Feature", "properties": { "NAME": "Napakiak" }, "geometry": { "type": "Point", "coordinates": [ -161.982205954127664, 60.692335945610679 ] } },
{ "type": "Feature", "properties": { "NAME": "Napaskiak" }, "geometry": { "type": "Point", "coordinates": [ -161.761586046008546, 60.701857108980697 ] } },
{ "type": "Feature", "properties": { "NAME": "Point Lay" }, "geometry": { "type": "Point", "coordinates": [ -162.871567525797929, 69.743309987488544 ] } },
{ "type": "Feature", "properties": { "NAME": "Port Lions" }, "geometry": { "type": "Point", "coordinates": [ -152.843871120993214, 57.781992559150268 ] } },
{ "type": "Feature", "properties": { "NAME": "New Koliganek" }, "geometry": { "type": "Point", "coordinates": [ -157.225633759728481, 59.696343601889424 ] } },
{ "type": "Feature", "properties": { "NAME": "Holy Cross" }, "geometry": { "type": "Point", "coordinates": [ -159.819804508520548, 62.186806804514688 ] } },
{ "type": "Feature", "properties": { "NAME": "Chenega" }, "geometry": { "type": "Point", "coordinates": [ -148.0195590753641, 60.075441351114925 ] } },
{ "type": "Feature", "properties": { "NAME": "Manokotak" }, "geometry": { "type": "Point", "coordinates": [ -159.007430621498202, 59.004720347618552 ] } },
{ "type": "Feature", "properties": { "NAME": "Saxman" }, "geometry": { "type": "Point", "coordinates": [ -131.589149986900026, 55.323164931077443 ] } },
{ "type": "Feature", "properties": { "NAME": "Gakona" }, "geometry": { "type": "Point", "coordinates": [ -145.042743634999738, 62.403543024512572 ] } },
{ "type": "Feature", "properties": { "NAME": "Emmonak" }, "geometry": { "type": "Point", "coordinates": [ -164.515719407468936, 62.776159375035178 ] } },
{ "type": "Feature", "properties": { "NAME": "Hamilton" }, "geometry": { "type": "Point", "coordinates": [ -163.850772013072714, 62.900487050074602 ] } },
{ "type": "Feature", "properties": { "NAME": "Birch Creek" }, "geometry": { "type": "Point", "coordinates": [ -145.869914014394624, 66.268581320654619 ] } },
{ "type": "Feature", "properties": { "NAME": "Tyonek" }, "geometry": { "type": "Point", "coordinates": [ -151.164506346601797, 61.085615436466469 ] } },
{ "type": "Feature", "properties": { "NAME": "Golovin" }, "geometry": { "type": "Point", "coordinates": [ -162.998941947872822, 64.563905761439898 ] } },
{ "type": "Feature", "properties": { "NAME": "Inalik" }, "geometry": { "type": "Point", "coordinates": [ -168.922577494702551, 65.753926067711959 ] } },
{ "type": "Feature", "properties": { "NAME": "Algaaciq" }, "geometry": { "type": "Point", "coordinates": [ -163.160684872561518, 62.063720632353863 ] } },
{ "type": "Feature", "properties": { "NAME": "Rampart" }, "geometry": { "type": "Point", "coordinates": [ -150.146214709737336, 65.49744969002839 ] } },
{ "type": "Feature", "properties": { "NAME": "Dillingham" }, "geometry": { "type": "Point", "coordinates": [ -158.566213152657411, 59.10950140832086 ] } },
{ "type": "Feature", "properties": { "NAME": "Alakanuk" }, "geometry": { "type": "Point", "coordinates": [ -164.630543538842858, 62.690179741077422 ] } },
{ "type": "Feature", "properties": { "NAME": "Sand Point" }, "geometry": { "type": "Point", "coordinates": [ -160.475889876848044, 55.324756236815162 ] } },
{ "type": "Feature", "properties": { "NAME": "Bethel" }, "geometry": { "type": "Point", "coordinates": [ -161.791672045245434, 60.792787603808534 ] } },
{ "type": "Feature", "properties": { "NAME": "Kaktovik" }, "geometry": { "type": "Point", "coordinates": [ -143.625732703314839, 70.123102687566799 ] } },
{ "type": "Feature", "properties": { "NAME": "Aniak" }, "geometry": { "type": "Point", "coordinates": [ -159.50806120350785, 61.567698915202762 ] } },
{ "type": "Feature", "properties": { "NAME": "Atqasuk" }, "geometry": { "type": "Point", "coordinates": [ -157.383505408942455, 70.481010845735426 ] } },
{ "type": "Feature", "properties": { "NAME": "Barrow" }, "geometry": { "type": "Point", "coordinates": [ -156.757152100690575, 71.273087540920059 ] } },
{ "type": "Feature", "properties": { "NAME": "Sleetmute" }, "geometry": { "type": "Point", "coordinates": [ -157.124445549664074, 61.676169013097997 ] } },
{ "type": "Feature", "properties": { "NAME": "Anaktuvuk Pass" }, "geometry": { "type": "Point", "coordinates": [ -151.716180933884658, 68.150000884768048 ] } },
{ "type": "Feature", "properties": { "NAME": "Crooked Creek" }, "geometry": { "type": "Point", "coordinates": [ -158.108266514856183, 61.843893003074136 ] } },
{ "type": "Feature", "properties": { "NAME": "Russian Mission" }, "geometry": { "type": "Point", "coordinates": [ -161.356677687234622, 61.782435302687738 ] } },
{ "type": "Feature", "properties": { "NAME": "Douglas" }, "geometry": { "type": "Point", "coordinates": [ -134.495978804074809, 58.26848740120046 ] } },
{ "type": "Feature", "properties": { "NAME": "Chuathbaluk" }, "geometry": { "type": "Point", "coordinates": [ -159.248879755759305, 61.574574532061419 ] } },
{ "type": "Feature", "properties": { "NAME": "McGrath" }, "geometry": { "type": "Point", "coordinates": [ -155.562956682903291, 62.942375767086006 ] } },
{ "type": "Feature", "properties": { "NAME": "Goodnews Bay" }, "geometry": { "type": "Point", "coordinates": [ -161.575327069001986, 59.127163799578085 ] } },
{ "type": "Feature", "properties": { "NAME": "Manley Hot Springs" }, "geometry": { "type": "Point", "coordinates": [ -150.614683435638426, 65.005868220265995 ] } },
{ "type": "Feature", "properties": { "NAME": "Koyukuk" }, "geometry": { "type": "Point", "coordinates": [ -157.694630092634441, 64.900777350111056 ] } },
{ "type": "Feature", "properties": { "NAME": "Kiana" }, "geometry": { "type": "Point", "coordinates": [ -160.431773756476133, 66.978607680357314 ] } },
{ "type": "Feature", "properties": { "NAME": "Beaver" }, "geometry": { "type": "Point", "coordinates": [ -147.321853464517773, 66.383004757272218 ] } },
{ "type": "Feature", "properties": { "NAME": "Koyuk" }, "geometry": { "type": "Point", "coordinates": [ -161.145456721470254, 64.941082475115707 ] } },
{ "type": "Feature", "properties": { "NAME": "Deering" }, "geometry": { "type": "Point", "coordinates": [ -162.743903758491541, 66.072194977531112 ] } },
{ "type": "Feature", "properties": { "NAME": "King Cove" }, "geometry": { "type": "Point", "coordinates": [ -162.292634468106741, 55.06119093008504 ] } },
{ "type": "Feature", "properties": { "NAME": "Nelson Lagoon" }, "geometry": { "type": "Point", "coordinates": [ -161.268446082195794, 55.985047394378093 ] } },
{ "type": "Feature", "properties": { "NAME": "Lake Minchumina" }, "geometry": { "type": "Point", "coordinates": [ -152.319475591353665, 63.892674376303702 ] } },
{ "type": "Feature", "properties": { "NAME": "False Pass" }, "geometry": { "type": "Point", "coordinates": [ -163.399444507157511, 54.842141013674429 ] } },
{ "type": "Feature", "properties": { "NAME": "Kwinhagak" }, "geometry": { "type": "Point", "coordinates": [ -161.899347338767114, 59.751079729655906 ] } },
{ "type": "Feature", "properties": { "NAME": "Lime Village" }, "geometry": { "type": "Point", "coordinates": [ -155.3180590604033, 61.327032887530279 ] } },
{ "type": "Feature", "properties": { "NAME": "Shungnak" }, "geometry": { "type": "Point", "coordinates": [ -157.149943545391409, 66.880520102419396 ] } },
{ "type": "Feature", "properties": { "NAME": "Belkofski" }, "geometry": { "type": "Point", "coordinates": [ -162.040714482661855, 55.088294963497653 ] } },
{ "type": "Feature", "properties": { "NAME": "Karluk" }, "geometry": { "type": "Point", "coordinates": [ -154.399321016892259, 57.573982227214167 ] } },
{ "type": "Feature", "properties": { "NAME": "Elim" }, "geometry": { "type": "Point", "coordinates": [ -162.141450767710126, 64.74722831328539 ] } },
{ "type": "Feature", "properties": { "NAME": "Newtok" }, "geometry": { "type": "Point", "coordinates": [ -164.499107818023219, 60.810989207518475 ] } },
{ "type": "Feature", "properties": { "NAME": "Newtok" }, "geometry": { "type": "Point", "coordinates": [ -164.638620925561526, 60.934168276474139 ] } },
{ "type": "Feature", "properties": { "NAME": "Aleknagik" }, "geometry": { "type": "Point", "coordinates": [ -158.640449231581414, 59.281642574437903 ] } },
{ "type": "Feature", "properties": { "NAME": "Clarks Point" }, "geometry": { "type": "Point", "coordinates": [ -158.532897104637698, 58.833464862778563 ] } },
{ "type": "Feature", "properties": { "NAME": "Perryville" }, "geometry": { "type": "Point", "coordinates": [ -159.155874978288949, 55.93168750305172 ] } },
{ "type": "Feature", "properties": { "NAME": "Telida" }, "geometry": { "type": "Point", "coordinates": [ -153.28516422494647, 63.379387946905176 ] } },
{ "type": "Feature", "properties": { "NAME": "Nondalton" }, "geometry": { "type": "Point", "coordinates": [ -154.862691229983511, 59.971086107228174 ] } },
{ "type": "Feature", "properties": { "NAME": "Pedro Bay" }, "geometry": { "type": "Point", "coordinates": [ -154.132133245003047, 59.786226137953285 ] } },
{ "type": "Feature", "properties": { "NAME": "White Mountain" }, "geometry": { "type": "Point", "coordinates": [ -163.422836908340059, 64.681200157895418 ] } },
{ "type": "Feature", "properties": { "NAME": "Kivalina" }, "geometry": { "type": "Point", "coordinates": [ -164.521414465699593, 67.73174464041341 ] } },
{ "type": "Feature", "properties": { "NAME": "Canyon Village" }, "geometry": { "type": "Point", "coordinates": [ -141.969851490177717, 67.176595665632362 ] } },
{ "type": "Feature", "properties": { "NAME": "King Salmon" }, "geometry": { "type": "Point", "coordinates": [ -156.716036328380142, 58.717749637052506 ] } },
{ "type": "Feature", "properties": { "NAME": "Chickaloon" }, "geometry": { "type": "Point", "coordinates": [ -148.383895128147913, 62.24535497754588 ] } },
{ "type": "Feature", "properties": { "NAME": "Shaktoolik" }, "geometry": { "type": "Point", "coordinates": [ -161.194944406788011, 64.355279216274241 ] } },
{ "type": "Feature", "properties": { "NAME": "Copper Center" }, "geometry": { "type": "Point", "coordinates": [ -145.355075265186429, 61.990480197880522 ] } },
{ "type": "Feature", "properties": { "NAME": "Knik" }, "geometry": { "type": "Point", "coordinates": [ -150.340863371409228, 62.002032100797067 ] } },
{ "type": "Feature", "properties": { "NAME": "Chitina" }, "geometry": { "type": "Point", "coordinates": [ -144.596715734036422, 61.514940073861133 ] } },
{ "type": "Feature", "properties": { "NAME": "Tazlina" }, "geometry": { "type": "Point", "coordinates": [ -145.441200399755672, 62.066038492968048 ] } },
{ "type": "Feature", "properties": { "NAME": "Portage Creek" }, "geometry": { "type": "Point", "coordinates": [ -157.669818906845279, 58.905425672404895 ] } },
{ "type": "Feature", "properties": { "NAME": "Togiak" }, "geometry": { "type": "Point", "coordinates": [ -160.406110489506119, 59.005144905428985 ] } },
{ "type": "Feature", "properties": { "NAME": "New Stuyahok" }, "geometry": { "type": "Point", "coordinates": [ -157.271003123843968, 59.476179499852542 ] } },
{ "type": "Feature", "properties": { "NAME": "Solomon" }, "geometry": { "type": "Point", "coordinates": [ -164.591133902796344, 64.514095688060564 ] } },
{ "type": "Feature", "properties": { "NAME": "Stebbins" }, "geometry": { "type": "Point", "coordinates": [ -162.260059773767466, 63.470315956416961 ] } },
{ "type": "Feature", "properties": { "NAME": "Shishmaref" }, "geometry": { "type": "Point", "coordinates": [ -166.109283798178183, 66.238661649156711 ] } },
{ "type": "Feature", "properties": { "NAME": "Shishmaref" }, "geometry": { "type": "Point", "coordinates": [ -166.118196237602774, 66.092629238976272 ] } },
{ "type": "Feature", "properties": { "NAME": "Levelock" }, "geometry": { "type": "Point", "coordinates": [ -156.901013794571128, 59.068270997605339 ] } },
{ "type": "Feature", "properties": { "NAME": "Newhalen" }, "geometry": { "type": "Point", "coordinates": [ -154.89698957695532, 59.726982582428633 ] } },
{ "type": "Feature", "properties": { "NAME": "Ivanof Bay" }, "geometry": { "type": "Point", "coordinates": [ -159.493300697881068, 55.918204093948688 ] } },
{ "type": "Feature", "properties": { "NAME": "Kokhanok" }, "geometry": { "type": "Point", "coordinates": [ -154.74567663719688, 59.415819034496373 ] } },
{ "type": "Feature", "properties": { "NAME": "Lower Kalskag" }, "geometry": { "type": "Point", "coordinates": [ -160.355632513933614, 61.516326149243561 ] } },
{ "type": "Feature", "properties": { "NAME": "Mekoryuk" }, "geometry": { "type": "Point", "coordinates": [ -166.266790180368531, 60.370235703744513 ] } },
{ "type": "Feature", "properties": { "NAME": "Wales" }, "geometry": { "type": "Point", "coordinates": [ -168.078099604952797, 65.612083112414751 ] } },
{ "type": "Feature", "properties": { "NAME": "Marshall" }, "geometry": { "type": "Point", "coordinates": [ -162.048752295338431, 61.875328768137614 ] } },
{ "type": "Feature", "properties": { "NAME": "Kodiak" }, "geometry": { "type": "Point", "coordinates": [ -152.533691604191517, 57.854155964698322 ] } },
{ "type": "Feature", "properties": { "NAME": "Unalakleet" }, "geometry": { "type": "Point", "coordinates": [ -160.795300354586857, 63.92355775951134 ] } },
{ "type": "Feature", "properties": { "NAME": "Nulato" }, "geometry": { "type": "Point", "coordinates": [ -158.238233258239347, 64.705234712002465 ] } },
{ "type": "Feature", "properties": { "NAME": "Napaimute" }, "geometry": { "type": "Point", "coordinates": [ -158.70127456315754, 61.557269244353087 ] } },
{ "type": "Feature", "properties": { "NAME": "Annette Island" }, "geometry": { "type": "Point", "coordinates": [ -131.483446007989357, 55.128405648356569 ] } },
{ "type": "Feature", "properties": { "NAME": "Circle" }, "geometry": { "type": "Point", "coordinates": [ -144.181298080969185, 65.793603499905913 ] } },
{ "type": "Feature", "properties": { "NAME": "Uyak" }, "geometry": { "type": "Point", "coordinates": [ -154.013877280331087, 57.633322497376582 ] } },
{ "type": "Feature", "properties": { "NAME": "Grayling" }, "geometry": { "type": "Point", "coordinates": [ -160.107899236750512, 62.89975940057186 ] } },
{ "type": "Feature", "properties": { "NAME": "Chalkyitsik" }, "geometry": { "type": "Point", "coordinates": [ -143.782064156969597, 66.646837409211287 ] } },
{ "type": "Feature", "properties": { "NAME": "Klawock" }, "geometry": { "type": "Point", "coordinates": [ -133.097186932282227, 55.553191692718563 ] } },
{ "type": "Feature", "properties": { "NAME": "Chilkoot" }, "geometry": { "type": "Point", "coordinates": [ -135.445016746291515, 59.224753293155366 ] } },
{ "type": "Feature", "properties": { "NAME": "Galena" }, "geometry": { "type": "Point", "coordinates": [ -156.8660338048943, 64.738424389770429 ] } },
{ "type": "Feature", "properties": { "NAME": "Kasaan" }, "geometry": { "type": "Point", "coordinates": [ -132.415890017954979, 55.555968386642796 ] } },
{ "type": "Feature", "properties": { "NAME": "Evansville" }, "geometry": { "type": "Point", "coordinates": [ -151.514276193439997, 66.903244083761109 ] } },
{ "type": "Feature", "properties": { "NAME": "Fort Yukon" }, "geometry": { "type": "Point", "coordinates": [ -145.241422763771794, 66.580666089352448 ] } },
{ "type": "Feature", "properties": { "NAME": "Alatna" }, "geometry": { "type": "Point", "coordinates": [ -152.751711164721826, 66.564085756765891 ] } },
{ "type": "Feature", "properties": { "NAME": "Allakaket" }, "geometry": { "type": "Point", "coordinates": [ -152.595057007292354, 66.54136389092001 ] } },
{ "type": "Feature", "properties": { "NAME": "Bill Moore's" }, "geometry": { "type": "Point", "coordinates": [ -163.781922824928643, 62.943952403610844 ] } },
{ "type": "Feature", "properties": { "NAME": "Lesnoi" }, "geometry": { "type": "Point", "coordinates": [ -152.336732660483221, 57.779246884995864 ] } },
{ "type": "Feature", "properties": { "NAME": "Ugashik" }, "geometry": { "type": "Point", "coordinates": [ -157.287854325800538, 57.5051442829214 ] } },
{ "type": "Feature", "properties": { "NAME": "Kaltag" }, "geometry": { "type": "Point", "coordinates": [ -158.743560097589267, 64.32228756462014 ] } },
{ "type": "Feature", "properties": { "NAME": "Pilot Point" }, "geometry": { "type": "Point", "coordinates": [ -157.562851765998005, 57.569963286965297 ] } },
{ "type": "Feature", "properties": { "NAME": "Port Heiden" }, "geometry": { "type": "Point", "coordinates": [ -158.605331312202594, 56.942594136511218 ] } },
{ "type": "Feature", "properties": { "NAME": "Toksook Bay" }, "geometry": { "type": "Point", "coordinates": [ -165.084312057713532, 60.550684230513859 ] } },
{ "type": "Feature", "properties": { "NAME": "Tuluksak" }, "geometry": { "type": "Point", "coordinates": [ -160.949338834514549, 61.105008969722434 ] } },
{ "type": "Feature", "properties": { "NAME": "Georgetown" }, "geometry": { "type": "Point", "coordinates": [ -157.675233483010544, 61.913274021672358 ] } },
{ "type": "Feature", "properties": { "NAME": "Stony River" }, "geometry": { "type": "Point", "coordinates": [ -156.586007642988392, 61.793659396319846 ] } },
{ "type": "Feature", "properties": { "NAME": "Kasigluk" }, "geometry": { "type": "Point", "coordinates": [ -162.527460485455066, 60.878442477410545 ] } },
{ "type": "Feature", "properties": { "NAME": "Eek" }, "geometry": { "type": "Point", "coordinates": [ -162.033105954426247, 60.216443414840988 ] } },
{ "type": "Feature", "properties": { "NAME": "Nunapitchuk" }, "geometry": { "type": "Point", "coordinates": [ -162.461524240226254, 60.877222611401102 ] } },
{ "type": "Feature", "properties": { "NAME": "Eklutna" }, "geometry": { "type": "Point", "coordinates": [ -149.333775268725873, 61.471011500343529 ] } },
{ "type": "Feature", "properties": { "NAME": "Chignik Lake" }, "geometry": { "type": "Point", "coordinates": [ -158.759991072433479, 56.254682061417945 ] } },
{ "type": "Feature", "properties": { "NAME": "Nightmute" }, "geometry": { "type": "Point", "coordinates": [ -164.704993389237387, 60.483662165125345 ] } },
{ "type": "Feature", "properties": { "NAME": "Wainwright" }, "geometry": { "type": "Point", "coordinates": [ -159.959416638721308, 70.646155841675323 ] } },
{ "type": "Feature", "properties": { "NAME": "Atka" }, "geometry": { "type": "Point", "coordinates": [ -174.206308076155693, 52.229066775041446 ] } },
{ "type": "Feature", "properties": { "NAME": "Council" }, "geometry": { "type": "Point", "coordinates": [ -163.641668482910319, 64.898396218913788 ] } },
{ "type": "Feature", "properties": { "NAME": "Gambell" }, "geometry": { "type": "Point", "coordinates": [ -171.692016631573694, 63.754494973632191 ] } },
{ "type": "Feature", "properties": { "NAME": "St. George" }, "geometry": { "type": "Point", "coordinates": [ -169.628154592858266, 56.589914614189688 ] } },
{ "type": "Feature", "properties": { "NAME": "Brevig Mission" }, "geometry": { "type": "Point", "coordinates": [ -166.495457022775554, 65.341231723069328 ] } },
{ "type": "Feature", "properties": { "NAME": "Nenana" }, "geometry": { "type": "Point", "coordinates": [ -149.085532448738832, 64.53892490669422 ] } },
{ "type": "Feature", "properties": { "NAME": "Nikolai" }, "geometry": { "type": "Point", "coordinates": [ -154.376323724924077, 63.009525455329594 ] } },
{ "type": "Feature", "properties": { "NAME": "Craig" }, "geometry": { "type": "Point", "coordinates": [ -133.080454787820003, 55.469142502027964 ] } },
{ "type": "Feature", "properties": { "NAME": "Hydaburg" }, "geometry": { "type": "Point", "coordinates": [ -132.820889468494755, 55.206113134998766 ] } },
{ "type": "Feature", "properties": { "NAME": "Pitkas Point" }, "geometry": { "type": "Point", "coordinates": [ -163.268128387559074, 62.037403542856843 ] } },
{ "type": "Feature", "properties": { "NAME": "Teller" }, "geometry": { "type": "Point", "coordinates": [ -166.342216987315027, 65.253100979370103 ] } },
{ "type": "Feature", "properties": { "NAME": "Ketchikan" }, "geometry": { "type": "Point", "coordinates": [ -131.695068402162008, 55.385662573243309 ] } },
{ "type": "Feature", "properties": { "NAME": "Port Alsworth" }, "geometry": { "type": "Point", "coordinates": [ -154.32327723598172, 60.168841275760954 ] } },
{ "type": "Feature", "properties": { "NAME": "Wrangell" }, "geometry": { "type": "Point", "coordinates": [ -132.378857682486313, 56.4728018838452 ] } },
{ "type": "Feature", "properties": { "NAME": "Skagway" }, "geometry": { "type": "Point", "coordinates": [ -135.272796878261062, 59.562288935530425 ] } },
{ "type": "Feature", "properties": { "NAME": "Seldovia" }, "geometry": { "type": "Point", "coordinates": [ -151.635731042688576, 59.458374054911786 ] } },
{ "type": "Feature", "properties": { "NAME": "Kake" }, "geometry": { "type": "Point", "coordinates": [ -133.927937813867686, 56.969536203575174 ] } },
{ "type": "Feature", "properties": { "NAME": "Kotlik" }, "geometry": { "type": "Point", "coordinates": [ -163.552996892241481, 63.030473468668902 ] } },
{ "type": "Feature", "properties": { "NAME": "Selawik" }, "geometry": { "type": "Point", "coordinates": [ -159.999551828813907, 66.598825171958353 ] } },
{ "type": "Feature", "properties": { "NAME": "Cantwell" }, "geometry": { "type": "Point", "coordinates": [ -148.764473231557616, 63.383615261848902 ] } },
{ "type": "Feature", "properties": { "NAME": "Hooper Bay" }, "geometry": { "type": "Point", "coordinates": [ -166.114516615821742, 61.52487752510207 ] } },
{ "type": "Feature", "properties": { "NAME": "Akiak" }, "geometry": { "type": "Point", "coordinates": [ -161.226148009954102, 60.910125473757589 ] } },
{ "type": "Feature", "properties": { "NAME": "Ekuk" }, "geometry": { "type": "Point", "coordinates": [ -158.530438046730353, 58.805246428449522 ] } },
{ "type": "Feature", "properties": { "NAME": "Petersburg" }, "geometry": { "type": "Point", "coordinates": [ -132.948053522469962, 56.808482718437553 ] } }
]
}
