{
"type": "FeatureCollection",
"name": "ca_SanDiego_centroids",
"crs": { "type": "name", "properties": { "name": "urn:ogc:def:crs:OGC:1.3:CRS84" } },
"features": [
{ "type": "Feature", "properties": { "NAME": "UNIFIED WARNER" }, "geometry": { "type": "Point", "coordinates": [ -116.581138, 33.285146 ] } },
{ "type": "Feature", "properties": { "NAME": "UNIFIED VISTA" }, "geometry": { "type": "Point", "coordinates": [ -117.238613, 33.203963 ] } },
{ "type": "Feature", "properties": { "NAME": "UNIFIED VALLEY CENTER-PAUMA" }, "geometry": { "type": "Point", "coordinates": [ -116.953058, 33.283647 ] } },
{ "type": "Feature", "properties": { "NAME": "UNIFIED SAN MARCOS" }, "geometry": { "type": "Point", "coordinates": [ -117.180974, 33.144908 ] } },
{ "type": "Feature", "properties": { "NAME": "UNIFIED SAN DIEGO" }, "geometry": { "type": "Point", "coordinates": [ -117.145489, 32.806052 ] } },
{ "type": "Feature", "properties": { "NAME": "UNIFIED CORONADO" }, "geometry": { "type": "Point", "coordinates": [ -117.163422, 32.669972 ] } },
{ "type": "Feature", "properties": { "NAME": "UNIFIED RAMONA" }, "geometry": { "type": "Point", "coordinates": [ -116.831608, 33.035349 ] } },
{ "type": "Feature", "properties": { "NAME": "UNIFIED POWAY" }, "geometry": { "type": "Point", "coordinates": [ -117.059187, 32.981218 ] } },
{ "type": "Feature", "properties": { "NAME": "UNIFIED OCEANSIDE" }, "geometry": { "type": "Point", "coordinates": [ -117.358669, 33.254641 ] } },
{ "type": "Feature", "properties": { "NAME": "UNIFIED MT EMPIRE" }, "geometry": { "type": "Point", "coordinates": [ -116.381746, 32.749435 ] } },
{ "type": "Feature", "properties": { "NAME": "UNIFIED CARLSBAD" }, "geometry": { "type": "Point", "coordinates": [ -117.298194, 33.137555 ] } },
{ "type": "Feature", "properties": { "NAME": "UNIFIED BORREGO SPRINGS" }, "geometry": { "type": "Point", "coordinates": [ -116.240453, 33.282047 ] } },
{ "type": "Feature", "properties": { "NAME": "UNIFIED BONSALL" }, "geometry": { "type": "Point", "coordinates": [ -117.160819, 33.307148 ] } }
]
}
