{
"type": "FeatureCollection",
"name": "ca_sanjoaquin_centroids",
"crs": { "type": "name", "properties": { "name": "urn:ogc:def:crs:OGC:1.3:CRS84" } },
"features": [
{ "type": "Feature", "properties": { "NAME": "Lathrop" }, "geometry": { "type": "Point", "coordinates": [ -121.313125632603374, 37.80900170689975 ] } },
{ "type": "Feature", "properties": { "NAME": "Lodi" }, "geometry": { "type": "Point", "coordinates": [ -121.281429368285075, 38.125784919757045 ] } },
{ "type": "Feature", "properties": { "NAME": "Lodi" }, "geometry": { "type": "Point", "coordinates": [ -121.387888402438151, 38.097154527457846 ] } },
{ "type": "Feature", "properties": { "NAME": "Lodi" }, "geometry": { "type": "Point", "coordinates": [ -121.38748119422057, 38.089812452474405 ] } },
{ "type": "Feature", "properties": { "NAME": "Manteca" }, "geometry": { "type": "Point", "coordinates": [ -121.22636400029829, 37.792743445156766 ] } },
{ "type": "Feature", "properties": { "NAME": "Tracy" }, "geometry": { "type": "Point", "coordinates": [ -121.437552756244287, 37.678770609058276 ] } },
{ "type": "Feature", "properties": { "NAME": "Tracy" }, "geometry": { "type": "Point", "coordinates": [ -121.452301816018249, 37.726947807830989 ] } },
{ "type": "Feature", "properties": { "NAME": "Escalon" }, "geometry": { "type": "Point", "coordinates": [ -121.005963864818696, 37.754977142389592 ] } },
{ "type": "Feature", "properties": { "NAME": "Escalon" }, "geometry": { "type": "Point", "coordinates": [ -120.997617097469941, 37.793907884259184 ] } },
{ "type": "Feature", "properties": { "NAME": "Ripon" }, "geometry": { "type": "Point", "coordinates": [ -121.130996747520285, 37.741697809445711 ] } },
{ "type": "Feature", "properties": { "NAME": "Stockton" }, "geometry": { "type": "Point", "coordinates": [ -121.310924944431761, 37.976493495257074 ] } },
{ "type": "Feature", "properties": { "NAME": "Acampo" }, "geometry": { "type": "Point", "coordinates": [ -121.279891448768097, 38.173528692500668 ] } },
{ "type": "Feature", "properties": { "NAME": "August" }, "geometry": { "type": "Point", "coordinates": [ -121.262510655845574, 37.979644022341503 ] } },
{ "type": "Feature", "properties": { "NAME": "Collierville" }, "geometry": { "type": "Point", "coordinates": [ -121.267454871727125, 38.214149986114549 ] } },
{ "type": "Feature", "properties": { "NAME": "Country Club" }, "geometry": { "type": "Point", "coordinates": [ -121.340822615900052, 37.968701787335839 ] } },
{ "type": "Feature", "properties": { "NAME": "Dogtown" }, "geometry": { "type": "Point", "coordinates": [ -121.155059996068942, 38.20958560464544 ] } },
{ "type": "Feature", "properties": { "NAME": "Farmington" }, "geometry": { "type": "Point", "coordinates": [ -121.00436814914346, 37.929866204974459 ] } },
{ "type": "Feature", "properties": { "NAME": "French Camp" }, "geometry": { "type": "Point", "coordinates": [ -121.280309760595088, 37.880264363073962 ] } },
{ "type": "Feature", "properties": { "NAME": "Garden Acres" }, "geometry": { "type": "Point", "coordinates": [ -121.229610560232857, 37.963697447276132 ] } },
{ "type": "Feature", "properties": { "NAME": "Kennedy" }, "geometry": { "type": "Point", "coordinates": [ -121.245783636618683, 37.929041739281857 ] } },
{ "type": "Feature", "properties": { "NAME": "Lincoln Village" }, "geometry": { "type": "Point", "coordinates": [ -121.333800028644248, 38.005487312618818 ] } },
{ "type": "Feature", "properties": { "NAME": "Mountain House" }, "geometry": { "type": "Point", "coordinates": [ -121.545263723666778, 37.77401814423056 ] } },
{ "type": "Feature", "properties": { "NAME": "Linden" }, "geometry": { "type": "Point", "coordinates": [ -121.099363974839449, 38.018570048081536 ] } },
{ "type": "Feature", "properties": { "NAME": "Lockeford" }, "geometry": { "type": "Point", "coordinates": [ -121.15543924012016, 38.150840740063828 ] } },
{ "type": "Feature", "properties": { "NAME": "Morada" }, "geometry": { "type": "Point", "coordinates": [ -121.245548743311346, 38.038630203303882 ] } },
{ "type": "Feature", "properties": { "NAME": "Peters" }, "geometry": { "type": "Point", "coordinates": [ -121.043940336267298, 37.976300883919485 ] } },
{ "type": "Feature", "properties": { "NAME": "Taft Mosswood" }, "geometry": { "type": "Point", "coordinates": [ -121.28311413704526, 37.914015209891232 ] } },
{ "type": "Feature", "properties": { "NAME": "Terminous" }, "geometry": { "type": "Point", "coordinates": [ -121.489558190713026, 38.115256563172224 ] } },
{ "type": "Feature", "properties": { "NAME": "Victor" }, "geometry": { "type": "Point", "coordinates": [ -121.198760454141919, 38.13846535398546 ] } },
{ "type": "Feature", "properties": { "NAME": "Waterloo" }, "geometry": { "type": "Point", "coordinates": [ -121.184551073005863, 38.036452894111065 ] } },
{ "type": "Feature", "properties": { "NAME": "Woodbridge" }, "geometry": { "type": "Point", "coordinates": [ -121.311306098397495, 38.16917474447331 ] } },
{ "type": "Feature", "properties": { "NAME": "Thornton" }, "geometry": { "type": "Point", "coordinates": [ -121.424883816275582, 38.230906291094605 ] } }
]
}
