{
"type": "FeatureCollection",
"name": "cincinnati_schools_centroids",
"crs": { "type": "name", "properties": { "name": "urn:ogc:def:crs:OGC:1.3:CRS84" } },
"features": [
{ "type": "Feature", "properties": { "NAME": "National Trail Local School District" }, "geometry": { "type": "Point", "coordinates": [ -84.720910921385553, 39.844304921355707 ] } },
{ "type": "Feature", "properties": { "NAME": "Talawanda City School District" }, "geometry": { "type": "Point", "coordinates": [ -84.706496869612309, 39.485574266157258 ] } },
{ "type": "Feature", "properties": { "NAME": "Twin Valley Community Local School District" }, "geometry": { "type": "Point", "coordinates": [ -84.541304680012317, 39.725569977251979 ] } },
{ "type": "Feature", "properties": { "NAME": "College Corner Local School District" }, "geometry": { "type": "Point", "coordinates": [ -84.792238184181898, 39.583075433386057 ] } },
{ "type": "Feature", "properties": { "NAME": "Hamilton City School District" }, "geometry": { "type": "Point", "coordinates": [ -84.568934498242314, 39.394347450725725 ] } },
{ "type": "Feature", "properties": { "NAME": "Graham Local School District" }, "geometry": { "type": "Point", "coordinates": [ -83.91718596736861, 40.144884802307985 ] } },
{ "type": "Feature", "properties": { "NAME": "Bradford Exempted Village School District" }, "geometry": { "type": "Point", "coordinates": [ -84.431833346463776, 40.145354559330215 ] } },
{ "type": "Feature", "properties": { "NAME": "Fort Loramie Local School District" }, "geometry": { "type": "Point", "coordinates": [ -84.350859681797985, 40.3368579752686 ] } },
{ "type": "Feature", "properties": { "NAME": "Russia Local School District" }, "geometry": { "type": "Point", "coordinates": [ -84.403904905039354, 40.24990166003888 ] } },
{ "type": "Feature", "properties": { "NAME": "New Bremen Local School District" }, "geometry": { "type": "Point", "coordinates": [ -84.370899385581922, 40.455123207067764 ] } },
{ "type": "Feature", "properties": { "NAME": "Botkins Local School District" }, "geometry": { "type": "Point", "coordinates": [ -84.168352873811159, 40.468990212248762 ] } },
{ "type": "Feature", "properties": { "NAME": "Jackson Center Local School District" }, "geometry": { "type": "Point", "coordinates": [ -84.047021733798957, 40.436729451580895 ] } },
{ "type": "Feature", "properties": { "NAME": "Minster Local School District" }, "geometry": { "type": "Point", "coordinates": [ -84.391554650622382, 40.387376491154974 ] } },
{ "type": "Feature", "properties": { "NAME": "Hardin-Houston Local School District" }, "geometry": { "type": "Point", "coordinates": [ -84.282516064001584, 40.26282375620832 ] } },
{ "type": "Feature", "properties": { "NAME": "New Miami Local School District" }, "geometry": { "type": "Point", "coordinates": [ -84.541408605086289, 39.44152297623576 ] } },
{ "type": "Feature", "properties": { "NAME": "Versailles Exempted Village School District" }, "geometry": { "type": "Point", "coordinates": [ -84.508695003344712, 40.261696123972456 ] } },
{ "type": "Feature", "properties": { "NAME": "Anna Local School District" }, "geometry": { "type": "Point", "coordinates": [ -84.205911940248043, 40.397609808236552 ] } },
{ "type": "Feature", "properties": { "NAME": "Deer Park Community City School District" }, "geometry": { "type": "Point", "coordinates": [ -84.396830061241459, 39.211147117947682 ] } },
{ "type": "Feature", "properties": { "NAME": "Lockland Local School District" }, "geometry": { "type": "Point", "coordinates": [ -84.455546630876796, 39.226661676462129 ] } },
{ "type": "Feature", "properties": { "NAME": "Winton Woods City School District" }, "geometry": { "type": "Point", "coordinates": [ -84.519025569223132, 39.269829305681931 ] } },
{ "type": "Feature", "properties": { "NAME": "Wyoming City School District" }, "geometry": { "type": "Point", "coordinates": [ -84.4814899625365, 39.229522592211971 ] } },
{ "type": "Feature", "properties": { "NAME": "Forest Hills Local School District" }, "geometry": { "type": "Point", "coordinates": [ -84.352930073711718, 39.089553988396119 ] } },
{ "type": "Feature", "properties": { "NAME": "Madeira City School District" }, "geometry": { "type": "Point", "coordinates": [ -84.373180090103062, 39.185440542821908 ] } },
{ "type": "Feature", "properties": { "NAME": "North College Hill City School District" }, "geometry": { "type": "Point", "coordinates": [ -84.552969471777573, 39.216286119634717 ] } },
{ "type": "Feature", "properties": { "NAME": "Eaton Community City School District" }, "geometry": { "type": "Point", "coordinates": [ -84.705525125723042, 39.704670117511618 ] } },
{ "type": "Feature", "properties": { "NAME": "Edgewood City School District" }, "geometry": { "type": "Point", "coordinates": [ -84.525065419640299, 39.498513024673386 ] } },
{ "type": "Feature", "properties": { "NAME": "Valley View Local School District" }, "geometry": { "type": "Point", "coordinates": [ -84.4114973230961, 39.650608189135326 ] } },
{ "type": "Feature", "properties": { "NAME": "Tri-County North Local School District" }, "geometry": { "type": "Point", "coordinates": [ -84.527519857022455, 39.865588771392673 ] } },
{ "type": "Feature", "properties": { "NAME": "Preble Shawnee Local School District" }, "geometry": { "type": "Point", "coordinates": [ -84.594818451068718, 39.621318313241879 ] } },
{ "type": "Feature", "properties": { "NAME": "Madison Local School District" }, "geometry": { "type": "Point", "coordinates": [ -84.43019863759254, 39.549227007516578 ] } },
{ "type": "Feature", "properties": { "NAME": "Norwood City School District" }, "geometry": { "type": "Point", "coordinates": [ -84.453511774468041, 39.160586604657738 ] } },
{ "type": "Feature", "properties": { "NAME": "Reading Community City School District" }, "geometry": { "type": "Point", "coordinates": [ -84.433894572462123, 39.223909238350458 ] } },
{ "type": "Feature", "properties": { "NAME": "St. Bernard-Elmwood Place City School District" }, "geometry": { "type": "Point", "coordinates": [ -84.494368148043492, 39.173614056611562 ] } },
{ "type": "Feature", "properties": { "NAME": "Monroe Local School District" }, "geometry": { "type": "Point", "coordinates": [ -84.373383363765484, 39.445652186473076 ] } },
{ "type": "Feature", "properties": { "NAME": "Loveland City School District" }, "geometry": { "type": "Point", "coordinates": [ -84.266412520965972, 39.258016809886868 ] } },
{ "type": "Feature", "properties": { "NAME": "Princeton City School District" }, "geometry": { "type": "Point", "coordinates": [ -84.429923998566039, 39.275878270731837 ] } },
{ "type": "Feature", "properties": { "NAME": "Blanchester Local School District" }, "geometry": { "type": "Point", "coordinates": [ -83.959387111149752, 39.278053222798569 ] } },
{ "type": "Feature", "properties": { "NAME": "Kings Local School District" }, "geometry": { "type": "Point", "coordinates": [ -84.253078754286619, 39.345370713362882 ] } },
{ "type": "Feature", "properties": { "NAME": "Wayne Local School District" }, "geometry": { "type": "Point", "coordinates": [ -84.078977517772088, 39.530528577348669 ] } },
{ "type": "Feature", "properties": { "NAME": "Finneytown Local School District" }, "geometry": { "type": "Point", "coordinates": [ -84.512997383413804, 39.215094397656934 ] } },
{ "type": "Feature", "properties": { "NAME": "Northwest Local School District" }, "geometry": { "type": "Point", "coordinates": [ -84.621971418196821, 39.247201165426652 ] } },
{ "type": "Feature", "properties": { "NAME": "Mariemont City School District" }, "geometry": { "type": "Point", "coordinates": [ -84.350990979266257, 39.147962656892339 ] } },
{ "type": "Feature", "properties": { "NAME": "Indian Hill Exempted Village School District" }, "geometry": { "type": "Point", "coordinates": [ -84.33439535191593, 39.194402941777327 ] } },
{ "type": "Feature", "properties": { "NAME": "Greenfield Exempted Village School District" }, "geometry": { "type": "Point", "coordinates": [ -83.380906538892688, 39.311229284370576 ] } },
{ "type": "Feature", "properties": { "NAME": "Milford Exempted Village School District" }, "geometry": { "type": "Point", "coordinates": [ -84.252203862053676, 39.184372439879752 ] } },
{ "type": "Feature", "properties": { "NAME": "Bethel-Tate Local School District" }, "geometry": { "type": "Point", "coordinates": [ -84.090760432656651, 38.950972279251452 ] } },
{ "type": "Feature", "properties": { "NAME": "Clermont Northeastern Local School District" }, "geometry": { "type": "Point", "coordinates": [ -84.112690377023696, 39.149806295539271 ] } },
{ "type": "Feature", "properties": { "NAME": "Williamsburg Local School District" }, "geometry": { "type": "Point", "coordinates": [ -84.058043496013553, 39.058683298281665 ] } },
{ "type": "Feature", "properties": { "NAME": "Lakota Local School District" }, "geometry": { "type": "Point", "coordinates": [ -84.412963812386337, 39.366600640398609 ] } },
{ "type": "Feature", "properties": { "NAME": "Southwest Local School District" }, "geometry": { "type": "Point", "coordinates": [ -84.758859864921618, 39.244402718741334 ] } },
{ "type": "Feature", "properties": { "NAME": "Fayetteville-Perry Local School District" }, "geometry": { "type": "Point", "coordinates": [ -83.930619309563284, 39.188237208519993 ] } },
{ "type": "Feature", "properties": { "NAME": "Arcanum-Butler Local School District" }, "geometry": { "type": "Point", "coordinates": [ -84.585747073347534, 39.973928095538319 ] } },
{ "type": "Feature", "properties": { "NAME": "Mississinawa Valley Local School District" }, "geometry": { "type": "Point", "coordinates": [ -84.746073268452776, 40.244307834497619 ] } },
{ "type": "Feature", "properties": { "NAME": "Tri-Village Local School District" }, "geometry": { "type": "Point", "coordinates": [ -84.739897988689805, 40.000247719990035 ] } },
{ "type": "Feature", "properties": { "NAME": "Western Brown Local School District" }, "geometry": { "type": "Point", "coordinates": [ -83.953872073498857, 38.99962273121438 ] } },
{ "type": "Feature", "properties": { "NAME": "Oakwood City School District" }, "geometry": { "type": "Point", "coordinates": [ -84.173327561777654, 39.720200432872481 ] } },
{ "type": "Feature", "properties": { "NAME": "West Carrollton City School District" }, "geometry": { "type": "Point", "coordinates": [ -84.235898185957652, 39.674060785026008 ] } },
{ "type": "Feature", "properties": { "NAME": "Brookville Local School District" }, "geometry": { "type": "Point", "coordinates": [ -84.423312410512096, 39.827111862580168 ] } },
{ "type": "Feature", "properties": { "NAME": "Northridge Local School District" }, "geometry": { "type": "Point", "coordinates": [ -84.19229893247855, 39.817990921815529 ] } },
{ "type": "Feature", "properties": { "NAME": "Huber Heights City School District" }, "geometry": { "type": "Point", "coordinates": [ -84.1146253204614, 39.854926430366902 ] } },
{ "type": "Feature", "properties": { "NAME": "Dayton City School District" }, "geometry": { "type": "Point", "coordinates": [ -84.203138673930226, 39.767856700837527 ] } },
{ "type": "Feature", "properties": { "NAME": "Franklin City School District" }, "geometry": { "type": "Point", "coordinates": [ -84.291438019760719, 39.537440071768209 ] } },
{ "type": "Feature", "properties": { "NAME": "Goshen Local School District" }, "geometry": { "type": "Point", "coordinates": [ -84.147585535917358, 39.237277233654218 ] } },
{ "type": "Feature", "properties": { "NAME": "Little Miami Local School District" }, "geometry": { "type": "Point", "coordinates": [ -84.122055766799733, 39.330339316575916 ] } },
{ "type": "Feature", "properties": { "NAME": "Lebanon City School District" }, "geometry": { "type": "Point", "coordinates": [ -84.213007127174706, 39.440324136030398 ] } },
{ "type": "Feature", "properties": { "NAME": "Bellbrook-Sugarcreek Local School District" }, "geometry": { "type": "Point", "coordinates": [ -84.068488087431106, 39.635602225070215 ] } },
{ "type": "Feature", "properties": { "NAME": "Mason City School District" }, "geometry": { "type": "Point", "coordinates": [ -84.314034560932186, 39.35103527864355 ] } },
{ "type": "Feature", "properties": { "NAME": "Middletown City School District" }, "geometry": { "type": "Point", "coordinates": [ -84.374867510299623, 39.502123568575257 ] } },
{ "type": "Feature", "properties": { "NAME": "Troy City School District" }, "geometry": { "type": "Point", "coordinates": [ -84.24460248935948, 40.04067965193223 ] } },
{ "type": "Feature", "properties": { "NAME": "Tipp City Exempted Village School District" }, "geometry": { "type": "Point", "coordinates": [ -84.21360971034666, 39.954616493789672 ] } },
{ "type": "Feature", "properties": { "NAME": "Franklin Monroe Local School District" }, "geometry": { "type": "Point", "coordinates": [ -84.484616590485814, 40.016300011745386 ] } },
{ "type": "Feature", "properties": { "NAME": "Bethel Local School District" }, "geometry": { "type": "Point", "coordinates": [ -84.104302085722821, 39.926642215414667 ] } },
{ "type": "Feature", "properties": { "NAME": "Miami East Local School District" }, "geometry": { "type": "Point", "coordinates": [ -84.110565755763233, 40.076755468207999 ] } },
{ "type": "Feature", "properties": { "NAME": "Northmont City School District" }, "geometry": { "type": "Point", "coordinates": [ -84.35395396851635, 39.883772426167184 ] } },
{ "type": "Feature", "properties": { "NAME": "Northwestern Local School District" }, "geometry": { "type": "Point", "coordinates": [ -83.921507038615161, 39.993806384607453 ] } },
{ "type": "Feature", "properties": { "NAME": "Wilmington City School District" }, "geometry": { "type": "Point", "coordinates": [ -83.806223877373284, 39.426448465532815 ] } },
{ "type": "Feature", "properties": { "NAME": "Lynchburg-Clay Local School District" }, "geometry": { "type": "Point", "coordinates": [ -83.800724140896492, 39.164480809047255 ] } },
{ "type": "Feature", "properties": { "NAME": "East Clinton Local School District" }, "geometry": { "type": "Point", "coordinates": [ -83.664669010475322, 39.416781605266259 ] } },
{ "type": "Feature", "properties": { "NAME": "Washington Court House City School District" }, "geometry": { "type": "Point", "coordinates": [ -83.429823818076713, 39.538241750151883 ] } },
{ "type": "Feature", "properties": { "NAME": "Sidney City School District" }, "geometry": { "type": "Point", "coordinates": [ -84.132525922509174, 40.289546343369047 ] } },
{ "type": "Feature", "properties": { "NAME": "Fairlawn Local School District" }, "geometry": { "type": "Point", "coordinates": [ -84.06490532412505, 40.264587082218007 ] } },
{ "type": "Feature", "properties": { "NAME": "Miami Trace Local School District" }, "geometry": { "type": "Point", "coordinates": [ -83.451012574095401, 39.563218767455844 ] } },
{ "type": "Feature", "properties": { "NAME": "Xenia Community City School District" }, "geometry": { "type": "Point", "coordinates": [ -83.924771093920768, 39.654076664229201 ] } },
{ "type": "Feature", "properties": { "NAME": "Greeneview Local School District" }, "geometry": { "type": "Point", "coordinates": [ -83.731651992103053, 39.645802644327517 ] } },
{ "type": "Feature", "properties": { "NAME": "Clinton-Massie Local School District" }, "geometry": { "type": "Point", "coordinates": [ -83.969609684733001, 39.44902175630132 ] } },
{ "type": "Feature", "properties": { "NAME": "Carlisle Local School District" }, "geometry": { "type": "Point", "coordinates": [ -84.328584432480184, 39.580676246470638 ] } },
{ "type": "Feature", "properties": { "NAME": "Madison-Plains Local School District" }, "geometry": { "type": "Point", "coordinates": [ -83.417934053210658, 39.797052613102785 ] } },
{ "type": "Feature", "properties": { "NAME": "Cincinnati City School District" }, "geometry": { "type": "Point", "coordinates": [ -84.503565670145903, 39.145359716063012 ] } },
{ "type": "Feature", "properties": { "NAME": "Mount Healthy City School District" }, "geometry": { "type": "Point", "coordinates": [ -84.551595975362062, 39.247731528093283 ] } },
{ "type": "Feature", "properties": { "NAME": "Sycamore Community City School District" }, "geometry": { "type": "Point", "coordinates": [ -84.355627358881037, 39.252802545069358 ] } },
{ "type": "Feature", "properties": { "NAME": "Oak Hills Local School District" }, "geometry": { "type": "Point", "coordinates": [ -84.647742171953425, 39.141839913768827 ] } },
{ "type": "Feature", "properties": { "NAME": "Three Rivers Local School District" }, "geometry": { "type": "Point", "coordinates": [ -84.736723374380972, 39.160191767246637 ] } },
{ "type": "Feature", "properties": { "NAME": "St. Henry Consolidated Local School District" }, "geometry": { "type": "Point", "coordinates": [ -84.628130755404214, 40.395670448206573 ] } },
{ "type": "Feature", "properties": { "NAME": "Fort Recovery Local School District" }, "geometry": { "type": "Point", "coordinates": [ -84.748220151902913, 40.403432884502067 ] } },
{ "type": "Feature", "properties": { "NAME": "Marion Local School District" }, "geometry": { "type": "Point", "coordinates": [ -84.506644811433389, 40.400562916883921 ] } },
{ "type": "Feature", "properties": { "NAME": "Clark-Shawnee Local School District" }, "geometry": { "type": "Point", "coordinates": [ -83.783208504703268, 39.902765907176359 ] } },
{ "type": "Feature", "properties": { "NAME": "Springfield City School District" }, "geometry": { "type": "Point", "coordinates": [ -83.801471867839069, 39.928837787228439 ] } },
{ "type": "Feature", "properties": { "NAME": "Greenon Local School District" }, "geometry": { "type": "Point", "coordinates": [ -83.895775382901022, 39.860954224980681 ] } },
{ "type": "Feature", "properties": { "NAME": "Tecumseh Local School District" }, "geometry": { "type": "Point", "coordinates": [ -83.991854213075626, 39.917086363801786 ] } },
{ "type": "Feature", "properties": { "NAME": "Piqua City School District" }, "geometry": { "type": "Point", "coordinates": [ -84.2347711172592, 40.15455623179286 ] } },
{ "type": "Feature", "properties": { "NAME": "Milton-Union Exempted Village School District" }, "geometry": { "type": "Point", "coordinates": [ -84.345789749530823, 39.967023177982263 ] } },
{ "type": "Feature", "properties": { "NAME": "Batavia Local School District" }, "geometry": { "type": "Point", "coordinates": [ -84.167927869942659, 39.066221839977295 ] } },
{ "type": "Feature", "properties": { "NAME": "New Richmond Exempted Village School District" }, "geometry": { "type": "Point", "coordinates": [ -84.226876963799285, 38.944873130980717 ] } },
{ "type": "Feature", "properties": { "NAME": "Felicity-Franklin Local School District" }, "geometry": { "type": "Point", "coordinates": [ -84.1203014795408, 38.840828000319512 ] } },
{ "type": "Feature", "properties": { "NAME": "West Clermont Local School District" }, "geometry": { "type": "Point", "coordinates": [ -84.241155977897066, 39.056470010122162 ] } },
{ "type": "Feature", "properties": { "NAME": "Greenville City School District" }, "geometry": { "type": "Point", "coordinates": [ -84.618664910077584, 40.115553366830056 ] } },
{ "type": "Feature", "properties": { "NAME": "Ansonia Local School District" }, "geometry": { "type": "Point", "coordinates": [ -84.633379459426266, 40.245066659409488 ] } },
{ "type": "Feature", "properties": { "NAME": "Newton Local School District" }, "geometry": { "type": "Point", "coordinates": [ -84.363364357006972, 40.049557187088155 ] } },
{ "type": "Feature", "properties": { "NAME": "Covington Exempted Village School District" }, "geometry": { "type": "Point", "coordinates": [ -84.355581587780563, 40.141385511482632 ] } },
{ "type": "Feature", "properties": { "NAME": "Yellow Springs Exempted Village School District" }, "geometry": { "type": "Point", "coordinates": [ -83.899455434676071, 39.800946348732658 ] } },
{ "type": "Feature", "properties": { "NAME": "Southeastern Local School District" }, "geometry": { "type": "Point", "coordinates": [ -83.669586493052961, 39.824056498076757 ] } },
{ "type": "Feature", "properties": { "NAME": "Cedar Cliff Local School District" }, "geometry": { "type": "Point", "coordinates": [ -83.80773300646436, 39.756771865578102 ] } },
{ "type": "Feature", "properties": { "NAME": "Fairborn City School District" }, "geometry": { "type": "Point", "coordinates": [ -84.018239113831186, 39.811695650234874 ] } },
{ "type": "Feature", "properties": { "NAME": "Kettering City School District" }, "geometry": { "type": "Point", "coordinates": [ -84.160981735242373, 39.698079817974396 ] } },
{ "type": "Feature", "properties": { "NAME": "Vandalia-Butler City School District" }, "geometry": { "type": "Point", "coordinates": [ -84.224738071256539, 39.882962868872028 ] } },
{ "type": "Feature", "properties": { "NAME": "Jefferson Township Local School District" }, "geometry": { "type": "Point", "coordinates": [ -84.313620041721833, 39.702616238956907 ] } },
{ "type": "Feature", "properties": { "NAME": "New Lebanon Local School District" }, "geometry": { "type": "Point", "coordinates": [ -84.421153213678551, 39.751594953958843 ] } },
{ "type": "Feature", "properties": { "NAME": "Springboro Community City School District" }, "geometry": { "type": "Point", "coordinates": [ -84.203820947892382, 39.533972448238892 ] } },
{ "type": "Feature", "properties": { "NAME": "Fairfield City School District" }, "geometry": { "type": "Point", "coordinates": [ -84.528056525593115, 39.356414650042204 ] } },
{ "type": "Feature", "properties": { "NAME": "Ross Local School District" }, "geometry": { "type": "Point", "coordinates": [ -84.702841809243452, 39.353661290195824 ] } },
{ "type": "Feature", "properties": { "NAME": "Northeastern Local School District" }, "geometry": { "type": "Point", "coordinates": [ -83.654655262904271, 39.960507200040183 ] } },
{ "type": "Feature", "properties": { "NAME": "Centerville City School District" }, "geometry": { "type": "Point", "coordinates": [ -84.16014125730662, 39.625408318578174 ] } },
{ "type": "Feature", "properties": { "NAME": "Miamisburg City School District" }, "geometry": { "type": "Point", "coordinates": [ -84.267461519684858, 39.628868531492827 ] } },
{ "type": "Feature", "properties": { "NAME": "Beavercreek City School District" }, "geometry": { "type": "Point", "coordinates": [ -84.039030963460476, 39.728180785308339 ] } },
{ "type": "Feature", "properties": { "NAME": "Trotwood-Madison City School District" }, "geometry": { "type": "Point", "coordinates": [ -84.315719347829713, 39.789913492994202 ] } },
{ "type": "Feature", "properties": { "NAME": "Mad River Local School District" }, "geometry": { "type": "Point", "coordinates": [ -84.120501850740681, 39.791010155830193 ] } }
]
}
