{
"type": "FeatureCollection",
"name": "austin2020blocks_places_centroids",
"crs": { "type": "name", "properties": { "name": "urn:ogc:def:crs:OGC:1.3:CRS84" } },
"features": [
{ "type": "Feature", "properties": { "OBJECTID": 671, "CITY_NM": "Austin", "CNTY_SEAT_": "Y", "TXDOT_CITY": 2100, "GID": 1210, "COLOR_CD": 1, "CITY_FIPS": "4805000", "POP1990": 465622, "POP2000": 656562, "POP2010": 790390, "POP_CD": "4", "SHAPE_Leng": 6.3151137448840924, "SHAPE_Area": 0.068110448685999997 }, "geometry": { "type": "Point", "coordinates": [ -97.748820876579643, 30.29758939936988 ] } },
{ "type": "Feature", "properties": { "OBJECTID": 670, "CITY_NM": "Pflugerville", "CNTY_SEAT_": "N", "TXDOT_CITY": 32580, "GID": 1156, "COLOR_CD": 3, "CITY_FIPS": "4857176", "POP1990": 0, "POP2000": 16335, "POP2010": 46936, "POP_CD": "4", "SHAPE_Leng": 1.283304651969206, "SHAPE_Area": 0.005860960203781 }, "geometry": { "type": "Point", "coordinates": [ -97.602611535494546, 30.452770141158748 ] } },
{ "type": "Feature", "properties": { "OBJECTID": 612, "CITY_NM": "Sunset Valley", "CNTY_SEAT_": "N", "TXDOT_CITY": 41450, "GID": 680, "COLOR_CD": 3, "CITY_FIPS": "4871324", "POP1990": 0, "POP2000": 365, "POP2010": 749, "POP_CD": "4", "SHAPE_Leng": 0.11494880867853299, "SHAPE_Area": 0.00033644329166299998 }, "geometry": { "type": "Point", "coordinates": [ -97.815749705529882, 30.225837080311287 ] } },
{ "type": "Feature", "properties": { "OBJECTID": 1115, "CITY_NM": "Bee Cave", "CNTY_SEAT_": "N", "TXDOT_CITY": 3330, "GID": 855, "COLOR_CD": 3, "CITY_FIPS": "4807156", "POP1990": 241, "POP2000": 656, "POP2010": 3925, "POP_CD": "4", "SHAPE_Leng": 0.51484075244919103, "SHAPE_Area": 0.0021862345614059998 }, "geometry": { "type": "Point", "coordinates": [ -97.9607187608256, 30.307885308067743 ] } },
{ "type": "Feature", "properties": { "OBJECTID": 797, "CITY_NM": "Lakeway", "CNTY_SEAT_": "N", "TXDOT_CITY": 23580, "GID": 1157, "COLOR_CD": 1, "CITY_FIPS": "4840984", "POP1990": 4044, "POP2000": 80002, "POP2010": 11391, "POP_CD": "4", "SHAPE_Leng": 0.75287269351472297, "SHAPE_Area": 0.0032149115197609998 }, "geometry": { "type": "Point", "coordinates": [ -97.985840939329591, 30.354660966545687 ] } },
{ "type": "Feature", "properties": { "OBJECTID": 813, "CITY_NM": "Webberville", "CNTY_SEAT_": "N", "TXDOT_CITY": 44610, "GID": 810, "COLOR_CD": 1, "CITY_FIPS": "4876924", "POP1990": 382, "POP2000": 535, "POP2010": 392, "POP_CD": "1", "SHAPE_Leng": 0.35990177286169101, "SHAPE_Area": 0.000513552137339 }, "geometry": { "type": "Point", "coordinates": [ -97.499517258150576, 30.22621440006851 ] } },
{ "type": "Feature", "properties": { "OBJECTID": 667, "CITY_NM": "Round Rock", "CNTY_SEAT_": "N", "TXDOT_CITY": 36750, "GID": 1158, "COLOR_CD": 2, "CITY_FIPS": "4863500", "POP1990": 30923, "POP2000": 61136, "POP2010": 99887, "POP_CD": "4", "SHAPE_Leng": 1.730730921968014, "SHAPE_Area": 0.0092057275919259999 }, "geometry": { "type": "Point", "coordinates": [ -97.667268109004027, 30.476929390454245 ] } },
{ "type": "Feature", "properties": { "OBJECTID": 962, "CITY_NM": "Elgin", "CNTY_SEAT_": "N", "TXDOT_CITY": 13300, "GID": 1196, "COLOR_CD": 1, "CITY_FIPS": "4823044", "POP1990": 4846, "POP2000": 5700, "POP2010": 8135, "POP_CD": "2", "SHAPE_Leng": 0.48562628360680699, "SHAPE_Area": 0.0016139278921589999 }, "geometry": { "type": "Point", "coordinates": [ -97.410613050331619, 30.36325370018821 ] } },
{ "type": "Feature", "properties": { "OBJECTID": 668, "CITY_NM": "Cedar Park", "CNTY_SEAT_": "N", "TXDOT_CITY": 7670, "GID": 1194, "COLOR_CD": 5, "CITY_FIPS": "4813552", "POP1990": 5161, "POP2000": 26049, "POP2010": 48937, "POP_CD": "4", "SHAPE_Leng": 0.98819039744508896, "SHAPE_Area": 0.006225192905785 }, "geometry": { "type": "Point", "coordinates": [ -97.857403579616658, 30.479603864721721 ] } },
{ "type": "Feature", "properties": { "OBJECTID": 732, "CITY_NM": "Lago Vista", "CNTY_SEAT_": "N", "TXDOT_CITY": 23030, "GID": 1123, "COLOR_CD": 1, "CITY_FIPS": "4840264", "POP1990": 2199, "POP2000": 4507, "POP2010": 6041, "POP_CD": "2", "SHAPE_Leng": 0.77189283106624296, "SHAPE_Area": 0.0037880517358970002 }, "geometry": { "type": "Point", "coordinates": [ -97.990916839408698, 30.451993612111671 ] } },
{ "type": "Feature", "properties": { "OBJECTID": 776, "CITY_NM": "Jonestown", "CNTY_SEAT_": "N", "TXDOT_CITY": 21270, "GID": 659, "COLOR_CD": 3, "CITY_FIPS": "4838020", "POP1990": 1250, "POP2000": 1681, "POP2010": 1834, "POP_CD": "1", "SHAPE_Leng": 0.812742240686814, "SHAPE_Area": 0.001844298318521 }, "geometry": { "type": "Point", "coordinates": [ -97.929142831249294, 30.475348525279429 ] } },
{ "type": "Feature", "properties": { "OBJECTID": 965, "CITY_NM": "West Lake Hills", "CNTY_SEAT_": "N", "TXDOT_CITY": 45180, "GID": 1199, "COLOR_CD": 3, "CITY_FIPS": "4877632", "POP1990": 2542, "POP2000": 3116, "POP2010": 3063, "POP_CD": "4", "SHAPE_Leng": 0.256868893168058, "SHAPE_Area": 0.00088531283491199997 }, "geometry": { "type": "Point", "coordinates": [ -97.808359576918733, 30.291835801883042 ] } },
{ "type": "Feature", "properties": { "OBJECTID": 964, "CITY_NM": "Creedmoor", "CNTY_SEAT_": "N", "TXDOT_CITY": 10170, "GID": 1198, "COLOR_CD": 2, "CITY_FIPS": "4817612", "POP1990": 194, "POP2000": 211, "POP2010": 202, "POP_CD": "4", "SHAPE_Leng": 0.46448497697975499, "SHAPE_Area": 0.0017110121217080001 }, "geometry": { "type": "Point", "coordinates": [ -97.737972537735487, 30.080569237522262 ] } },
{ "type": "Feature", "properties": { "OBJECTID": 998, "CITY_NM": "Mustang Ridge", "CNTY_SEAT_": "N", "TXDOT_CITY": 29430, "GID": 1153, "COLOR_CD": 1, "CITY_FIPS": "4850200", "POP1990": 576, "POP2000": 785, "POP2010": 861, "POP_CD": "1", "SHAPE_Leng": 1.1873487839399299, "SHAPE_Area": 0.003166329844243 }, "geometry": { "type": "Point", "coordinates": [ -97.691841071775272, 30.07142796784585 ] } },
{ "type": "Feature", "properties": { "OBJECTID": 913, "CITY_NM": "Manor", "CNTY_SEAT_": "N", "TXDOT_CITY": 26450, "GID": 1161, "COLOR_CD": 2, "CITY_FIPS": "4846440", "POP1990": 1041, "POP2000": 1204, "POP2010": 5037, "POP_CD": "2", "SHAPE_Leng": 0.87081587290354801, "SHAPE_Area": 0.0023687970613039998 }, "geometry": { "type": "Point", "coordinates": [ -97.522795351344584, 30.356302038593743 ] } },
{ "type": "Feature", "properties": { "OBJECTID": 1114, "CITY_NM": "Village of The Hills", "CNTY_SEAT_": "N", "TXDOT_CITY": 44080, "GID": 854, "COLOR_CD": 4, "CITY_FIPS": "4872578", "POP1990": 0, "POP2000": 1492, "POP2010": 2472, "POP_CD": "4", "SHAPE_Leng": 0.072648664697473997, "SHAPE_Area": 0.000258234596564 }, "geometry": { "type": "Point", "coordinates": [ -97.986564759510301, 30.346406787376836 ] } },
{ "type": "Feature", "properties": { "OBJECTID": 680, "CITY_NM": "Leander", "CNTY_SEAT_": "N", "TXDOT_CITY": 24210, "GID": 4033, "COLOR_CD": 4, "CITY_FIPS": "4842016", "POP1990": 3398, "POP2000": 7596, "POP2010": 26521, "POP_CD": "4", "SHAPE_Leng": 1.5999725492662999, "SHAPE_Area": 0.0091861426370129992 }, "geometry": { "type": "Point", "coordinates": [ -97.905070784203161, 30.544482221885254 ] } },
{ "type": "Feature", "properties": { "OBJECTID": 1024, "CITY_NM": "Villiage of Volente", "CNTY_SEAT_": "N", "TXDOT_CITY": 44085, "GID": 903, "COLOR_CD": 2, "CITY_FIPS": "4875752", "POP1990": 0, "POP2000": 350, "POP2010": 520, "POP_CD": "1", "SHAPE_Leng": 0.23469587916103199, "SHAPE_Area": 0.00049911764398900002 }, "geometry": { "type": "Point", "coordinates": [ -97.908031273513998, 30.44553516070533 ] } },
{ "type": "Feature", "properties": { "OBJECTID": 993, "CITY_NM": "Point Venture", "CNTY_SEAT_": "N", "TXDOT_CITY": 33210, "GID": 612, "COLOR_CD": 2, "CITY_FIPS": "4858586", "POP1990": 0, "POP2000": 451, "POP2010": 800, "POP_CD": "1", "SHAPE_Leng": 0.10532153672377199, "SHAPE_Area": 0.000229541482655 }, "geometry": { "type": "Point", "coordinates": [ -97.998776707994722, 30.38383062202211 ] } },
{ "type": "Feature", "properties": { "OBJECTID": 995, "CITY_NM": "Buda", "CNTY_SEAT_": "N", "TXDOT_CITY": 6250, "GID": 858, "COLOR_CD": 3, "CITY_FIPS": "4811080", "POP1990": 1795, "POP2000": 2404, "POP2010": 7295, "POP_CD": "4", "SHAPE_Leng": 0.77258021197043703, "SHAPE_Area": 0.0022442589892059999 }, "geometry": { "type": "Point", "coordinates": [ -97.813424753789477, 30.098807402660434 ] } },
{ "type": "Feature", "properties": { "OBJECTID": 611, "CITY_NM": "Rollingwood", "CNTY_SEAT_": "N", "TXDOT_CITY": 36400, "GID": 679, "COLOR_CD": 2, "CITY_FIPS": "4863008", "POP1990": 1388, "POP2000": 1403, "POP2010": 1412, "POP_CD": "4", "SHAPE_Leng": 0.069448822446988995, "SHAPE_Area": 0.000168846763554 }, "geometry": { "type": "Point", "coordinates": [ -97.786881795224033, 30.273660113236151 ] } },
{ "type": "Feature", "properties": { "OBJECTID": 1075, "CITY_NM": "Briarcliff", "CNTY_SEAT_": "N", "TXDOT_CITY": 5620, "GID": 922, "COLOR_CD": 4, "CITY_FIPS": "4810197", "POP1990": 335, "POP2000": 895, "POP2010": 1438, "POP_CD": "1", "SHAPE_Leng": 0.11291879074773099, "SHAPE_Area": 0.00035738271942700002 }, "geometry": { "type": "Point", "coordinates": [ -98.046137759686061, 30.408646885308066 ] } },
{ "type": "Feature", "properties": { "OBJECTID": 610, "CITY_NM": "San Leanna", "CNTY_SEAT_": "N", "TXDOT_CITY": 37870, "GID": 678, "COLOR_CD": 4, "CITY_FIPS": "4865552", "POP1990": 325, "POP2000": 384, "POP2010": 497, "POP_CD": "4", "SHAPE_Leng": 0.052106104353213001, "SHAPE_Area": 0.000105279659865 }, "geometry": { "type": "Point", "coordinates": [ -97.819456196185058, 30.144134113408175 ] } },
{ "type": "Feature", "properties": { "OBJECTID": 404, "CITY_NM": "Coupland", "CNTY_SEAT_": "N", "TXDOT_CITY": 47350, "GID": 4150, "COLOR_CD": 1, "CITY_FIPS": "4817312", "POP1990": null, "POP2000": null, "POP2010": null, "POP_CD": "1", "SHAPE_Leng": 0.38791375490698798, "SHAPE_Area": 0.00047461642943600002 }, "geometry": { "type": "Point", "coordinates": [ -97.38739813060981, 30.432373031557802 ] } }
]
}
