{
"type": "FeatureCollection",
"name": "missouri_schools_labels",
"crs": { "type": "name", "properties": { "name": "urn:ogc:def:crs:OGC:1.3:CRS84" } },
"features": [
{ "type": "Feature", "properties": { "NAME": "Nevada R-V School District" }, "geometry": { "type": "Point", "coordinates": [ -94.417592229976549, 37.876261277712892 ] } },
{ "type": "Feature", "properties": { "NAME": "Hume R-VIII School District" }, "geometry": { "type": "Point", "coordinates": [ -94.562805087691828, 38.107553952975586 ] } },
{ "type": "Feature", "properties": { "NAME": "Northeast Vernon County R-I School District" }, "geometry": { "type": "Point", "coordinates": [ -94.198900452452762, 37.945676350449546 ] } },
{ "type": "Feature", "properties": { "NAME": "Pattonville R-III School District" }, "geometry": { "type": "Point", "coordinates": [ -90.434849353705857, 38.733040340862154 ] } },
{ "type": "Feature", "properties": { "NAME": "Ritenour School District" }, "geometry": { "type": "Point", "coordinates": [ -90.367571219136551, 38.709792384793964 ] } },
{ "type": "Feature", "properties": { "NAME": "Riverview Gardens School District" }, "geometry": { "type": "Point", "coordinates": [ -90.237958034835216, 38.749287047435622 ] } },
{ "type": "Feature", "properties": { "NAME": "University City School District" }, "geometry": { "type": "Point", "coordinates": [ -90.33211519365689, 38.666574879797935 ] } },
{ "type": "Feature", "properties": { "NAME": "Fairfax R-III School District" }, "geometry": { "type": "Point", "coordinates": [ -95.328245482485684, 40.323014631102367 ] } },
{ "type": "Feature", "properties": { "NAME": "Normandy Schools Collaborative" }, "geometry": { "type": "Point", "coordinates": [ -90.305681832796466, 38.697080693390618 ] } },
{ "type": "Feature", "properties": { "NAME": "Webster Groves School District" }, "geometry": { "type": "Point", "coordinates": [ -90.356509635799711, 38.591436023835499 ] } },
{ "type": "Feature", "properties": { "NAME": "Stewartsville C-2 School District" }, "geometry": { "type": "Point", "coordinates": [ -94.488552704351022, 39.756846424943745 ] } },
{ "type": "Feature", "properties": { "NAME": "Doniphan R-I School District" }, "geometry": { "type": "Point", "coordinates": [ -90.787074158831402, 36.666546731809966 ] } },
{ "type": "Feature", "properties": { "NAME": "Neelyville R-IV School District" }, "geometry": { "type": "Point", "coordinates": [ -90.498673140486702, 36.612246713297679 ] } },
{ "type": "Feature", "properties": { "NAME": "Craig R-III School District" }, "geometry": { "type": "Point", "coordinates": [ -95.373290884988293, 40.150728943873801 ] } },
{ "type": "Feature", "properties": { "NAME": "South Holt County R-I School District" }, "geometry": { "type": "Point", "coordinates": [ -95.12335660720332, 39.981059638793617 ] } },
{ "type": "Feature", "properties": { "NAME": "Leopold R-III School District" }, "geometry": { "type": "Point", "coordinates": [ -89.920278302668621, 37.227768226667379 ] } },
{ "type": "Feature", "properties": { "NAME": "South Nodaway County R-IV School District" }, "geometry": { "type": "Point", "coordinates": [ -94.784621335412226, 40.187388312625487 ] } },
{ "type": "Feature", "properties": { "NAME": "Waynesville R-VI Schools" }, "geometry": { "type": "Point", "coordinates": [ -92.154567795381368, 37.76337524287711 ] } },
{ "type": "Feature", "properties": { "NAME": "Oregon-Howell R-III School District" }, "geometry": { "type": "Point", "coordinates": [ -91.651231399601102, 36.599358706327649 ] } },
{ "type": "Feature", "properties": { "NAME": "Scott County Central Schools" }, "geometry": { "type": "Point", "coordinates": [ -89.638919433119412, 36.997038465819564 ] } },
{ "type": "Feature", "properties": { "NAME": "Camdenton R-III School District" }, "geometry": { "type": "Point", "coordinates": [ -92.730316032568751, 38.043044539617782 ] } },
{ "type": "Feature", "properties": { "NAME": "Fair Grove R-X School District" }, "geometry": { "type": "Point", "coordinates": [ -93.15450704835763, 37.391908258766136 ] } },
{ "type": "Feature", "properties": { "NAME": "Marshfield R-I School District" }, "geometry": { "type": "Point", "coordinates": [ -92.921816428704304, 37.340770435602174 ] } },
{ "type": "Feature", "properties": { "NAME": "Brentwood School District" }, "geometry": { "type": "Point", "coordinates": [ -90.347667588590426, 38.620150717979357 ] } },
{ "type": "Feature", "properties": { "NAME": "Lebanon R-III School District" }, "geometry": { "type": "Point", "coordinates": [ -92.632872009139632, 37.683092240804399 ] } },
{ "type": "Feature", "properties": { "NAME": "Richland R-IV School District" }, "geometry": { "type": "Point", "coordinates": [ -92.424947655597478, 37.883351619047112 ] } },
{ "type": "Feature", "properties": { "NAME": "Charleston R-I School District" }, "geometry": { "type": "Point", "coordinates": [ -89.147279796829764, 36.772908458794532 ] } },
{ "type": "Feature", "properties": { "NAME": "Charleston R-I School District" }, "geometry": { "type": "Point", "coordinates": [ -89.283733122734574, 36.912148345025152 ] } },
{ "type": "Feature", "properties": { "NAME": "Aurora R-VIII School District" }, "geometry": { "type": "Point", "coordinates": [ -93.715655953612028, 36.933441441308155 ] } },
{ "type": "Feature", "properties": { "NAME": "Crane R-III School District" }, "geometry": { "type": "Point", "coordinates": [ -93.602405939285163, 36.877043941673307 ] } },
{ "type": "Feature", "properties": { "NAME": "Wheaton R-III School District" }, "geometry": { "type": "Point", "coordinates": [ -94.0373985422153, 36.763254177922846 ] } },
{ "type": "Feature", "properties": { "NAME": "Gideon 37 School District" }, "geometry": { "type": "Point", "coordinates": [ -89.884746033905998, 36.450580486296104 ] } },
{ "type": "Feature", "properties": { "NAME": "New Madrid County R-I School District" }, "geometry": { "type": "Point", "coordinates": [ -89.593688923831564, 36.658249618557292 ] } },
{ "type": "Feature", "properties": { "NAME": "Valley Park School District" }, "geometry": { "type": "Point", "coordinates": [ -90.485170667460679, 38.557583597074149 ] } },
{ "type": "Feature", "properties": { "NAME": "Hermitage R-IV School District" }, "geometry": { "type": "Point", "coordinates": [ -93.304265332361624, 37.90139559164254 ] } },
{ "type": "Feature", "properties": { "NAME": "East Carter County R-II School District" }, "geometry": { "type": "Point", "coordinates": [ -90.768027011520658, 36.911879549181336 ] } },
{ "type": "Feature", "properties": { "NAME": "Naylor R-II School District" }, "geometry": { "type": "Point", "coordinates": [ -90.638723091700683, 36.571105953096804 ] } },
{ "type": "Feature", "properties": { "NAME": "Twin Rivers R-X School District" }, "geometry": { "type": "Point", "coordinates": [ -90.264035188662845, 36.689425764880617 ] } },
{ "type": "Feature", "properties": { "NAME": "Strafford R-VI School District" }, "geometry": { "type": "Point", "coordinates": [ -93.115728653353386, 37.267665971065092 ] } },
{ "type": "Feature", "properties": { "NAME": "Willard R-II School District" }, "geometry": { "type": "Point", "coordinates": [ -93.401401736459334, 37.300695313465845 ] } },
{ "type": "Feature", "properties": { "NAME": "Hayti R-II School District" }, "geometry": { "type": "Point", "coordinates": [ -89.75553751134332, 36.245852066322072 ] } },
{ "type": "Feature", "properties": { "NAME": "Macon County R-I School District" }, "geometry": { "type": "Point", "coordinates": [ -92.420228972746244, 39.715460393422951 ] } },
{ "type": "Feature", "properties": { "NAME": "Northeast Randolph County R-IV School District" }, "geometry": { "type": "Point", "coordinates": [ -92.418249414129775, 39.543566764592192 ] } },
{ "type": "Feature", "properties": { "NAME": "Westran R-I School District" }, "geometry": { "type": "Point", "coordinates": [ -92.600801821124634, 39.474281173132802 ] } },
{ "type": "Feature", "properties": { "NAME": "Mount Vernon R-V School District" }, "geometry": { "type": "Point", "coordinates": [ -93.827592283424707, 37.112170200081813 ] } },
{ "type": "Feature", "properties": { "NAME": "Scotland County R-I School District" }, "geometry": { "type": "Point", "coordinates": [ -92.14387848909243, 40.452394453792287 ] } },
{ "type": "Feature", "properties": { "NAME": "Kennett 39 School District" }, "geometry": { "type": "Point", "coordinates": [ -89.921146353178685, 36.276914228048696 ] } },
{ "type": "Feature", "properties": { "NAME": "Kennett 39 School District" }, "geometry": { "type": "Point", "coordinates": [ -90.033309758542288, 36.242108144285261 ] } },
{ "type": "Feature", "properties": { "NAME": "North Pemiscot County R-I School District" }, "geometry": { "type": "Point", "coordinates": [ -89.739331269807252, 36.328954969278797 ] } },
{ "type": "Feature", "properties": { "NAME": "Caruthersville 18 School District" }, "geometry": { "type": "Point", "coordinates": [ -89.66777044617514, 36.188969701330116 ] } },
{ "type": "Feature", "properties": { "NAME": "Cooter R-IV School District" }, "geometry": { "type": "Point", "coordinates": [ -89.772924966742565, 36.035009330070416 ] } },
{ "type": "Feature", "properties": { "NAME": "South Pemiscot County R-V School District" }, "geometry": { "type": "Point", "coordinates": [ -89.867250541622141, 36.083010980712956 ] } },
{ "type": "Feature", "properties": { "NAME": "Albany R-III School District" }, "geometry": { "type": "Point", "coordinates": [ -94.336945973493727, 40.254129391039903 ] } },
{ "type": "Feature", "properties": { "NAME": "Bernie R-XIII School District" }, "geometry": { "type": "Point", "coordinates": [ -89.990815367963322, 36.671586739065653 ] } },
{ "type": "Feature", "properties": { "NAME": "Bloomfield R-XIV School District" }, "geometry": { "type": "Point", "coordinates": [ -89.951099336010259, 36.914962784279268 ] } },
{ "type": "Feature", "properties": { "NAME": "Bosworth R-V School District" }, "geometry": { "type": "Point", "coordinates": [ -93.326276132796721, 39.453452927666419 ] } },
{ "type": "Feature", "properties": { "NAME": "Hale R-I School District" }, "geometry": { "type": "Point", "coordinates": [ -93.342934980236279, 39.600417527850936 ] } },
{ "type": "Feature", "properties": { "NAME": "Community R-VI School District" }, "geometry": { "type": "Point", "coordinates": [ -91.684164186653959, 39.172422741848422 ] } },
{ "type": "Feature", "properties": { "NAME": "New Bloomfield R-III School District" }, "geometry": { "type": "Point", "coordinates": [ -92.098109968946929, 38.739498057294014 ] } },
{ "type": "Feature", "properties": { "NAME": "North Callaway County R-I School District" }, "geometry": { "type": "Point", "coordinates": [ -92.129932353291494, 38.964677229077843 ] } },
{ "type": "Feature", "properties": { "NAME": "North Callaway County R-I School District" }, "geometry": { "type": "Point", "coordinates": [ -91.885373831953927, 38.968000558858954 ] } },
{ "type": "Feature", "properties": { "NAME": "Wellsville-Middletown R-I School District" }, "geometry": { "type": "Point", "coordinates": [ -91.475007309542491, 39.102235386923475 ] } },
{ "type": "Feature", "properties": { "NAME": "Kirksville R-III School District" }, "geometry": { "type": "Point", "coordinates": [ -92.61468922957782, 40.181620884890748 ] } },
{ "type": "Feature", "properties": { "NAME": "Adair County R-I School District" }, "geometry": { "type": "Point", "coordinates": [ -92.759302931846307, 40.232918024570488 ] } },
{ "type": "Feature", "properties": { "NAME": "Marion County R-II School District" }, "geometry": { "type": "Point", "coordinates": [ -91.744615488172585, 39.868803881372259 ] } },
{ "type": "Feature", "properties": { "NAME": "Atlanta C-3 Schools" }, "geometry": { "type": "Point", "coordinates": [ -92.520642819448497, 39.902737395995267 ] } },
{ "type": "Feature", "properties": { "NAME": "North Shelby School District" }, "geometry": { "type": "Point", "coordinates": [ -92.047867513806466, 39.86652558495021 ] } },
{ "type": "Feature", "properties": { "NAME": "Gasconade County R-II School District" }, "geometry": { "type": "Point", "coordinates": [ -91.452735363580189, 38.37007942980032 ] } },
{ "type": "Feature", "properties": { "NAME": "Maries County R-II School District" }, "geometry": { "type": "Point", "coordinates": [ -91.715303380216383, 38.267114973695264 ] } },
{ "type": "Feature", "properties": { "NAME": "Osage County R-II School District" }, "geometry": { "type": "Point", "coordinates": [ -91.776428840983115, 38.485755506727926 ] } },
{ "type": "Feature", "properties": { "NAME": "Crawford County R-2 School District" }, "geometry": { "type": "Point", "coordinates": [ -91.426288997510781, 38.096154589383538 ] } },
{ "type": "Feature", "properties": { "NAME": "St. James R-I School District" }, "geometry": { "type": "Point", "coordinates": [ -91.616082016495355, 38.009277713573198 ] } },
{ "type": "Feature", "properties": { "NAME": "Bolivar R-I School District" }, "geometry": { "type": "Point", "coordinates": [ -93.381713570422122, 37.671946674005909 ] } },
{ "type": "Feature", "properties": { "NAME": "Hickory County R-I School District" }, "geometry": { "type": "Point", "coordinates": [ -93.115015064442815, 37.898330609873156 ] } },
{ "type": "Feature", "properties": { "NAME": "Wheatland R-II School District" }, "geometry": { "type": "Point", "coordinates": [ -93.38790737573207, 37.953937289567875 ] } },
{ "type": "Feature", "properties": { "NAME": "Carrollton R-VII School District" }, "geometry": { "type": "Point", "coordinates": [ -93.490183204722229, 39.375096146892602 ] } },
{ "type": "Feature", "properties": { "NAME": "Tina-Avalon R-II School District" }, "geometry": { "type": "Point", "coordinates": [ -93.507323964249892, 39.584888585520098 ] } },
{ "type": "Feature", "properties": { "NAME": "Newtown-Harris R-III School District" }, "geometry": { "type": "Point", "coordinates": [ -93.311228790618117, 40.338227747296415 ] } },
{ "type": "Feature", "properties": { "NAME": "Princeton R-V School District" }, "geometry": { "type": "Point", "coordinates": [ -93.591204708449382, 40.387150253539623 ] } },
{ "type": "Feature", "properties": { "NAME": "Chaffee R-II School District" }, "geometry": { "type": "Point", "coordinates": [ -89.658297449324877, 37.173574663823572 ] } },
{ "type": "Feature", "properties": { "NAME": "Oran R-III School District" }, "geometry": { "type": "Point", "coordinates": [ -89.701524021126872, 37.083905159122068 ] } },
{ "type": "Feature", "properties": { "NAME": "St. Joseph School District" }, "geometry": { "type": "Point", "coordinates": [ -94.797833263323867, 39.750647175003714 ] } },
{ "type": "Feature", "properties": { "NAME": "Niangua R-V School District" }, "geometry": { "type": "Point", "coordinates": [ -92.782179286835245, 37.393879836499686 ] } },
{ "type": "Feature", "properties": { "NAME": "Rich Hill R-IV School District" }, "geometry": { "type": "Point", "coordinates": [ -94.330858337783141, 38.100789874209838 ] } },
{ "type": "Feature", "properties": { "NAME": "Van-Far R-I School District" }, "geometry": { "type": "Point", "coordinates": [ -91.498673252211262, 39.291222130066551 ] } },
{ "type": "Feature", "properties": { "NAME": "Cooper County R-IV School District" }, "geometry": { "type": "Point", "coordinates": [ -92.771471223899695, 38.792891962026445 ] } },
{ "type": "Feature", "properties": { "NAME": "Smithton R-VI School District" }, "geometry": { "type": "Point", "coordinates": [ -93.10365653126226, 38.686433742833984 ] } },
{ "type": "Feature", "properties": { "NAME": "Ash Grove R-IV School District" }, "geometry": { "type": "Point", "coordinates": [ -93.576614597993867, 37.279544570323658 ] } },
{ "type": "Feature", "properties": { "NAME": "Norborne R-VIII School District" }, "geometry": { "type": "Point", "coordinates": [ -93.689394872599962, 39.348767939301872 ] } },
{ "type": "Feature", "properties": { "NAME": "Hardin-Central C-2 School District" }, "geometry": { "type": "Point", "coordinates": [ -93.819820293820143, 39.332027540025813 ] } },
{ "type": "Feature", "properties": { "NAME": "Braymer C-4 School District" }, "geometry": { "type": "Point", "coordinates": [ -93.787611974506206, 39.555713548599137 ] } },
{ "type": "Feature", "properties": { "NAME": "Dallas County R-I School District" }, "geometry": { "type": "Point", "coordinates": [ -93.017099769576802, 37.652779399960551 ] } },
{ "type": "Feature", "properties": { "NAME": "Plato R-V School District" }, "geometry": { "type": "Point", "coordinates": [ -92.227092632488407, 37.531114473357306 ] } },
{ "type": "Feature", "properties": { "NAME": "Stoutland R-II School District" }, "geometry": { "type": "Point", "coordinates": [ -92.544753650525536, 37.8440241968094 ] } },
{ "type": "Feature", "properties": { "NAME": "Laclede County R-I School District" }, "geometry": { "type": "Point", "coordinates": [ -92.774007012601288, 37.518724090567702 ] } },
{ "type": "Feature", "properties": { "NAME": "Cameron R-I School District" }, "geometry": { "type": "Point", "coordinates": [ -94.228767621171983, 39.7337804050931 ] } },
{ "type": "Feature", "properties": { "NAME": "Pattonsburg R-II School District" }, "geometry": { "type": "Point", "coordinates": [ -94.160364243563052, 40.053556564353968 ] } },
{ "type": "Feature", "properties": { "NAME": "Winston R-VI School District" }, "geometry": { "type": "Point", "coordinates": [ -94.143899128130769, 39.892534358449574 ] } },
{ "type": "Feature", "properties": { "NAME": "North Daviess R-III School District" }, "geometry": { "type": "Point", "coordinates": [ -93.985180229091242, 40.050350144076774 ] } },
{ "type": "Feature", "properties": { "NAME": "Trenton R-IX School District" }, "geometry": { "type": "Point", "coordinates": [ -93.655432758938503, 40.117865572020634 ] } },
{ "type": "Feature", "properties": { "NAME": "Gasconade County R-I School District" }, "geometry": { "type": "Point", "coordinates": [ -91.486728166661877, 38.667555104672765 ] } },
{ "type": "Feature", "properties": { "NAME": "Osage County R-I School District" }, "geometry": { "type": "Point", "coordinates": [ -91.733236813792814, 38.634339931241819 ] } },
{ "type": "Feature", "properties": { "NAME": "Meadville R-IV School District" }, "geometry": { "type": "Point", "coordinates": [ -93.29520497313726, 39.853755499200517 ] } },
{ "type": "Feature", "properties": { "NAME": "Linn County R-I School District" }, "geometry": { "type": "Point", "coordinates": [ -93.137144689852818, 39.834169685538903 ] } },
{ "type": "Feature", "properties": { "NAME": "Linn County R-I School District" }, "geometry": { "type": "Point", "coordinates": [ -93.133202273844276, 39.98107380198585 ] } },
{ "type": "Feature", "properties": { "NAME": "Northeast Nodaway County R-V School District" }, "geometry": { "type": "Point", "coordinates": [ -94.677250804793132, 40.387354934909141 ] } },
{ "type": "Feature", "properties": { "NAME": "Worth County R-III School District" }, "geometry": { "type": "Point", "coordinates": [ -94.430039275834744, 40.482570362185342 ] } },
{ "type": "Feature", "properties": { "NAME": "Brookfield R-III School District" }, "geometry": { "type": "Point", "coordinates": [ -93.218694218199772, 39.829800593053221 ] } },
{ "type": "Feature", "properties": { "NAME": "Brookfield R-III School District" }, "geometry": { "type": "Point", "coordinates": [ -93.080423527982632, 39.802723030283026 ] } },
{ "type": "Feature", "properties": { "NAME": "North Mercer County R-III School District" }, "geometry": { "type": "Point", "coordinates": [ -93.505896371347987, 40.524224102063968 ] } },
{ "type": "Feature", "properties": { "NAME": "Marceline R-V School District" }, "geometry": { "type": "Point", "coordinates": [ -92.920801066127467, 39.678911460777393 ] } },
{ "type": "Feature", "properties": { "NAME": "Schuyler County R-I School District" }, "geometry": { "type": "Point", "coordinates": [ -92.520444522704537, 40.470626502321977 ] } },
{ "type": "Feature", "properties": { "NAME": "Dixon R-I School District" }, "geometry": { "type": "Point", "coordinates": [ -92.102930361016647, 37.983683337497204 ] } },
{ "type": "Feature", "properties": { "NAME": "Rolla 31 School District" }, "geometry": { "type": "Point", "coordinates": [ -91.884291962579866, 38.055112745627902 ] } },
{ "type": "Feature", "properties": { "NAME": "Rolla 31 School District" }, "geometry": { "type": "Point", "coordinates": [ -91.760546733976994, 37.921300535265082 ] } },
{ "type": "Feature", "properties": { "NAME": "East Prairie R-II School District" }, "geometry": { "type": "Point", "coordinates": [ -89.305019390675227, 36.726734198742548 ] } },
{ "type": "Feature", "properties": { "NAME": "Scott County R-IV School District" }, "geometry": { "type": "Point", "coordinates": [ -89.476309344397961, 37.033862928438715 ] } },
{ "type": "Feature", "properties": { "NAME": "Spokane R-VII School District" }, "geometry": { "type": "Point", "coordinates": [ -93.277706880734812, 36.881010193979456 ] } },
{ "type": "Feature", "properties": { "NAME": "Ava R-I School District" }, "geometry": { "type": "Point", "coordinates": [ -92.678968994017978, 36.923860235001825 ] } },
{ "type": "Feature", "properties": { "NAME": "Mansfield R-IV School District" }, "geometry": { "type": "Point", "coordinates": [ -92.533911011233329, 36.993712367456681 ] } },
{ "type": "Feature", "properties": { "NAME": "Mansfield R-IV School District" }, "geometry": { "type": "Point", "coordinates": [ -92.584413509370677, 37.124446929085629 ] } },
{ "type": "Feature", "properties": { "NAME": "Norwood R-I School District" }, "geometry": { "type": "Point", "coordinates": [ -92.424826756425773, 37.113003731317754 ] } },
{ "type": "Feature", "properties": { "NAME": "Hartville R-II School District" }, "geometry": { "type": "Point", "coordinates": [ -92.543513737571772, 37.337155483316863 ] } },
{ "type": "Feature", "properties": { "NAME": "Moniteau County R-I School District" }, "geometry": { "type": "Point", "coordinates": [ -92.530977281096384, 38.638378814171887 ] } },
{ "type": "Feature", "properties": { "NAME": "Eldon R-I School District" }, "geometry": { "type": "Point", "coordinates": [ -92.610042794696994, 38.351335804485011 ] } },
{ "type": "Feature", "properties": { "NAME": "Prairie Home R-V School District" }, "geometry": { "type": "Point", "coordinates": [ -92.595029926460114, 38.828083131436856 ] } },
{ "type": "Feature", "properties": { "NAME": "Morgan County R-II School District" }, "geometry": { "type": "Point", "coordinates": [ -92.816867525907782, 38.406801052957867 ] } },
{ "type": "Feature", "properties": { "NAME": "Billings R-IV School District" }, "geometry": { "type": "Point", "coordinates": [ -93.555826523250531, 37.049789148298252 ] } },
{ "type": "Feature", "properties": { "NAME": "Hurley R-I School District" }, "geometry": { "type": "Point", "coordinates": [ -93.473110622304645, 36.921834401139115 ] } },
{ "type": "Feature", "properties": { "NAME": "Hollister R-V School District" }, "geometry": { "type": "Point", "coordinates": [ -93.23305801903993, 36.555331240291636 ] } },
{ "type": "Feature", "properties": { "NAME": "Blue Eye R-V School District" }, "geometry": { "type": "Point", "coordinates": [ -93.44914934800731, 36.551039963703843 ] } },
{ "type": "Feature", "properties": { "NAME": "Macks Creek R-V School District" }, "geometry": { "type": "Point", "coordinates": [ -92.957655269514319, 37.979897490615762 ] } },
{ "type": "Feature", "properties": { "NAME": "Ozark R-VI School District" }, "geometry": { "type": "Point", "coordinates": [ -93.196814155227798, 36.988946678251196 ] } },
{ "type": "Feature", "properties": { "NAME": "Sparta R-III School District" }, "geometry": { "type": "Point", "coordinates": [ -93.046519920641984, 37.002871104476732 ] } },
{ "type": "Feature", "properties": { "NAME": "Hickman Mills C-1 School District" }, "geometry": { "type": "Point", "coordinates": [ -94.507304190665252, 38.933110357460428 ] } },
{ "type": "Feature", "properties": { "NAME": "Blue Springs R-IV School District" }, "geometry": { "type": "Point", "coordinates": [ -94.304311482722483, 39.021905356962023 ] } },
{ "type": "Feature", "properties": { "NAME": "Kansas City 33 School District" }, "geometry": { "type": "Point", "coordinates": [ -94.542725531755977, 39.06434072043772 ] } },
{ "type": "Feature", "properties": { "NAME": "La Monte R-IV School District" }, "geometry": { "type": "Point", "coordinates": [ -93.425417517037843, 38.776733126113577 ] } },
{ "type": "Feature", "properties": { "NAME": "Advance R-IV School District" }, "geometry": { "type": "Point", "coordinates": [ -89.915279065138776, 37.096094877138711 ] } },
{ "type": "Feature", "properties": { "NAME": "Meadow Heights R-II School District" }, "geometry": { "type": "Point", "coordinates": [ -90.009001205564843, 37.503828901261116 ] } },
{ "type": "Feature", "properties": { "NAME": "Steelville R-III School District" }, "geometry": { "type": "Point", "coordinates": [ -91.320668005495051, 37.926081700161461 ] } },
{ "type": "Feature", "properties": { "NAME": "Fort Zumwalt R-II School District" }, "geometry": { "type": "Point", "coordinates": [ -90.70484942334204, 38.842714884148911 ] } },
{ "type": "Feature", "properties": { "NAME": "Washington School District" }, "geometry": { "type": "Point", "coordinates": [ -90.986091663431381, 38.573781981059817 ] } },
{ "type": "Feature", "properties": { "NAME": "Union R-XI School District" }, "geometry": { "type": "Point", "coordinates": [ -91.101497054825003, 38.428961765322008 ] } },
{ "type": "Feature", "properties": { "NAME": "Sullivan C-2 School District" }, "geometry": { "type": "Point", "coordinates": [ -91.099571314916417, 38.207952405337984 ] } },
{ "type": "Feature", "properties": { "NAME": "Crawford County R-I School District" }, "geometry": { "type": "Point", "coordinates": [ -91.152405268967399, 38.079591231860014 ] } },
{ "type": "Feature", "properties": { "NAME": "Center 58 School District" }, "geometry": { "type": "Point", "coordinates": [ -94.578110720250024, 38.954509144178587 ] } },
{ "type": "Feature", "properties": { "NAME": "Grain Valley R-V School District" }, "geometry": { "type": "Point", "coordinates": [ -94.192104198549927, 39.012885769627545 ] } },
{ "type": "Feature", "properties": { "NAME": "Independence 30 School District" }, "geometry": { "type": "Point", "coordinates": [ -94.403198259082757, 39.083080381407157 ] } },
{ "type": "Feature", "properties": { "NAME": "Raytown C-2 School District" }, "geometry": { "type": "Point", "coordinates": [ -94.461755437744571, 39.004825800404916 ] } },
{ "type": "Feature", "properties": { "NAME": "Higbee R-VIII School District" }, "geometry": { "type": "Point", "coordinates": [ -92.528778517695102, 39.280944738623354 ] } },
{ "type": "Feature", "properties": { "NAME": "Moberly School District" }, "geometry": { "type": "Point", "coordinates": [ -92.394282657555522, 39.423631459521779 ] } },
{ "type": "Feature", "properties": { "NAME": "Santa Fe R-X School District" }, "geometry": { "type": "Point", "coordinates": [ -93.507852259073829, 39.147294366444982 ] } },
{ "type": "Feature", "properties": { "NAME": "Lexington R-V School District" }, "geometry": { "type": "Point", "coordinates": [ -93.805236880218274, 39.161821957839329 ] } },
{ "type": "Feature", "properties": { "NAME": "Richmond R-XVI School District" }, "geometry": { "type": "Point", "coordinates": [ -93.976896802744164, 39.311455373562822 ] } },
{ "type": "Feature", "properties": { "NAME": "Wellington-Napoleon R-IX School District" }, "geometry": { "type": "Point", "coordinates": [ -94.001559714452185, 39.099686668158263 ] } },
{ "type": "Feature", "properties": { "NAME": "Pike County R-III School District" }, "geometry": { "type": "Point", "coordinates": [ -90.937992089966585, 39.267765604822834 ] } },
{ "type": "Feature", "properties": { "NAME": "Warren County R-III School District" }, "geometry": { "type": "Point", "coordinates": [ -91.20465169453324, 38.793406766805909 ] } },
{ "type": "Feature", "properties": { "NAME": "Wright City R-II of Warren County" }, "geometry": { "type": "Point", "coordinates": [ -91.018882101248678, 38.795066420232224 ] } },
{ "type": "Feature", "properties": { "NAME": "Odessa R-VII School District" }, "geometry": { "type": "Point", "coordinates": [ -93.934012327326727, 38.988711326381768 ] } },
{ "type": "Feature", "properties": { "NAME": "Sweet Springs R-VII School District" }, "geometry": { "type": "Point", "coordinates": [ -93.381951445795991, 38.975798038201624 ] } },
{ "type": "Feature", "properties": { "NAME": "Sherwood Cass R-VIII School District" }, "geometry": { "type": "Point", "coordinates": [ -94.101355800523962, 38.577396871742948 ] } },
{ "type": "Feature", "properties": { "NAME": "Sherwood Cass R-VIII School District" }, "geometry": { "type": "Point", "coordinates": [ -94.075018653973402, 38.511167075405687 ] } },
{ "type": "Feature", "properties": { "NAME": "Holden R-III School District" }, "geometry": { "type": "Point", "coordinates": [ -94.008651493673355, 38.723186550809061 ] } },
{ "type": "Feature", "properties": { "NAME": "Warrensburg R-VI School District" }, "geometry": { "type": "Point", "coordinates": [ -93.714060351205902, 38.76613813207554 ] } },
{ "type": "Feature", "properties": { "NAME": "Kingsville R-I School District" }, "geometry": { "type": "Point", "coordinates": [ -94.081761399121419, 38.755492237704452 ] } },
{ "type": "Feature", "properties": { "NAME": "Leeton R-X School District" }, "geometry": { "type": "Point", "coordinates": [ -93.686158533019437, 38.623639129856464 ] } },
{ "type": "Feature", "properties": { "NAME": "Couch R-I School District" }, "geometry": { "type": "Point", "coordinates": [ -91.27901226966857, 36.557983427268475 ] } },
{ "type": "Feature", "properties": { "NAME": "Winona R-III School District" }, "geometry": { "type": "Point", "coordinates": [ -91.267888301041353, 37.002152512579194 ] } },
{ "type": "Feature", "properties": { "NAME": "Fort Osage R-I School District" }, "geometry": { "type": "Point", "coordinates": [ -94.252532920021878, 39.147377156271524 ] } },
{ "type": "Feature", "properties": { "NAME": "Grandview C-4 School District" }, "geometry": { "type": "Point", "coordinates": [ -94.525558808189587, 38.87364612926757 ] } },
{ "type": "Feature", "properties": { "NAME": "Seneca R-VII School District" }, "geometry": { "type": "Point", "coordinates": [ -94.570916233201714, 36.873110702761565 ] } },
{ "type": "Feature", "properties": { "NAME": "South Harrison County R-II School District" }, "geometry": { "type": "Point", "coordinates": [ -94.036658787226855, 40.283325142707888 ] } },
{ "type": "Feature", "properties": { "NAME": "Gilman City R-IV School District" }, "geometry": { "type": "Point", "coordinates": [ -93.854792716478642, 40.150135130421944 ] } },
{ "type": "Feature", "properties": { "NAME": "Hamilton R-II School District" }, "geometry": { "type": "Point", "coordinates": [ -94.014589259525252, 39.762199405745598 ] } },
{ "type": "Feature", "properties": { "NAME": "Fredericktown R-I School District" }, "geometry": { "type": "Point", "coordinates": [ -90.356846135603959, 37.519876005940063 ] } },
{ "type": "Feature", "properties": { "NAME": "Lee's Summit R-VII School District" }, "geometry": { "type": "Point", "coordinates": [ -94.331073792190907, 38.906050478609586 ] } },
{ "type": "Feature", "properties": { "NAME": "Lone Jack C-6 School District" }, "geometry": { "type": "Point", "coordinates": [ -94.166232518062714, 38.871371167020442 ] } },
{ "type": "Feature", "properties": { "NAME": "Belton 124 School District" }, "geometry": { "type": "Point", "coordinates": [ -94.559838415316023, 38.789492884542668 ] } },
{ "type": "Feature", "properties": { "NAME": "Pleasant Hill R-III School District" }, "geometry": { "type": "Point", "coordinates": [ -94.288866632881422, 38.773954830118186 ] } },
{ "type": "Feature", "properties": { "NAME": "South Iron County R-I School District" }, "geometry": { "type": "Point", "coordinates": [ -90.693809081597792, 37.377252145294129 ] } },
{ "type": "Feature", "properties": { "NAME": "Clearwater R-I School District" }, "geometry": { "type": "Point", "coordinates": [ -90.627487290696109, 37.157741338369931 ] } },
{ "type": "Feature", "properties": { "NAME": "Carl Junction R-I School District" }, "geometry": { "type": "Point", "coordinates": [ -94.558230453757901, 37.226903948016854 ] } },
{ "type": "Feature", "properties": { "NAME": "Raymore-Peculiar R-II School District" }, "geometry": { "type": "Point", "coordinates": [ -94.457445080463117, 38.747030784048142 ] } },
{ "type": "Feature", "properties": { "NAME": "Archie R-V School District" }, "geometry": { "type": "Point", "coordinates": [ -94.341974469080924, 38.508041880994654 ] } },
{ "type": "Feature", "properties": { "NAME": "Adrian R-III School District" }, "geometry": { "type": "Point", "coordinates": [ -94.349560088521258, 38.40557024185447 ] } },
{ "type": "Feature", "properties": { "NAME": "Miami R-I School District" }, "geometry": { "type": "Point", "coordinates": [ -94.543356849859038, 38.324165321610458 ] } },
{ "type": "Feature", "properties": { "NAME": "Drexel R-IV School District" }, "geometry": { "type": "Point", "coordinates": [ -94.554997342696353, 38.499971821504943 ] } },
{ "type": "Feature", "properties": { "NAME": "Chillicothe R-II School District" }, "geometry": { "type": "Point", "coordinates": [ -93.542412022556178, 39.802599083098983 ] } },
{ "type": "Feature", "properties": { "NAME": "Mountain View-Birch Tree R-III School District" }, "geometry": { "type": "Point", "coordinates": [ -91.61745283629854, 36.977387316407601 ] } },
{ "type": "Feature", "properties": { "NAME": "Windsor C-1 School District" }, "geometry": { "type": "Point", "coordinates": [ -90.390073699771591, 38.359780711921069 ] } },
{ "type": "Feature", "properties": { "NAME": "Rockwood R-VI School District" }, "geometry": { "type": "Point", "coordinates": [ -90.626441379343007, 38.559670785932902 ] } },
{ "type": "Feature", "properties": { "NAME": "Greenville R-II School District" }, "geometry": { "type": "Point", "coordinates": [ -90.380692511070649, 37.096487182833137 ] } },
{ "type": "Feature", "properties": { "NAME": "Poplar Bluff R-I School District" }, "geometry": { "type": "Point", "coordinates": [ -90.44712483961284, 36.796678341413489 ] } },
{ "type": "Feature", "properties": { "NAME": "New Haven School District" }, "geometry": { "type": "Point", "coordinates": [ -91.262122380970439, 38.624105794579677 ] } },
{ "type": "Feature", "properties": { "NAME": "Bismarck R-V School District" }, "geometry": { "type": "Point", "coordinates": [ -90.599907202714178, 37.723327320683453 ] } },
{ "type": "Feature", "properties": { "NAME": "Montrose R-XIV School District" }, "geometry": { "type": "Point", "coordinates": [ -93.967706404349997, 38.259375841205163 ] } },
{ "type": "Feature", "properties": { "NAME": "Calhoun R-VIII School District" }, "geometry": { "type": "Point", "coordinates": [ -93.631782884585164, 38.440559358124545 ] } },
{ "type": "Feature", "properties": { "NAME": "Elsberry R-II School District" }, "geometry": { "type": "Point", "coordinates": [ -90.815984406447939, 39.144384981752424 ] } },
{ "type": "Feature", "properties": { "NAME": "Winfield R-IV School District" }, "geometry": { "type": "Point", "coordinates": [ -90.771211036352, 38.995893790397787 ] } },
{ "type": "Feature", "properties": { "NAME": "Troy R-III School District" }, "geometry": { "type": "Point", "coordinates": [ -91.012198004993806, 38.986632914694361 ] } },
{ "type": "Feature", "properties": { "NAME": "Buchanan County R-IV School District" }, "geometry": { "type": "Point", "coordinates": [ -94.970143632988822, 39.592555649084346 ] } },
{ "type": "Feature", "properties": { "NAME": "Mid-Buchanan County R-V School District" }, "geometry": { "type": "Point", "coordinates": [ -94.796146516132609, 39.626092680679278 ] } },
{ "type": "Feature", "properties": { "NAME": "Northwest R-I School District" }, "geometry": { "type": "Point", "coordinates": [ -90.621234751085325, 38.393728713470317 ] } },
{ "type": "Feature", "properties": { "NAME": "Columbia 93 School District" }, "geometry": { "type": "Point", "coordinates": [ -92.343721424485977, 38.951010619280019 ] } },
{ "type": "Feature", "properties": { "NAME": "Southern Boone County R-I School District" }, "geometry": { "type": "Point", "coordinates": [ -92.269738995502379, 38.759171275167844 ] } },
{ "type": "Feature", "properties": { "NAME": "Crystal City 47 School District" }, "geometry": { "type": "Point", "coordinates": [ -90.392457660832846, 38.199112618368915 ] } },
{ "type": "Feature", "properties": { "NAME": "Crystal City 47 School District" }, "geometry": { "type": "Point", "coordinates": [ -90.376712783773712, 38.23286659859437 ] } },
{ "type": "Feature", "properties": { "NAME": "Fox C-6 School District" }, "geometry": { "type": "Point", "coordinates": [ -90.442934275509117, 38.403508742016413 ] } },
{ "type": "Feature", "properties": { "NAME": "Grandview R-II School District" }, "geometry": { "type": "Point", "coordinates": [ -90.690317610026057, 38.22561658299756 ] } },
{ "type": "Feature", "properties": { "NAME": "Dunklin R-V School District" }, "geometry": { "type": "Point", "coordinates": [ -90.412124276951303, 38.288512029626737 ] } },
{ "type": "Feature", "properties": { "NAME": "Gainesville R-V School District" }, "geometry": { "type": "Point", "coordinates": [ -92.435276456782077, 36.636112877771957 ] } },
{ "type": "Feature", "properties": { "NAME": "Meramec Valley R-III School District" }, "geometry": { "type": "Point", "coordinates": [ -90.799621487402206, 38.444552546699065 ] } },
{ "type": "Feature", "properties": { "NAME": "St. Clair R-XIII School District" }, "geometry": { "type": "Point", "coordinates": [ -90.973463649846821, 38.310942591559282 ] } },
{ "type": "Feature", "properties": { "NAME": "Tarkio R-I School District" }, "geometry": { "type": "Point", "coordinates": [ -95.329612257411952, 40.482195304843408 ] } },
{ "type": "Feature", "properties": { "NAME": "St. Elizabeth R-IV School District" }, "geometry": { "type": "Point", "coordinates": [ -92.270539131029949, 38.236623310595959 ] } },
{ "type": "Feature", "properties": { "NAME": "Osage County R-III School District" }, "geometry": { "type": "Point", "coordinates": [ -91.820700495965724, 38.573402927429761 ] } },
{ "type": "Feature", "properties": { "NAME": "Osage County R-III School District" }, "geometry": { "type": "Point", "coordinates": [ -91.993436846448859, 38.415051256462974 ] } },
{ "type": "Feature", "properties": { "NAME": "Knox County R-I School District" }, "geometry": { "type": "Point", "coordinates": [ -92.150831382615181, 40.128787145859903 ] } },
{ "type": "Feature", "properties": { "NAME": "Lewis County C-1 School District" }, "geometry": { "type": "Point", "coordinates": [ -91.751627495160946, 40.064140509443796 ] } },
{ "type": "Feature", "properties": { "NAME": "Jackson R-II School District" }, "geometry": { "type": "Point", "coordinates": [ -89.690487298661751, 37.41787082742227 ] } },
{ "type": "Feature", "properties": { "NAME": "Cape Girardeau 63 School District" }, "geometry": { "type": "Point", "coordinates": [ -89.575654339629466, 37.288711021922332 ] } },
{ "type": "Feature", "properties": { "NAME": "Oak Ridge R-VI School District" }, "geometry": { "type": "Point", "coordinates": [ -89.762137452936855, 37.54208932097437 ] } },
{ "type": "Feature", "properties": { "NAME": "Delta R-V School District" }, "geometry": { "type": "Point", "coordinates": [ -89.77389243082078, 37.21823955067741 ] } },
{ "type": "Feature", "properties": { "NAME": "Adair County R-II School District" }, "geometry": { "type": "Point", "coordinates": [ -92.405479248569719, 40.186763188958331 ] } },
{ "type": "Feature", "properties": { "NAME": "School of The Osage School District" }, "geometry": { "type": "Point", "coordinates": [ -92.574166517473472, 38.171895759583876 ] } },
{ "type": "Feature", "properties": { "NAME": "Orrick R-XI School District" }, "geometry": { "type": "Point", "coordinates": [ -94.119089272919581, 39.218458523367488 ] } },
{ "type": "Feature", "properties": { "NAME": "Polo R-VII School District" }, "geometry": { "type": "Point", "coordinates": [ -94.026008464709378, 39.526567345023871 ] } },
{ "type": "Feature", "properties": { "NAME": "Ralls County R-II School District" }, "geometry": { "type": "Point", "coordinates": [ -91.533865289602346, 39.499405342091428 ] } },
{ "type": "Feature", "properties": { "NAME": "Madison C-3 School District" }, "geometry": { "type": "Point", "coordinates": [ -92.225759245113935, 39.485715896213271 ] } },
{ "type": "Feature", "properties": { "NAME": "Monroe City R-I School District" }, "geometry": { "type": "Point", "coordinates": [ -91.742726343630281, 39.639126855237201 ] } },
{ "type": "Feature", "properties": { "NAME": "Silex R-I School District" }, "geometry": { "type": "Point", "coordinates": [ -91.120818669330248, 39.121375719776239 ] } },
{ "type": "Feature", "properties": { "NAME": "Louisiana R-II School District" }, "geometry": { "type": "Point", "coordinates": [ -91.134912484899274, 39.468738093170273 ] } },
{ "type": "Feature", "properties": { "NAME": "Bowling Green R-I School District" }, "geometry": { "type": "Point", "coordinates": [ -91.272844536471979, 39.340912499164567 ] } },
{ "type": "Feature", "properties": { "NAME": "Park Hill School District" }, "geometry": { "type": "Point", "coordinates": [ -94.699101509396215, 39.224047702736726 ] } },
{ "type": "Feature", "properties": { "NAME": "East Buchanan County C-1 School District" }, "geometry": { "type": "Point", "coordinates": [ -94.615962234089707, 39.63412762931101 ] } },
{ "type": "Feature", "properties": { "NAME": "Ridgeway R-V School District" }, "geometry": { "type": "Point", "coordinates": [ -93.926169609775741, 40.374601301033394 ] } },
{ "type": "Feature", "properties": { "NAME": "Breckenridge R-I School District" }, "geometry": { "type": "Point", "coordinates": [ -93.815922578541844, 39.753773722469639 ] } },
{ "type": "Feature", "properties": { "NAME": "Gallatin R-V School District" }, "geometry": { "type": "Point", "coordinates": [ -93.942731428917995, 39.892686390441476 ] } },
{ "type": "Feature", "properties": { "NAME": "Tri-County R-VII School District" }, "geometry": { "type": "Point", "coordinates": [ -93.793940276020592, 39.967776542138282 ] } },
{ "type": "Feature", "properties": { "NAME": "Dora R-III School District" }, "geometry": { "type": "Point", "coordinates": [ -92.28415427291101, 36.893696339860327 ] } },
{ "type": "Feature", "properties": { "NAME": "Dora R-III School District" }, "geometry": { "type": "Point", "coordinates": [ -92.243351711173034, 36.781326200809545 ] } },
{ "type": "Feature", "properties": { "NAME": "Lutie R-VI School District" }, "geometry": { "type": "Point", "coordinates": [ -92.676073267912358, 36.561512260534307 ] } },
{ "type": "Feature", "properties": { "NAME": "Miller County R-III School District" }, "geometry": { "type": "Point", "coordinates": [ -92.332181011991182, 38.201502494818001 ] } },
{ "type": "Feature", "properties": { "NAME": "Miller County R-III School District" }, "geometry": { "type": "Point", "coordinates": [ -92.438516931413446, 38.226235923177363 ] } },
{ "type": "Feature", "properties": { "NAME": "Iberia R-V School District" }, "geometry": { "type": "Point", "coordinates": [ -92.31716361767316, 38.089400829234187 ] } },
{ "type": "Feature", "properties": { "NAME": "Union Star R-II School District" }, "geometry": { "type": "Point", "coordinates": [ -94.576775869136455, 39.97419949699119 ] } },
{ "type": "Feature", "properties": { "NAME": "Nodaway-Holt R-VII School District" }, "geometry": { "type": "Point", "coordinates": [ -95.030237198324102, 40.072221197373146 ] } },
{ "type": "Feature", "properties": { "NAME": "Nodaway-Holt R-VII School District" }, "geometry": { "type": "Point", "coordinates": [ -95.04133102712612, 40.215392781683228 ] } },
{ "type": "Feature", "properties": { "NAME": "King City R-I School District" }, "geometry": { "type": "Point", "coordinates": [ -94.51402360317843, 40.068774348610695 ] } },
{ "type": "Feature", "properties": { "NAME": "North Andrew County R-VI School District" }, "geometry": { "type": "Point", "coordinates": [ -94.880204645320404, 40.062086759055255 ] } },
{ "type": "Feature", "properties": { "NAME": "Jefferson C-123 School District" }, "geometry": { "type": "Point", "coordinates": [ -94.681689350251176, 40.249189321022897 ] } },
{ "type": "Feature", "properties": { "NAME": "Maryville R-II Schools" }, "geometry": { "type": "Point", "coordinates": [ -94.878216463913319, 40.34225747303622 ] } },
{ "type": "Feature", "properties": { "NAME": "Potosi R-III School District" }, "geometry": { "type": "Point", "coordinates": [ -90.879703162304509, 37.970211924595937 ] } },
{ "type": "Feature", "properties": { "NAME": "Valley R-VI School District" }, "geometry": { "type": "Point", "coordinates": [ -90.895894578155705, 37.793789375614544 ] } },
{ "type": "Feature", "properties": { "NAME": "West St. Francois County R-IV School District" }, "geometry": { "type": "Point", "coordinates": [ -90.643785866644549, 37.84473702186164 ] } },
{ "type": "Feature", "properties": { "NAME": "Bell City R-II School District" }, "geometry": { "type": "Point", "coordinates": [ -89.81398591534834, 36.998720041062356 ] } },
{ "type": "Feature", "properties": { "NAME": "Dexter R-XI School District" }, "geometry": { "type": "Point", "coordinates": [ -90.023300643262417, 36.783888178308835 ] } },
{ "type": "Feature", "properties": { "NAME": "Zalma R-V School District" }, "geometry": { "type": "Point", "coordinates": [ -90.095657496251647, 37.132120400949368 ] } },
{ "type": "Feature", "properties": { "NAME": "Puxico R-VIII School District" }, "geometry": { "type": "Point", "coordinates": [ -90.159848432932478, 36.934555430094235 ] } },
{ "type": "Feature", "properties": { "NAME": "Richland R-I School District" }, "geometry": { "type": "Point", "coordinates": [ -89.794413574156067, 36.802145734603357 ] } },
{ "type": "Feature", "properties": { "NAME": "La Plata R-II School District" }, "geometry": { "type": "Point", "coordinates": [ -92.500189273682537, 40.004595997187707 ] } },
{ "type": "Feature", "properties": { "NAME": "North Nodaway County R-VI School District" }, "geometry": { "type": "Point", "coordinates": [ -94.817941252391222, 40.506640105698736 ] } },
{ "type": "Feature", "properties": { "NAME": "Orchard Farm R-V School District" }, "geometry": { "type": "Point", "coordinates": [ -90.374470630822131, 38.879179288089219 ] } },
{ "type": "Feature", "properties": { "NAME": "Wentzville R-IV School District" }, "geometry": { "type": "Point", "coordinates": [ -90.865960275516485, 38.800597099442349 ] } },
{ "type": "Feature", "properties": { "NAME": "Centralia R-VI School District" }, "geometry": { "type": "Point", "coordinates": [ -92.104954416380721, 39.22377136527021 ] } },
{ "type": "Feature", "properties": { "NAME": "Paris R-II School District" }, "geometry": { "type": "Point", "coordinates": [ -91.948834688829535, 39.446963228160335 ] } },
{ "type": "Feature", "properties": { "NAME": "Bradleyville R-I School District" }, "geometry": { "type": "Point", "coordinates": [ -92.880180314204509, 36.747389501656187 ] } },
{ "type": "Feature", "properties": { "NAME": "Farmington R-VII School District" }, "geometry": { "type": "Point", "coordinates": [ -90.319690269457766, 37.74653854868631 ] } },
{ "type": "Feature", "properties": { "NAME": "Central R-III School District" }, "geometry": { "type": "Point", "coordinates": [ -90.484714768594827, 37.843178193725819 ] } },
{ "type": "Feature", "properties": { "NAME": "North St. Francis County R-I School District" }, "geometry": { "type": "Point", "coordinates": [ -90.486002692473235, 37.95258935341927 ] } },
{ "type": "Feature", "properties": { "NAME": "Ste. Genevieve County R-II School District" }, "geometry": { "type": "Point", "coordinates": [ -90.166095510283071, 37.937251798342132 ] } },
{ "type": "Feature", "properties": { "NAME": "Jamestown C-1 School District" }, "geometry": { "type": "Point", "coordinates": [ -92.445683514591067, 38.755799379026307 ] } },
{ "type": "Feature", "properties": { "NAME": "Cole County R-I School District" }, "geometry": { "type": "Point", "coordinates": [ -92.421974331002318, 38.505513717309221 ] } },
{ "type": "Feature", "properties": { "NAME": "Fair Play R-II School District" }, "geometry": { "type": "Point", "coordinates": [ -93.552935769785563, 37.631266643969042 ] } },
{ "type": "Feature", "properties": { "NAME": "Halfway R-III School District" }, "geometry": { "type": "Point", "coordinates": [ -93.245887160181766, 37.632742435314796 ] } },
{ "type": "Feature", "properties": { "NAME": "Woodland R-IV School District" }, "geometry": { "type": "Point", "coordinates": [ -89.86797963812559, 37.275673093679949 ] } },
{ "type": "Feature", "properties": { "NAME": "Woodland R-IV School District" }, "geometry": { "type": "Point", "coordinates": [ -90.037054088352448, 37.307537510673427 ] } },
{ "type": "Feature", "properties": { "NAME": "Woodland R-IV School District" }, "geometry": { "type": "Point", "coordinates": [ -90.247488962955231, 37.198658779621375 ] } },
{ "type": "Feature", "properties": { "NAME": "Perry County 32 School District" }, "geometry": { "type": "Point", "coordinates": [ -90.015866668337154, 37.588620931441852 ] } },
{ "type": "Feature", "properties": { "NAME": "Perry County 32 School District" }, "geometry": { "type": "Point", "coordinates": [ -89.857021467167939, 37.72027317472989 ] } },
{ "type": "Feature", "properties": { "NAME": "Iron County C-4 School District" }, "geometry": { "type": "Point", "coordinates": [ -91.159636094261941, 37.730073542906467 ] } },
{ "type": "Feature", "properties": { "NAME": "Ferguson-Florissant R-II School District" }, "geometry": { "type": "Point", "coordinates": [ -90.319300651308851, 38.763491992810678 ] } },
{ "type": "Feature", "properties": { "NAME": "Hazelwood School District" }, "geometry": { "type": "Point", "coordinates": [ -90.299414402337405, 38.810408427870705 ] } },
{ "type": "Feature", "properties": { "NAME": "Lindbergh School District" }, "geometry": { "type": "Point", "coordinates": [ -90.394884442606809, 38.529978499040823 ] } },
{ "type": "Feature", "properties": { "NAME": "Mehlville R-IX School District" }, "geometry": { "type": "Point", "coordinates": [ -90.332218555299619, 38.47505013328913 ] } },
{ "type": "Feature", "properties": { "NAME": "Parkway C-2 School District" }, "geometry": { "type": "Point", "coordinates": [ -90.499110416392583, 38.64483879908839 ] } },
{ "type": "Feature", "properties": { "NAME": "Concordia R-II School District" }, "geometry": { "type": "Point", "coordinates": [ -93.605796089452809, 38.957293195257513 ] } },
{ "type": "Feature", "properties": { "NAME": "Lafayette County C-1 School District" }, "geometry": { "type": "Point", "coordinates": [ -93.706915326758306, 39.071031784357245 ] } },
{ "type": "Feature", "properties": { "NAME": "Oak Grove R-VI School District" }, "geometry": { "type": "Point", "coordinates": [ -94.123472210391469, 38.987211246915884 ] } },
{ "type": "Feature", "properties": { "NAME": "Glasgow School District" }, "geometry": { "type": "Point", "coordinates": [ -92.842937374723974, 39.203312205869594 ] } },
{ "type": "Feature", "properties": { "NAME": "Pettis County R-V School District" }, "geometry": { "type": "Point", "coordinates": [ -93.234167501885707, 38.871116864342227 ] } },
{ "type": "Feature", "properties": { "NAME": "Slater School District" }, "geometry": { "type": "Point", "coordinates": [ -93.06305937200726, 39.264362942346921 ] } },
{ "type": "Feature", "properties": { "NAME": "Arcadia Valley R-II School District" }, "geometry": { "type": "Point", "coordinates": [ -90.619852057054231, 37.555120601132074 ] } },
{ "type": "Feature", "properties": { "NAME": "Marquand-Zion R-VI School District" }, "geometry": { "type": "Point", "coordinates": [ -90.270038751675145, 37.384237797077013 ] } },
{ "type": "Feature", "properties": { "NAME": "Smithville R-II School District" }, "geometry": { "type": "Point", "coordinates": [ -94.563334204491156, 39.39010599062361 ] } },
{ "type": "Feature", "properties": { "NAME": "Excelsior Springs 40 School District" }, "geometry": { "type": "Point", "coordinates": [ -94.217659474664345, 39.326584876273529 ] } },
{ "type": "Feature", "properties": { "NAME": "Kearney R-I School District" }, "geometry": { "type": "Point", "coordinates": [ -94.384307012592572, 39.389915384382768 ] } },
{ "type": "Feature", "properties": { "NAME": "Bakersfield R-IV School District" }, "geometry": { "type": "Point", "coordinates": [ -92.173658659232899, 36.593335432254655 ] } },
{ "type": "Feature", "properties": { "NAME": "Van Buren R-I School District" }, "geometry": { "type": "Point", "coordinates": [ -90.851127107270329, 37.093198112925684 ] } },
{ "type": "Feature", "properties": { "NAME": "Van Buren R-I School District" }, "geometry": { "type": "Point", "coordinates": [ -91.065186691723241, 36.945982426153385 ] } },
{ "type": "Feature", "properties": { "NAME": "St. Charles R-VI School District" }, "geometry": { "type": "Point", "coordinates": [ -90.524700537801053, 38.794300398094528 ] } },
{ "type": "Feature", "properties": { "NAME": "Francis Howell R-III School District" }, "geometry": { "type": "Point", "coordinates": [ -90.750914085887402, 38.701596340097332 ] } },
{ "type": "Feature", "properties": { "NAME": "Affton 101 School District" }, "geometry": { "type": "Point", "coordinates": [ -90.327537243614671, 38.561738368963063 ] } },
{ "type": "Feature", "properties": { "NAME": "Bayless School District" }, "geometry": { "type": "Point", "coordinates": [ -90.299083219179821, 38.54965015634135 ] } },
{ "type": "Feature", "properties": { "NAME": "El Dorado Springs R-II School District" }, "geometry": { "type": "Point", "coordinates": [ -94.008746759238505, 37.834414505312949 ] } },
{ "type": "Feature", "properties": { "NAME": "Humansville R-IV School District" }, "geometry": { "type": "Point", "coordinates": [ -93.558801413279369, 37.776081554053661 ] } },
{ "type": "Feature", "properties": { "NAME": "Scott City R-I School District" }, "geometry": { "type": "Point", "coordinates": [ -89.506233394328333, 37.212013488788052 ] } },
{ "type": "Feature", "properties": { "NAME": "Golden City R-III School District" }, "geometry": { "type": "Point", "coordinates": [ -94.126667774120293, 37.422556544840837 ] } },
{ "type": "Feature", "properties": { "NAME": "Lamar R-I School District" }, "geometry": { "type": "Point", "coordinates": [ -94.255493807162395, 37.528166936086116 ] } },
{ "type": "Feature", "properties": { "NAME": "Sheldon R-VIII School District" }, "geometry": { "type": "Point", "coordinates": [ -94.225383018404969, 37.675977993649575 ] } },
{ "type": "Feature", "properties": { "NAME": "Clayton School District" }, "geometry": { "type": "Point", "coordinates": [ -90.32974336367333, 38.642765871526869 ] } },
{ "type": "Feature", "properties": { "NAME": "Hancock Place School District" }, "geometry": { "type": "Point", "coordinates": [ -90.275411885421562, 38.532652334007366 ] } },
{ "type": "Feature", "properties": { "NAME": "Jennings School District" }, "geometry": { "type": "Point", "coordinates": [ -90.263220715711057, 38.722394876415805 ] } },
{ "type": "Feature", "properties": { "NAME": "Everton R-III School District" }, "geometry": { "type": "Point", "coordinates": [ -93.713941903851136, 37.352693750511257 ] } },
{ "type": "Feature", "properties": { "NAME": "Stockton R-I School District" }, "geometry": { "type": "Point", "coordinates": [ -93.820182592918854, 37.675185147854435 ] } },
{ "type": "Feature", "properties": { "NAME": "De Soto 73 School District" }, "geometry": { "type": "Point", "coordinates": [ -90.522348399951227, 38.10172810464227 ] } },
{ "type": "Feature", "properties": { "NAME": "Festus R-VI School District" }, "geometry": { "type": "Point", "coordinates": [ -90.454567893475058, 38.206460246879324 ] } },
{ "type": "Feature", "properties": { "NAME": "Hillsboro R-III School District" }, "geometry": { "type": "Point", "coordinates": [ -90.555284495193121, 38.255521458869389 ] } },
{ "type": "Feature", "properties": { "NAME": "Kingston K-14 School District" }, "geometry": { "type": "Point", "coordinates": [ -90.715038226333533, 38.145160969542282 ] } },
{ "type": "Feature", "properties": { "NAME": "Kingston K-14 School District" }, "geometry": { "type": "Point", "coordinates": [ -90.722306571858311, 38.041207415409886 ] } },
{ "type": "Feature", "properties": { "NAME": "Johnson County R-VII School District" }, "geometry": { "type": "Point", "coordinates": [ -93.919592585780563, 38.909096459148628 ] } },
{ "type": "Feature", "properties": { "NAME": "Johnson County R-VII School District" }, "geometry": { "type": "Point", "coordinates": [ -93.837306047482983, 38.829734049963349 ] } },
{ "type": "Feature", "properties": { "NAME": "Harrisonville R-IX School District" }, "geometry": { "type": "Point", "coordinates": [ -94.346854362364809, 38.633729431156127 ] } },
{ "type": "Feature", "properties": { "NAME": "Midway R-I School District" }, "geometry": { "type": "Point", "coordinates": [ -94.540863066104905, 38.624863355925172 ] } },
{ "type": "Feature", "properties": { "NAME": "Southern Reynolds County R-II School District" }, "geometry": { "type": "Point", "coordinates": [ -90.986927335981107, 37.223416317122947 ] } },
{ "type": "Feature", "properties": { "NAME": "Lesterville R-IV School District" }, "geometry": { "type": "Point", "coordinates": [ -90.913010774805826, 37.524301461369376 ] } },
{ "type": "Feature", "properties": { "NAME": "Jasper County R-V School District" }, "geometry": { "type": "Point", "coordinates": [ -94.318197363356049, 37.326383753812358 ] } },
{ "type": "Feature", "properties": { "NAME": "Kirkwood R-VII School District" }, "geometry": { "type": "Point", "coordinates": [ -90.419796042617136, 38.587138327464089 ] } },
{ "type": "Feature", "properties": { "NAME": "Ladue School District" }, "geometry": { "type": "Point", "coordinates": [ -90.392914668923027, 38.647082690126595 ] } },
{ "type": "Feature", "properties": { "NAME": "Maplewood-Richmond Heights School District" }, "geometry": { "type": "Point", "coordinates": [ -90.323702521799447, 38.619049776474839 ] } },
{ "type": "Feature", "properties": { "NAME": "Hallsville R-IV School District" }, "geometry": { "type": "Point", "coordinates": [ -92.239136958998088, 39.097891538570451 ] } },
{ "type": "Feature", "properties": { "NAME": "Stanberry R-II School District" }, "geometry": { "type": "Point", "coordinates": [ -94.534636296262022, 40.246240289675995 ] } },
{ "type": "Feature", "properties": { "NAME": "Cainsville R-I School District" }, "geometry": { "type": "Point", "coordinates": [ -93.801020145979209, 40.462105962277519 ] } },
{ "type": "Feature", "properties": { "NAME": "Chadwick R-I School District" }, "geometry": { "type": "Point", "coordinates": [ -93.031895976676608, 36.893212560915558 ] } },
{ "type": "Feature", "properties": { "NAME": "Miller R-II School District" }, "geometry": { "type": "Point", "coordinates": [ -93.857494765123135, 37.217478168936111 ] } },
{ "type": "Feature", "properties": { "NAME": "Mound City R-II School District" }, "geometry": { "type": "Point", "coordinates": [ -95.233663239583677, 40.149209677931928 ] } },
{ "type": "Feature", "properties": { "NAME": "Galena R-II School District" }, "geometry": { "type": "Point", "coordinates": [ -93.471256894005208, 36.819942131286695 ] } },
{ "type": "Feature", "properties": { "NAME": "Cassville R-IV School District" }, "geometry": { "type": "Point", "coordinates": [ -93.765849896513345, 36.648307706482932 ] } },
{ "type": "Feature", "properties": { "NAME": "Reeds Spring R-IV School District" }, "geometry": { "type": "Point", "coordinates": [ -93.441855152585006, 36.695450721655774 ] } },
{ "type": "Feature", "properties": { "NAME": "Verona R-VII School District" }, "geometry": { "type": "Point", "coordinates": [ -93.807704180047864, 36.962282392713206 ] } },
{ "type": "Feature", "properties": { "NAME": "Maysville R-I School District" }, "geometry": { "type": "Point", "coordinates": [ -94.397257196603832, 39.907075409346646 ] } },
{ "type": "Feature", "properties": { "NAME": "Savannah R-III School District" }, "geometry": { "type": "Point", "coordinates": [ -94.796477193719568, 39.917951806921245 ] } },
{ "type": "Feature", "properties": { "NAME": "Eminence R-I School District" }, "geometry": { "type": "Point", "coordinates": [ -91.375033020725581, 37.221895590332593 ] } },
{ "type": "Feature", "properties": { "NAME": "Weaubleau R-III School District" }, "geometry": { "type": "Point", "coordinates": [ -93.597646158663068, 37.908316207514673 ] } },
{ "type": "Feature", "properties": { "NAME": "Henry County R-I School District" }, "geometry": { "type": "Point", "coordinates": [ -93.530699952673061, 38.532106634472306 ] } },
{ "type": "Feature", "properties": { "NAME": "Climax Springs R-IV School District" }, "geometry": { "type": "Point", "coordinates": [ -93.007310350677074, 38.127323859454435 ] } },
{ "type": "Feature", "properties": { "NAME": "Cole Camp R-I School District" }, "geometry": { "type": "Point", "coordinates": [ -93.18604167679598, 38.436029181647022 ] } },
{ "type": "Feature", "properties": { "NAME": "Lincoln R-II School District" }, "geometry": { "type": "Point", "coordinates": [ -93.381028831800634, 38.390960724275047 ] } },
{ "type": "Feature", "properties": { "NAME": "Osceola School District" }, "geometry": { "type": "Point", "coordinates": [ -93.631512508213746, 38.037764994233754 ] } },
{ "type": "Feature", "properties": { "NAME": "Morgan County R-I School District" }, "geometry": { "type": "Point", "coordinates": [ -92.897647243438115, 38.543775818468781 ] } },
{ "type": "Feature", "properties": { "NAME": "Morgan County R-I School District" }, "geometry": { "type": "Point", "coordinates": [ -92.976524884711978, 38.390855483631675 ] } },
{ "type": "Feature", "properties": { "NAME": "McDonald County R-I School District" }, "geometry": { "type": "Point", "coordinates": [ -94.072293736677224, 36.749096446890412 ] } },
{ "type": "Feature", "properties": { "NAME": "McDonald County R-I School District" }, "geometry": { "type": "Point", "coordinates": [ -94.355823465503065, 36.612819938918683 ] } },
{ "type": "Feature", "properties": { "NAME": "East Newton County R-VI School District" }, "geometry": { "type": "Point", "coordinates": [ -94.194011957439713, 36.860938394466324 ] } },
{ "type": "Feature", "properties": { "NAME": "Neosho R-V School District" }, "geometry": { "type": "Point", "coordinates": [ -94.409243619578973, 36.833581113150984 ] } },
{ "type": "Feature", "properties": { "NAME": "West Nodaway County R-I School District" }, "geometry": { "type": "Point", "coordinates": [ -95.072839573503629, 40.459529935032002 ] } },
{ "type": "Feature", "properties": { "NAME": "Branson R-IV School District" }, "geometry": { "type": "Point", "coordinates": [ -93.229282075737572, 36.713249511539722 ] } },
{ "type": "Feature", "properties": { "NAME": "Green Ridge R-VIII School District" }, "geometry": { "type": "Point", "coordinates": [ -93.389577124575638, 38.624324834717235 ] } },
{ "type": "Feature", "properties": { "NAME": "Knob Noster R-VIII School District" }, "geometry": { "type": "Point", "coordinates": [ -93.566723395586592, 38.783598383246293 ] } },
{ "type": "Feature", "properties": { "NAME": "Sedalia 200 School District" }, "geometry": { "type": "Point", "coordinates": [ -93.236851885524089, 38.690341327799651 ] } },
{ "type": "Feature", "properties": { "NAME": "Macon County R-IV School District" }, "geometry": { "type": "Point", "coordinates": [ -92.767635982706878, 39.862744472241957 ] } },
{ "type": "Feature", "properties": { "NAME": "Mexico 59 School District" }, "geometry": { "type": "Point", "coordinates": [ -91.876481961115275, 39.209790971280043 ] } },
{ "type": "Feature", "properties": { "NAME": "Sturgeon R-V School District" }, "geometry": { "type": "Point", "coordinates": [ -92.303648603887325, 39.246546679306412 ] } },
{ "type": "Feature", "properties": { "NAME": "St. Louis City School District" }, "geometry": { "type": "Point", "coordinates": [ -90.245097993745404, 38.635846060573733 ] } },
{ "type": "Feature", "properties": { "NAME": "Northwestern R-I School District" }, "geometry": { "type": "Point", "coordinates": [ -93.151657228685394, 39.590619358427787 ] } },
{ "type": "Feature", "properties": { "NAME": "Brunswick R-II School District" }, "geometry": { "type": "Point", "coordinates": [ -93.104542489576971, 39.414892089151138 ] } },
{ "type": "Feature", "properties": { "NAME": "Keytesville R-III School District" }, "geometry": { "type": "Point", "coordinates": [ -92.939122479661094, 39.471033949762997 ] } },
{ "type": "Feature", "properties": { "NAME": "Bevier C-4 School District" }, "geometry": { "type": "Point", "coordinates": [ -92.570345616031048, 39.751892942850908 ] } },
{ "type": "Feature", "properties": { "NAME": "Bucklin R-II School District" }, "geometry": { "type": "Point", "coordinates": [ -92.889784315214882, 39.878569529470546 ] } },
{ "type": "Feature", "properties": { "NAME": "Shelby County R-IV School District" }, "geometry": { "type": "Point", "coordinates": [ -92.107372193133386, 39.702622728299801 ] } },
{ "type": "Feature", "properties": { "NAME": "Seymour R-II School District" }, "geometry": { "type": "Point", "coordinates": [ -92.869045282213037, 37.106617110239021 ] } },
{ "type": "Feature", "properties": { "NAME": "Seymour R-II School District" }, "geometry": { "type": "Point", "coordinates": [ -92.767035632759999, 37.158669491552985 ] } },
{ "type": "Feature", "properties": { "NAME": "Ballard R-II School District" }, "geometry": { "type": "Point", "coordinates": [ -94.138364948479136, 38.354460018543477 ] } },
{ "type": "Feature", "properties": { "NAME": "Butler R-V School District" }, "geometry": { "type": "Point", "coordinates": [ -94.336154513116469, 38.249197171421429 ] } },
{ "type": "Feature", "properties": { "NAME": "Hannibal 60 School District" }, "geometry": { "type": "Point", "coordinates": [ -91.373078985795146, 39.680257756702325 ] } },
{ "type": "Feature", "properties": { "NAME": "Pierce City R-VI School District" }, "geometry": { "type": "Point", "coordinates": [ -94.027240499472626, 36.972850553682463 ] } },
{ "type": "Feature", "properties": { "NAME": "Exeter R-VI School District" }, "geometry": { "type": "Point", "coordinates": [ -93.97761650918919, 36.678726571920244 ] } },
{ "type": "Feature", "properties": { "NAME": "Southwest R-V School District" }, "geometry": { "type": "Point", "coordinates": [ -93.998839913015587, 36.563610587111633 ] } },
{ "type": "Feature", "properties": { "NAME": "Monett R-I School District" }, "geometry": { "type": "Point", "coordinates": [ -93.89546359984395, 36.929419701425019 ] } },
{ "type": "Feature", "properties": { "NAME": "Purdy R-II School District" }, "geometry": { "type": "Point", "coordinates": [ -93.890105419360211, 36.816857185506059 ] } },
{ "type": "Feature", "properties": { "NAME": "Maries County R-I School District" }, "geometry": { "type": "Point", "coordinates": [ -92.18661850123506, 38.29020252139329 ] } },
{ "type": "Feature", "properties": { "NAME": "Maries County R-I School District" }, "geometry": { "type": "Point", "coordinates": [ -91.992102350924426, 38.168976058907305 ] } },
{ "type": "Feature", "properties": { "NAME": "Crocker R-II School District" }, "geometry": { "type": "Point", "coordinates": [ -92.266486621541432, 37.956345846672292 ] } },
{ "type": "Feature", "properties": { "NAME": "Laquey R-V School District" }, "geometry": { "type": "Point", "coordinates": [ -92.311760565140602, 37.754947727184337 ] } },
{ "type": "Feature", "properties": { "NAME": "Canton R-V School District" }, "geometry": { "type": "Point", "coordinates": [ -91.661234360840652, 40.202382308973789 ] } },
{ "type": "Feature", "properties": { "NAME": "Bunker R-III School District" }, "geometry": { "type": "Point", "coordinates": [ -91.220227227529847, 37.430018156858161 ] } },
{ "type": "Feature", "properties": { "NAME": "Salem R-80 School District" }, "geometry": { "type": "Point", "coordinates": [ -91.374488849529115, 37.639538158419434 ] } },
{ "type": "Feature", "properties": { "NAME": "Summersville R-II School District" }, "geometry": { "type": "Point", "coordinates": [ -91.659659949777435, 37.211835393162652 ] } },
{ "type": "Feature", "properties": { "NAME": "Clark County R-I School District" }, "geometry": { "type": "Point", "coordinates": [ -91.734674035963337, 40.414668300459347 ] } },
{ "type": "Feature", "properties": { "NAME": "Palmyra R-I School District" }, "geometry": { "type": "Point", "coordinates": [ -91.540601812427411, 39.818918186817939 ] } },
{ "type": "Feature", "properties": { "NAME": "Grundy County R-V School District" }, "geometry": { "type": "Point", "coordinates": [ -93.38356172930618, 40.145279533154323 ] } },
{ "type": "Feature", "properties": { "NAME": "Putnam County R-I School District" }, "geometry": { "type": "Point", "coordinates": [ -93.012983624002999, 40.480622525798402 ] } },
{ "type": "Feature", "properties": { "NAME": "Milan C-2 School District" }, "geometry": { "type": "Point", "coordinates": [ -93.144563084838239, 40.22106894722981 ] } },
{ "type": "Feature", "properties": { "NAME": "North Harrison R-III School District" }, "geometry": { "type": "Point", "coordinates": [ -94.026952001024355, 40.504924400058314 ] } },
{ "type": "Feature", "properties": { "NAME": "Lathrop R-II School District" }, "geometry": { "type": "Point", "coordinates": [ -94.293033493685485, 39.558195007034712 ] } },
{ "type": "Feature", "properties": { "NAME": "Osborn R-O School District" }, "geometry": { "type": "Point", "coordinates": [ -94.370992277723147, 39.752131907908328 ] } },
{ "type": "Feature", "properties": { "NAME": "Bronaugh R-VII School District" }, "geometry": { "type": "Point", "coordinates": [ -94.485804827378814, 37.714400568632371 ] } },
{ "type": "Feature", "properties": { "NAME": "Liberal R-II School District" }, "geometry": { "type": "Point", "coordinates": [ -94.499321244374912, 37.518947799335777 ] } },
{ "type": "Feature", "properties": { "NAME": "Senath-Hornersville C-8 School District" }, "geometry": { "type": "Point", "coordinates": [ -90.099596866757537, 36.111440613439385 ] } },
{ "type": "Feature", "properties": { "NAME": "Southland C-9 School District" }, "geometry": { "type": "Point", "coordinates": [ -90.273110484937405, 36.043132810946268 ] } },
{ "type": "Feature", "properties": { "NAME": "Clinton School District" }, "geometry": { "type": "Point", "coordinates": [ -93.779077322826566, 38.392692128714216 ] } },
{ "type": "Feature", "properties": { "NAME": "Forsyth R-III School District" }, "geometry": { "type": "Point", "coordinates": [ -93.030757253582195, 36.631151544891559 ] } },
{ "type": "Feature", "properties": { "NAME": "West Plains R-VII School District" }, "geometry": { "type": "Point", "coordinates": [ -91.839720508726685, 36.753798513894267 ] } },
{ "type": "Feature", "properties": { "NAME": "West Plains R-VII School District" }, "geometry": { "type": "Point", "coordinates": [ -92.107623462937909, 36.522242472838506 ] } },
{ "type": "Feature", "properties": { "NAME": "West Plains R-VII School District" }, "geometry": { "type": "Point", "coordinates": [ -92.014001816554483, 36.581575491222878 ] } },
{ "type": "Feature", "properties": { "NAME": "Diamond R-IV School District" }, "geometry": { "type": "Point", "coordinates": [ -94.351141080527526, 37.014634067137465 ] } },
{ "type": "Feature", "properties": { "NAME": "Webb City R-VII School District" }, "geometry": { "type": "Point", "coordinates": [ -94.443845397133728, 37.175103784440914 ] } },
{ "type": "Feature", "properties": { "NAME": "Sarcoxie R-II School District" }, "geometry": { "type": "Point", "coordinates": [ -94.12787416557056, 37.078135240463425 ] } },
{ "type": "Feature", "properties": { "NAME": "Carthage R-IX School District" }, "geometry": { "type": "Point", "coordinates": [ -94.307880823661748, 37.163529589307721 ] } },
{ "type": "Feature", "properties": { "NAME": "Joplin School District" }, "geometry": { "type": "Point", "coordinates": [ -94.503780055465569, 37.063543485397439 ] } },
{ "type": "Feature", "properties": { "NAME": "North Platte County R-I School District" }, "geometry": { "type": "Point", "coordinates": [ -94.728640845134095, 39.484219544580462 ] } },
{ "type": "Feature", "properties": { "NAME": "West Platte County R-II School District" }, "geometry": { "type": "Point", "coordinates": [ -94.909528845839333, 39.430024555294978 ] } },
{ "type": "Feature", "properties": { "NAME": "Lakeland R-III School District" }, "geometry": { "type": "Point", "coordinates": [ -93.705658668412966, 38.183814251263819 ] } },
{ "type": "Feature", "properties": { "NAME": "Warsaw R-IX School District" }, "geometry": { "type": "Point", "coordinates": [ -93.318829431288037, 38.189152355098827 ] } },
{ "type": "Feature", "properties": { "NAME": "Chilhowee R-IV School District" }, "geometry": { "type": "Point", "coordinates": [ -93.845168647617214, 38.614643437475486 ] } },
{ "type": "Feature", "properties": { "NAME": "Blair Oaks R-II School District" }, "geometry": { "type": "Point", "coordinates": [ -92.153162523158755, 38.445708688575401 ] } },
{ "type": "Feature", "properties": { "NAME": "Cole County R-V School District" }, "geometry": { "type": "Point", "coordinates": [ -92.331673532027139, 38.378732306165922 ] } },
{ "type": "Feature", "properties": { "NAME": "Jefferson City Public Schools" }, "geometry": { "type": "Point", "coordinates": [ -92.180013079186779, 38.595017666891671 ] } },
{ "type": "Feature", "properties": { "NAME": "South Callaway County R-II School District" }, "geometry": { "type": "Point", "coordinates": [ -91.827902500635375, 38.747132958671571 ] } },
{ "type": "Feature", "properties": { "NAME": "Montgomery County R-II School District" }, "geometry": { "type": "Point", "coordinates": [ -91.446872946957754, 38.944991922875666 ] } },
{ "type": "Feature", "properties": { "NAME": "Fulton 58 School District" }, "geometry": { "type": "Point", "coordinates": [ -92.009072869753084, 38.860834892553918 ] } },
{ "type": "Feature", "properties": { "NAME": "Logan-Rogersville R-VIII School District" }, "geometry": { "type": "Point", "coordinates": [ -93.081745085649843, 37.128132512201994 ] } },
{ "type": "Feature", "properties": { "NAME": "Republic R-III School District" }, "geometry": { "type": "Point", "coordinates": [ -93.48340769819508, 37.142068397909277 ] } },
{ "type": "Feature", "properties": { "NAME": "Walnut Grove R-V School District" }, "geometry": { "type": "Point", "coordinates": [ -93.545983926194921, 37.404784516790208 ] } },
{ "type": "Feature", "properties": { "NAME": "Marion C. Early R-V School District" }, "geometry": { "type": "Point", "coordinates": [ -93.442569015935788, 37.475053685912698 ] } },
{ "type": "Feature", "properties": { "NAME": "Springfield R-XII School District" }, "geometry": { "type": "Point", "coordinates": [ -93.271946631779784, 37.209134633644162 ] } },
{ "type": "Feature", "properties": { "NAME": "Pleasant Hope R-VI School District" }, "geometry": { "type": "Point", "coordinates": [ -93.278914152014721, 37.459768167402125 ] } },
{ "type": "Feature", "properties": { "NAME": "Boonville R-I School District" }, "geometry": { "type": "Point", "coordinates": [ -92.710559530732638, 38.921090092121361 ] } },
{ "type": "Feature", "properties": { "NAME": "Otterville R-VI School District" }, "geometry": { "type": "Point", "coordinates": [ -92.975899080722314, 38.701672402242309 ] } },
{ "type": "Feature", "properties": { "NAME": "Tipton R-VI School District" }, "geometry": { "type": "Point", "coordinates": [ -92.818621180299743, 38.643140500485522 ] } },
{ "type": "Feature", "properties": { "NAME": "Pilot Grove C-4 School District" }, "geometry": { "type": "Point", "coordinates": [ -92.946812392949496, 38.845610540360219 ] } },
{ "type": "Feature", "properties": { "NAME": "Houston R-I School District" }, "geometry": { "type": "Point", "coordinates": [ -92.021664641939893, 37.304348667552624 ] } },
{ "type": "Feature", "properties": { "NAME": "Mountain Grove R-III School District" }, "geometry": { "type": "Point", "coordinates": [ -92.291514289383173, 37.142928305634122 ] } },
{ "type": "Feature", "properties": { "NAME": "Fayette R-III School District" }, "geometry": { "type": "Point", "coordinates": [ -92.635514352895143, 39.16332868454144 ] } },
{ "type": "Feature", "properties": { "NAME": "Salisbury R-IV School District" }, "geometry": { "type": "Point", "coordinates": [ -92.758223371651198, 39.477945020548752 ] } },
{ "type": "Feature", "properties": { "NAME": "New Franklin R-I School District" }, "geometry": { "type": "Point", "coordinates": [ -92.734832930843595, 39.025512274636554 ] } },
{ "type": "Feature", "properties": { "NAME": "Lawson R-XIV School District" }, "geometry": { "type": "Point", "coordinates": [ -94.157771376078131, 39.4415680739911 ] } },
{ "type": "Feature", "properties": { "NAME": "Platte County R-III School District" }, "geometry": { "type": "Point", "coordinates": [ -94.720009513390323, 39.327048776648041 ] } },
{ "type": "Feature", "properties": { "NAME": "Liberty 53 School District" }, "geometry": { "type": "Point", "coordinates": [ -94.39809893252017, 39.254143634301172 ] } },
{ "type": "Feature", "properties": { "NAME": "Clinton County R-III School District" }, "geometry": { "type": "Point", "coordinates": [ -94.462900616730792, 39.561669840091142 ] } },
{ "type": "Feature", "properties": { "NAME": "North Kansas City 74 School District" }, "geometry": { "type": "Point", "coordinates": [ -94.52809364877649, 39.210229033586849 ] } },
{ "type": "Feature", "properties": { "NAME": "Alton R-IV School District" }, "geometry": { "type": "Point", "coordinates": [ -91.395245830146621, 36.746847984336888 ] } },
{ "type": "Feature", "properties": { "NAME": "Thayer R-II School District" }, "geometry": { "type": "Point", "coordinates": [ -91.466281561833114, 36.599331324147627 ] } },
{ "type": "Feature", "properties": { "NAME": "Thayer R-II School District" }, "geometry": { "type": "Point", "coordinates": [ -91.514306875487009, 36.552498884003867 ] } },
{ "type": "Feature", "properties": { "NAME": "Malden R-I School District" }, "geometry": { "type": "Point", "coordinates": [ -90.01767366106742, 36.577883468533329 ] } },
{ "type": "Feature", "properties": { "NAME": "Delta C-7 School District" }, "geometry": { "type": "Point", "coordinates": [ -89.897064326009954, 36.183329260855473 ] } },
{ "type": "Feature", "properties": { "NAME": "Campbell R-II School District" }, "geometry": { "type": "Point", "coordinates": [ -90.11207798868179, 36.521305613066239 ] } },
{ "type": "Feature", "properties": { "NAME": "Holcomb R-III School District" }, "geometry": { "type": "Point", "coordinates": [ -90.025180645139912, 36.34343577912751 ] } },
{ "type": "Feature", "properties": { "NAME": "Clarkton C-4 School District" }, "geometry": { "type": "Point", "coordinates": [ -89.98720620328136, 36.454782422093771 ] } },
{ "type": "Feature", "properties": { "NAME": "Dadeville R-II School District" }, "geometry": { "type": "Point", "coordinates": [ -93.659010691111831, 37.491636705655061 ] } },
{ "type": "Feature", "properties": { "NAME": "Lockwood R-I School District" }, "geometry": { "type": "Point", "coordinates": [ -93.988873814004805, 37.42317173355007 ] } },
{ "type": "Feature", "properties": { "NAME": "Greenfield R-IV School District" }, "geometry": { "type": "Point", "coordinates": [ -93.759728386106516, 37.292963436280544 ] } },
{ "type": "Feature", "properties": { "NAME": "Greenfield R-IV School District" }, "geometry": { "type": "Point", "coordinates": [ -93.826202668277602, 37.453383639673838 ] } },
{ "type": "Feature", "properties": { "NAME": "Rock Port R-II School District" }, "geometry": { "type": "Point", "coordinates": [ -95.575779717137451, 40.445867121132089 ] } },
{ "type": "Feature", "properties": { "NAME": "Appleton City R-II School District" }, "geometry": { "type": "Point", "coordinates": [ -93.960243123283632, 38.100424705484293 ] } },
{ "type": "Feature", "properties": { "NAME": "Portageville School District" }, "geometry": { "type": "Point", "coordinates": [ -89.66623025908217, 36.43906500666872 ] } },
{ "type": "Feature", "properties": { "NAME": "Sikeston R-VI School District" }, "geometry": { "type": "Point", "coordinates": [ -89.619736758075476, 36.87968963234492 ] } },
{ "type": "Feature", "properties": { "NAME": "Risco R-II School District" }, "geometry": { "type": "Point", "coordinates": [ -89.834892619260003, 36.547233038220561 ] } },
{ "type": "Feature", "properties": { "NAME": "Clever R-V School District" }, "geometry": { "type": "Point", "coordinates": [ -93.443988069669885, 37.014169622321774 ] } },
{ "type": "Feature", "properties": { "NAME": "Fordland R-III School District" }, "geometry": { "type": "Point", "coordinates": [ -92.927618370654983, 37.142635387105557 ] } },
{ "type": "Feature", "properties": { "NAME": "Marionville R-IX School District" }, "geometry": { "type": "Point", "coordinates": [ -93.637378299032903, 37.018701152787308 ] } },
{ "type": "Feature", "properties": { "NAME": "Nixa School District" }, "geometry": { "type": "Point", "coordinates": [ -93.321969554115157, 37.029983834871246 ] } },
{ "type": "Feature", "properties": { "NAME": "Southwest Livingston County R-I School District" }, "geometry": { "type": "Point", "coordinates": [ -93.673013249439265, 39.698856187603248 ] } },
{ "type": "Feature", "properties": { "NAME": "Malta Bend R-V School District" }, "geometry": { "type": "Point", "coordinates": [ -93.331631609493741, 39.18078703845876 ] } },
{ "type": "Feature", "properties": { "NAME": "Marshall School District" }, "geometry": { "type": "Point", "coordinates": [ -93.171375923900968, 39.052222747172308 ] } },
{ "type": "Feature", "properties": { "NAME": "Harrisburg R-VIII School District" }, "geometry": { "type": "Point", "coordinates": [ -92.426771678571654, 39.137527418106671 ] } },
{ "type": "Feature", "properties": { "NAME": "Cabool R-IV School District" }, "geometry": { "type": "Point", "coordinates": [ -92.246966795342374, 37.028067183446304 ] } },
{ "type": "Feature", "properties": { "NAME": "Cabool R-IV School District" }, "geometry": { "type": "Point", "coordinates": [ -92.089317350398176, 37.111531757622345 ] } },
{ "type": "Feature", "properties": { "NAME": "Willow Springs R-IV School District" }, "geometry": { "type": "Point", "coordinates": [ -91.764582705302843, 36.902840051437799 ] } },
{ "type": "Feature", "properties": { "NAME": "Willow Springs R-IV School District" }, "geometry": { "type": "Point", "coordinates": [ -92.136791687626612, 36.799097060636377 ] } },
{ "type": "Feature", "properties": { "NAME": "Willow Springs R-IV School District" }, "geometry": { "type": "Point", "coordinates": [ -92.173903924865456, 36.924382077823395 ] } },
{ "type": "Feature", "properties": { "NAME": "Willow Springs R-IV School District" }, "geometry": { "type": "Point", "coordinates": [ -91.978579870327067, 36.963313246904754 ] } },
{ "type": "Feature", "properties": { "NAME": "Licking R-VIII School District" }, "geometry": { "type": "Point", "coordinates": [ -91.880776559935299, 37.515533702013549 ] } },
{ "type": "Feature", "properties": { "NAME": "Newburg R-II School District" }, "geometry": { "type": "Point", "coordinates": [ -91.941829813090678, 37.889726575825271 ] } },
{ "type": "Feature", "properties": { "NAME": "Green City R-I School District" }, "geometry": { "type": "Point", "coordinates": [ -92.939091672558803, 40.219496833179811 ] } }
]
}
