{
"type": "FeatureCollection",
"name": "high_centroids",
"crs": { "type": "name", "properties": { "name": "urn:ogc:def:crs:OGC:1.3:CRS84" } },
"features": [
{ "type": "Feature", "properties": { "NAME": "DAMONTE RANCH" }, "geometry": { "type": "Point", "coordinates": [ -119.758015796908325, 39.326866207510747 ] } },
{ "type": "Feature", "properties": { "NAME": "WOOSTER" }, "geometry": { "type": "Point", "coordinates": [ -119.745324736871325, 39.499098035450906 ] } },
{ "type": "Feature", "properties": { "NAME": "HUG" }, "geometry": { "type": "Point", "coordinates": [ -119.794980809808933, 39.565303466952507 ] } },
{ "type": "Feature", "properties": { "NAME": "RENO" }, "geometry": { "type": "Point", "coordinates": [ -119.915865114821386, 39.455924991438486 ] } },
{ "type": "Feature", "properties": { "NAME": "SPANISH SPRINGS" }, "geometry": { "type": "Point", "coordinates": [ -119.639320269790034, 39.772836208494603 ] } },
{ "type": "Feature", "properties": { "NAME": "MCQUEEN" }, "geometry": { "type": "Point", "coordinates": [ -119.929840569774484, 39.540479783386424 ] } },
{ "type": "Feature", "properties": { "NAME": "NORTH VALLEYS" }, "geometry": { "type": "Point", "coordinates": [ -119.883547570297466, 39.746569447618207 ] } },
{ "type": "Feature", "properties": { "NAME": "GALENA" }, "geometry": { "type": "Point", "coordinates": [ -119.86127229300925, 39.383820922183347 ] } }
]
}
