{
"type": "FeatureCollection",
"name": "neighborhoods_centroids",
"crs": { "type": "name", "properties": { "name": "urn:ogc:def:crs:OGC:1.3:CRS84" } },
"features": [
{ "type": "Feature", "properties": { "NAME": "THE VILLAGES 2" }, "geometry": { "type": "Point", "coordinates": [ -119.753549487645401, 39.474313641849129 ] } },
{ "type": "Feature", "properties": { "NAME": "THE GREENS AT TOWNCENTER" }, "geometry": { "type": "Point", "coordinates": [ -119.913878302999493, 39.532426380072458 ] } },
{ "type": "Feature", "properties": { "NAME": "REINMILLER" }, "geometry": { "type": "Point", "coordinates": [ -119.816140311564126, 39.51368433534256 ] } },
{ "type": "Feature", "properties": { "NAME": "HIDDEN CANYON 2" }, "geometry": { "type": "Point", "coordinates": [ -119.722340391758706, 39.478929771462077 ] } },
{ "type": "Feature", "properties": { "NAME": "PLUMM" }, "geometry": { "type": "Point", "coordinates": [ -119.816630487352512, 39.517451347127412 ] } },
{ "type": "Feature", "properties": { "NAME": "SKYLINE VILLA TOWNHOUSES" }, "geometry": { "type": "Point", "coordinates": [ -119.838679878585708, 39.481659034745476 ] } },
{ "type": "Feature", "properties": { "NAME": "MANZANITA WEST 11" }, "geometry": { "type": "Point", "coordinates": [ -119.837944341683993, 39.474916619685338 ] } },
{ "type": "Feature", "properties": { "NAME": "TRUCKEE RIVER HIGHLANDS" }, "geometry": { "type": "Point", "coordinates": [ -119.88949212671163, 39.510624934566472 ] } },
{ "type": "Feature", "properties": { "NAME": "PARK TOWERS" }, "geometry": { "type": "Point", "coordinates": [ -119.81572524664729, 39.523470913665243 ] } },
{ "type": "Feature", "properties": { "NAME": "SIERRA HIGHLANDS 12B" }, "geometry": { "type": "Point", "coordinates": [ -119.865532582750845, 39.526953376070658 ] } },
{ "type": "Feature", "properties": { "NAME": "SILVER DOLLAR ESTATES AREA 1 PHASE 2" }, "geometry": { "type": "Point", "coordinates": [ -119.871274342671626, 39.62097187029071 ] } },
{ "type": "Feature", "properties": { "NAME": "SKY VISTA VILLAGE 10B PHASE 1" }, "geometry": { "type": "Point", "coordinates": [ -119.876677114615873, 39.630320817429222 ] } },
{ "type": "Feature", "properties": { "NAME": "SUN ACRES 1" }, "geometry": { "type": "Point", "coordinates": [ -119.779308944453987, 39.488600124888926 ] } },
{ "type": "Feature", "properties": { "NAME": "PARK TERRACE 2" }, "geometry": { "type": "Point", "coordinates": [ -119.7949126675598, 39.537733332340203 ] } },
{ "type": "Feature", "properties": { "NAME": "GOLDEN MEADOWS 2" }, "geometry": { "type": "Point", "coordinates": [ -119.832501003023623, 39.604769651001497 ] } },
{ "type": "Feature", "properties": { "NAME": "WINTERCREEK 1" }, "geometry": { "type": "Point", "coordinates": [ -119.938777238823633, 39.532179435332559 ] } },
{ "type": "Feature", "properties": { "NAME": "RULISON SURVEY" }, "geometry": { "type": "Point", "coordinates": [ -119.822701755299832, 39.530414041792277 ] } },
{ "type": "Feature", "properties": { "NAME": "DAMONTE RANCH VILLAGE 10A" }, "geometry": { "type": "Point", "coordinates": [ -119.713256306390463, 39.437739762566054 ] } },
{ "type": "Feature", "properties": { "NAME": "NIXON FARM" }, "geometry": { "type": "Point", "coordinates": [ -119.79969834565108, 39.493960375401471 ] } },
{ "type": "Feature", "properties": { "NAME": "COUNTRY ESTATES 3" }, "geometry": { "type": "Point", "coordinates": [ -119.785126393983532, 39.458507546600728 ] } },
{ "type": "Feature", "properties": { "NAME": "PALISADES PHASE 3" }, "geometry": { "type": "Point", "coordinates": [ -119.702815794554638, 39.428762712172293 ] } },
{ "type": "Feature", "properties": { "NAME": "NANCY HEIGHTS 3" }, "geometry": { "type": "Point", "coordinates": [ -119.852548326493576, 39.527462198830165 ] } },
{ "type": "Feature", "properties": { "NAME": "HERITAGE ON THE GREEN 2" }, "geometry": { "type": "Point", "coordinates": [ -119.854127727303961, 39.480069426852417 ] } },
{ "type": "Feature", "properties": { "NAME": "CARAMELLA RANCH ESTATES REGENCY VILLAGE UNIT 3" }, "geometry": { "type": "Point", "coordinates": [ -119.719874144789387, 39.412363183879357 ] } },
{ "type": "Feature", "properties": { "NAME": "NORTHRIDGE HEIGHTS 8" }, "geometry": { "type": "Point", "coordinates": [ -119.8441016682644, 39.528839320894924 ] } },
{ "type": "Feature", "properties": { "NAME": "NORTHRIDGE UNIT 3" }, "geometry": { "type": "Point", "coordinates": [ -119.814303699890431, 39.599454125163312 ] } },
{ "type": "Feature", "properties": { "NAME": "MAYBERRY ESTATES 2" }, "geometry": { "type": "Point", "coordinates": [ -119.84279798649257, 39.50850548837618 ] } },
{ "type": "Feature", "properties": { "NAME": "DONNER SPRINGS" }, "geometry": { "type": "Point", "coordinates": [ -119.759862841399709, 39.479084597078881 ] } },
{ "type": "Feature", "properties": { "NAME": "BROOKSIDE LAKES 1C" }, "geometry": { "type": "Point", "coordinates": [ -119.731529867816263, 39.486876009093699 ] } },
{ "type": "Feature", "properties": { "NAME": "SILVERADO RANCH ESTATES 8" }, "geometry": { "type": "Point", "coordinates": [ -119.887326008388186, 39.54796211860981 ] } },
{ "type": "Feature", "properties": { "NAME": "RANCHO SAN RAFAEL TOWNHOMES" }, "geometry": { "type": "Point", "coordinates": [ -119.829584521916033, 39.566069862068815 ] } },
{ "type": "Feature", "properties": { "NAME": "EVANS CREEK ESTATES 7" }, "geometry": { "type": "Point", "coordinates": [ -119.824269711645556, 39.462520554789961 ] } },
{ "type": "Feature", "properties": { "NAME": "GURR ESTATES 1" }, "geometry": { "type": "Point", "coordinates": [ -119.836698222718212, 39.506748533141021 ] } },
{ "type": "Feature", "properties": { "NAME": "PARKVIEW CREST 1" }, "geometry": { "type": "Point", "coordinates": [ -119.780942772835857, 39.490776624471344 ] } },
{ "type": "Feature", "properties": { "NAME": "MANZANITA WEST 10" }, "geometry": { "type": "Point", "coordinates": [ -119.839473818091648, 39.476166521131312 ] } },
{ "type": "Feature", "properties": { "NAME": "DOUBLE DIAMOND RANCH VILLAGE 7" }, "geometry": { "type": "Point", "coordinates": [ -119.739357472297357, 39.433771871048087 ] } },
{ "type": "Feature", "properties": { "NAME": "SOUTHWEST TERRACE 1" }, "geometry": { "type": "Point", "coordinates": [ -119.838709122584589, 39.489140056289344 ] } },
{ "type": "Feature", "properties": { "NAME": "UNIT 4A @ SOMERSETT" }, "geometry": { "type": "Point", "coordinates": [ -119.930860375221016, 39.541523439074879 ] } },
{ "type": "Feature", "properties": { "NAME": "CAPURRO" }, "geometry": { "type": "Point", "coordinates": [ -119.832045443319387, 39.536165605866621 ] } },
{ "type": "Feature", "properties": { "NAME": "HEMPSTEAD GARDENS" }, "geometry": { "type": "Point", "coordinates": [ -119.790303881777547, 39.516254560299878 ] } },
{ "type": "Feature", "properties": { "NAME": "CAUGHLIN CREEK 7" }, "geometry": { "type": "Point", "coordinates": [ -119.861192730668293, 39.496461248836034 ] } },
{ "type": "Feature", "properties": { "NAME": "SUNCREST 2A" }, "geometry": { "type": "Point", "coordinates": [ -119.878569353056605, 39.525842319925744 ] } },
{ "type": "Feature", "properties": { "NAME": "BELLA VISTA RANCH VILLAGE D UNIT 1" }, "geometry": { "type": "Point", "coordinates": [ -119.725326252805971, 39.443584217382949 ] } },
{ "type": "Feature", "properties": { "NAME": "FERRIS" }, "geometry": { "type": "Point", "coordinates": [ -119.838341514193246, 39.510776026658142 ] } },
{ "type": "Feature", "properties": { "NAME": "MCCORMICK ADDITION" }, "geometry": { "type": "Point", "coordinates": [ -119.805877151813618, 39.514488504497379 ] } },
{ "type": "Feature", "properties": { "NAME": "SAGEHEN HILL 2 PHASE 2" }, "geometry": { "type": "Point", "coordinates": [ -119.812066043737033, 39.590318652754341 ] } },
{ "type": "Feature", "properties": { "NAME": "SOMERSETT VILLAGE 1A-1" }, "geometry": { "type": "Point", "coordinates": [ -119.915147492657951, 39.526188367725247 ] } },
{ "type": "Feature", "properties": { "NAME": "NORTHGATE 5C" }, "geometry": { "type": "Point", "coordinates": [ -119.891378348480629, 39.536704145282847 ] } },
{ "type": "Feature", "properties": { "NAME": "MOGUL MEADOWS 1" }, "geometry": { "type": "Point", "coordinates": [ -119.922888108125505, 39.519445618888447 ] } },
{ "type": "Feature", "properties": { "NAME": "MAYBERRY PLACE" }, "geometry": { "type": "Point", "coordinates": [ -119.847272385230525, 39.507419785155506 ] } },
{ "type": "Feature", "properties": { "NAME": "SIERRA CANYON VILLAGE 15B" }, "geometry": { "type": "Point", "coordinates": [ -119.941492019308768, 39.512524405137064 ] } },
{ "type": "Feature", "properties": { "NAME": "UNIVERSITY RIDGE 7 & 9" }, "geometry": { "type": "Point", "coordinates": [ -119.810242281454478, 39.562321309964311 ] } },
{ "type": "Feature", "properties": { "NAME": "SOMERSETT TOWN CENTER RESIDENTIAL PHASE 2" }, "geometry": { "type": "Point", "coordinates": [ -119.911645656273492, 39.530447230557762 ] } },
{ "type": "Feature", "properties": { "NAME": "SUNNYSIDE ADDITION" }, "geometry": { "type": "Point", "coordinates": [ -119.829231368840581, 39.531340413147078 ] } },
{ "type": "Feature", "properties": { "NAME": "ROYAL HEIGHTS 1" }, "geometry": { "type": "Point", "coordinates": [ -119.836849323533727, 39.535222354904214 ] } },
{ "type": "Feature", "properties": { "NAME": "REGENCY PARK PHASE 1A" }, "geometry": { "type": "Point", "coordinates": [ -119.869956367694144, 39.648124835278857 ] } },
{ "type": "Feature", "properties": { "NAME": "TOWN OF RENO" }, "geometry": { "type": "Point", "coordinates": [ -119.813238527273938, 39.52704655937972 ] } },
{ "type": "Feature", "properties": { "NAME": "FLAGG" }, "geometry": { "type": "Point", "coordinates": [ -119.827129991778477, 39.506325223888545 ] } },
{ "type": "Feature", "properties": { "NAME": "CURTI RANCH 2 UNIT 7" }, "geometry": { "type": "Point", "coordinates": [ -119.729704840717289, 39.406043652724506 ] } },
{ "type": "Feature", "properties": { "NAME": "HUFFAKER HILLS 2" }, "geometry": { "type": "Point", "coordinates": [ -119.769704775295352, 39.459833726436358 ] } },
{ "type": "Feature", "properties": { "NAME": "MCCARRAN KNOLLS CONDOMINIUMS" }, "geometry": { "type": "Point", "coordinates": [ -119.795630890725775, 39.557469833894828 ] } },
{ "type": "Feature", "properties": { "NAME": "CARAMELLA RANCH ESTATES VILLAGE" }, "geometry": { "type": "Point", "coordinates": [ -119.719776801880698, 39.405977098783453 ] } },
{ "type": "Feature", "properties": { "NAME": "MORRILL-SMITH ADDITION" }, "geometry": { "type": "Point", "coordinates": [ -119.798717190197451, 39.532546500842074 ] } },
{ "type": "Feature", "properties": { "NAME": "SMITHRIDGE GREEN 2" }, "geometry": { "type": "Point", "coordinates": [ -119.780206724421987, 39.477820387915799 ] } },
{ "type": "Feature", "properties": { "NAME": "OTTERAAEN ESTATES" }, "geometry": { "type": "Point", "coordinates": [ -119.779934356772358, 39.5549956826775 ] } },
{ "type": "Feature", "properties": { "NAME": "SKY VISTA VILLAGE 11A" }, "geometry": { "type": "Point", "coordinates": [ -119.874340430238348, 39.624540075099482 ] } },
{ "type": "Feature", "properties": { "NAME": "DOUBLE DIAMOND RANCH VILLAGE 12C" }, "geometry": { "type": "Point", "coordinates": [ -119.742628965358051, 39.437913986885228 ] } },
{ "type": "Feature", "properties": { "NAME": "QUAIL CROSSING" }, "geometry": { "type": "Point", "coordinates": [ -119.817915187438174, 39.502619034118013 ] } },
{ "type": "Feature", "properties": { "NAME": "ROBERT`S 5" }, "geometry": { "type": "Point", "coordinates": [ -119.80265410842614, 39.479697591356903 ] } },
{ "type": "Feature", "properties": { "NAME": "MANZANITA WEST 6" }, "geometry": { "type": "Point", "coordinates": [ -119.833299477874874, 39.477199841227133 ] } },
{ "type": "Feature", "properties": { "NAME": "CONNOLLY 2" }, "geometry": { "type": "Point", "coordinates": [ -119.840537707907529, 39.510160723733428 ] } },
{ "type": "Feature", "properties": { "NAME": "SPOKANE STREET LOFT TOWNHOMES" }, "geometry": { "type": "Point", "coordinates": [ -119.801009952423399, 39.533722732956214 ] } },
{ "type": "Feature", "properties": { "NAME": "4F @ SOMERSETT" }, "geometry": { "type": "Point", "coordinates": [ -119.941320014263511, 39.537071417453468 ] } },
{ "type": "Feature", "properties": { "NAME": "AMPHITHEATER 6" }, "geometry": { "type": "Point", "coordinates": [ -119.830593876799597, 39.541326353599509 ] } },
{ "type": "Feature", "properties": { "NAME": "SILVER SHORES 24" }, "geometry": { "type": "Point", "coordinates": [ -119.914449504088353, 39.629352385117748 ] } },
{ "type": "Feature", "properties": { "NAME": "DAMONTE RANCH VILLAGE 11B" }, "geometry": { "type": "Point", "coordinates": [ -119.715201075838593, 39.435570536883837 ] } },
{ "type": "Feature", "properties": { "NAME": "INTERLAKEN PARK" }, "geometry": { "type": "Point", "coordinates": [ -119.820246855585253, 39.506599426455367 ] } },
{ "type": "Feature", "properties": { "NAME": "SKY VISTA VILLAGE 6B" }, "geometry": { "type": "Point", "coordinates": [ -119.871042079834652, 39.628894260195757 ] } },
{ "type": "Feature", "properties": { "NAME": "SOUTH VIRGINIA ROAD" }, "geometry": { "type": "Point", "coordinates": [ -119.782825735123524, 39.464911282336033 ] } },
{ "type": "Feature", "properties": { "NAME": "DOUBLE DIAMOND RANCH VILLAGE 1C" }, "geometry": { "type": "Point", "coordinates": [ -119.744075323571295, 39.443522176531062 ] } },
{ "type": "Feature", "properties": { "NAME": "BELVEDERE" }, "geometry": { "type": "Point", "coordinates": [ -119.801389999935381, 39.485518683534579 ] } },
{ "type": "Feature", "properties": { "NAME": "BONDE FARMS" }, "geometry": { "type": "Point", "coordinates": [ -119.792985139119892, 39.465251466334081 ] } },
{ "type": "Feature", "properties": { "NAME": "RANCHO SAN RAFAEL TOWNHOMES PHASE 3" }, "geometry": { "type": "Point", "coordinates": [ -119.829670639602782, 39.569752206290566 ] } },
{ "type": "Feature", "properties": { "NAME": "RECTOR TRACT" }, "geometry": { "type": "Point", "coordinates": [ -119.79760282552094, 39.520453726602149 ] } },
{ "type": "Feature", "properties": { "NAME": "TOWN & COUNTY VILLAGE 1" }, "geometry": { "type": "Point", "coordinates": [ -119.833874152176861, 39.534829192949786 ] } },
{ "type": "Feature", "properties": { "NAME": "ESPLANADE AT DAMONTE RANCH VILLAGE 24C UNIT 2" }, "geometry": { "type": "Point", "coordinates": [ -119.727740502505739, 39.424190307750486 ] } },
{ "type": "Feature", "properties": { "NAME": "EDGEWATER 1" }, "geometry": { "type": "Point", "coordinates": [ -119.862017329885404, 39.509618736215501 ] } },
{ "type": "Feature", "properties": { "NAME": "DONNER CREEK VILLAGE" }, "geometry": { "type": "Point", "coordinates": [ -119.748796028227332, 39.474418240595774 ] } },
{ "type": "Feature", "properties": { "NAME": "RIVERVIEW SURVEY" }, "geometry": { "type": "Point", "coordinates": [ -119.812807566168686, 39.524133268508812 ] } },
{ "type": "Feature", "properties": { "NAME": "ROSEWOOD LAKES 1" }, "geometry": { "type": "Point", "coordinates": [ -119.740347626282883, 39.487979287269951 ] } },
{ "type": "Feature", "properties": { "NAME": "SBE @ SOMERSETT" }, "geometry": { "type": "Point", "coordinates": [ -119.940499296344058, 39.525083108051483 ] } },
{ "type": "Feature", "properties": { "NAME": "PALISADES SOUTH CONDOMINIUMS" }, "geometry": { "type": "Point", "coordinates": [ -119.747991362346653, 39.442878853780748 ] } },
{ "type": "Feature", "properties": { "NAME": "NORTHRIDGE HEIGHTS 5" }, "geometry": { "type": "Point", "coordinates": [ -119.844168359831727, 39.529520345874474 ] } },
{ "type": "Feature", "properties": { "NAME": "DAMONTE RANCH VILLAGE 6-2" }, "geometry": { "type": "Point", "coordinates": [ -119.72726510448642, 39.435545735532727 ] } },
{ "type": "Feature", "properties": { "NAME": "SIERRA HIGHLANDS 10" }, "geometry": { "type": "Point", "coordinates": [ -119.874718953997117, 39.524691999278922 ] } },
{ "type": "Feature", "properties": { "NAME": "KING`S VIEW ESTATES 2" }, "geometry": { "type": "Point", "coordinates": [ -119.860546631791365, 39.546770797538379 ] } },
{ "type": "Feature", "properties": { "NAME": "HATCH'S SOUTHEASTERN ADDITION" }, "geometry": { "type": "Point", "coordinates": [ -119.79880119538457, 39.525145654571219 ] } },
{ "type": "Feature", "properties": { "NAME": "LAKEWOOD ESTATES" }, "geometry": { "type": "Point", "coordinates": [ -119.808817299803096, 39.483052425703306 ] } },
{ "type": "Feature", "properties": { "NAME": "SILVER SHORES 16" }, "geometry": { "type": "Point", "coordinates": [ -119.911560487311803, 39.632082923896419 ] } },
{ "type": "Feature", "properties": { "NAME": "LAKE RIDGE SHORES 3" }, "geometry": { "type": "Point", "coordinates": [ -119.825467484164065, 39.472757972253476 ] } },
{ "type": "Feature", "properties": { "NAME": "SILVER DOLLAR ESTATES AREA 3 PHASE 3" }, "geometry": { "type": "Point", "coordinates": [ -119.865859625110033, 39.617990505746135 ] } },
{ "type": "Feature", "properties": { "NAME": "RANCHARRAH VILLAGE 5" }, "geometry": { "type": "Point", "coordinates": [ -119.798681040123753, 39.469856215803709 ] } },
{ "type": "Feature", "properties": { "NAME": "CAMDEN 2" }, "geometry": { "type": "Point", "coordinates": [ -119.803441971626256, 39.501905187944836 ] } },
{ "type": "Feature", "properties": { "NAME": "TRADITIONS AT CAUGHLIN RANCH 3" }, "geometry": { "type": "Point", "coordinates": [ -119.861331124580488, 39.480529601735988 ] } },
{ "type": "Feature", "properties": { "NAME": "CIMARRON 1" }, "geometry": { "type": "Point", "coordinates": [ -119.84128476656673, 39.545824190254855 ] } },
{ "type": "Feature", "properties": { "NAME": "VILLAGES AT DAMONTE RANCH 16B" }, "geometry": { "type": "Point", "coordinates": [ -119.722699400562433, 39.418934498930668 ] } },
{ "type": "Feature", "properties": { "NAME": "CAUGHLIN COTTAGES 2" }, "geometry": { "type": "Point", "coordinates": [ -119.860814071445532, 39.499027978498518 ] } },
{ "type": "Feature", "properties": { "NAME": "EASTRIDGE 1" }, "geometry": { "type": "Point", "coordinates": [ -119.846754267656593, 39.481904796051445 ] } },
{ "type": "Feature", "properties": { "NAME": "CAUGHLIN CREST" }, "geometry": { "type": "Point", "coordinates": [ -119.850629350715408, 39.486461507244741 ] } },
{ "type": "Feature", "properties": { "NAME": "HOLCOMB BY DESERT WIND" }, "geometry": { "type": "Point", "coordinates": [ -119.775272233578093, 39.442867743700859 ] } },
{ "type": "Feature", "properties": { "NAME": "SKY VISTA VILLAGE 1A" }, "geometry": { "type": "Point", "coordinates": [ -119.866744759485215, 39.638316455012223 ] } },
{ "type": "Feature", "properties": { "NAME": "UNIVERSITY RIDGE 8" }, "geometry": { "type": "Point", "coordinates": [ -119.809452716636997, 39.556016082011297 ] } },
{ "type": "Feature", "properties": { "NAME": "BLUE HERON PARK 1" }, "geometry": { "type": "Point", "coordinates": [ -119.958265389008545, 39.508805093605808 ] } },
{ "type": "Feature", "properties": { "NAME": "AITKEN ADDITION" }, "geometry": { "type": "Point", "coordinates": [ -119.800211389306313, 39.525713529610321 ] } },
{ "type": "Feature", "properties": { "NAME": "NORTHGATE 17C" }, "geometry": { "type": "Point", "coordinates": [ -119.89784733816883, 39.541255576601863 ] } },
{ "type": "Feature", "properties": { "NAME": "COUNTRY ESTATES 4" }, "geometry": { "type": "Point", "coordinates": [ -119.784684226362572, 39.457336294230799 ] } },
{ "type": "Feature", "properties": { "NAME": "WEST MEADOWS ESTATES PHASE I UNIT 2" }, "geometry": { "type": "Point", "coordinates": [ -119.964577243268451, 39.524322176840307 ] } },
{ "type": "Feature", "properties": { "NAME": "GRAND VIEW" }, "geometry": { "type": "Point", "coordinates": [ -119.867457676823335, 39.524864684623232 ] } },
{ "type": "Feature", "properties": { "NAME": "SILVER CREEK ATTACHED HOMES" }, "geometry": { "type": "Point", "coordinates": [ -119.896074741048679, 39.51728564031184 ] } },
{ "type": "Feature", "properties": { "NAME": "REWANA 3" }, "geometry": { "type": "Point", "coordinates": [ -119.774070156158288, 39.487586760148133 ] } },
{ "type": "Feature", "properties": { "NAME": "TANAMERA PHASE 1" }, "geometry": { "type": "Point", "coordinates": [ -119.75309719280537, 39.437318306364965 ] } },
{ "type": "Feature", "properties": { "NAME": "CURTI RANCH 2 UNIT 3" }, "geometry": { "type": "Point", "coordinates": [ -119.734159858359703, 39.400065336125401 ] } },
{ "type": "Feature", "properties": { "NAME": "SPYGLASS ESTATES 1 PHASE 1" }, "geometry": { "type": "Point", "coordinates": [ -119.836377276714416, 39.493897327448963 ] } },
{ "type": "Feature", "properties": { "NAME": "ELMCREST HEIGHTS 2A" }, "geometry": { "type": "Point", "coordinates": [ -119.838203505367588, 39.531142100392458 ] } },
{ "type": "Feature", "properties": { "NAME": "GOLDEN VALLEY ESTATES 1" }, "geometry": { "type": "Point", "coordinates": [ -119.815537310518891, 39.605013280920019 ] } },
{ "type": "Feature", "properties": { "NAME": "DOUBLE DIAMOND RANCH VILLAGE 27B" }, "geometry": { "type": "Point", "coordinates": [ -119.734663851627275, 39.442274960472531 ] } },
{ "type": "Feature", "properties": { "NAME": "OVERLOOK 1" }, "geometry": { "type": "Point", "coordinates": [ -119.887817086017577, 39.539279455250465 ] } },
{ "type": "Feature", "properties": { "NAME": "NORTHGATE 1B" }, "geometry": { "type": "Point", "coordinates": [ -119.889745255828174, 39.526403503212705 ] } },
{ "type": "Feature", "properties": { "NAME": "SPRING MEADOWS" }, "geometry": { "type": "Point", "coordinates": [ -119.837691994808125, 39.503214662581016 ] } },
{ "type": "Feature", "properties": { "NAME": "SOUTHWEST PROFESSIONAL CENTER" }, "geometry": { "type": "Point", "coordinates": [ -119.811434996368078, 39.506241898291385 ] } },
{ "type": "Feature", "properties": { "NAME": "RALEIGH HEIGHTS 1" }, "geometry": { "type": "Point", "coordinates": [ -119.83857421328851, 39.590298066708222 ] } },
{ "type": "Feature", "properties": { "NAME": "ROCK HILL 1" }, "geometry": { "type": "Point", "coordinates": [ -119.820020032921889, 39.476536872272945 ] } },
{ "type": "Feature", "properties": { "NAME": "WILD STALLION ESTATES #4A" }, "geometry": { "type": "Point", "coordinates": [ -119.843695125716664, 39.611216802344941 ] } },
{ "type": "Feature", "properties": { "NAME": "WILD STALLION ESTATES #4A" }, "geometry": { "type": "Point", "coordinates": [ -119.843726902066578, 39.611223618772605 ] } },
{ "type": "Feature", "properties": { "NAME": "WILD STALLION ESTATES #4A" }, "geometry": { "type": "Point", "coordinates": [ -119.843782882854043, 39.611232641484683 ] } },
{ "type": "Feature", "properties": { "NAME": "WILD STALLION ESTATES #4A" }, "geometry": { "type": "Point", "coordinates": [ -119.843816696161099, 39.611237576037894 ] } },
{ "type": "Feature", "properties": { "NAME": "WILD STALLION ESTATES #4A" }, "geometry": { "type": "Point", "coordinates": [ -119.843873425254685, 39.611243376670672 ] } },
{ "type": "Feature", "properties": { "NAME": "PLUMB POINT" }, "geometry": { "type": "Point", "coordinates": [ -119.845854179750447, 39.505432292999409 ] } },
{ "type": "Feature", "properties": { "NAME": "CAUGHLIN CREEK 2A" }, "geometry": { "type": "Point", "coordinates": [ -119.86536067351463, 39.494080193882986 ] } },
{ "type": "Feature", "properties": { "NAME": "EAST RENO HEIGHTS" }, "geometry": { "type": "Point", "coordinates": [ -119.780398026030127, 39.53548097248126 ] } },
{ "type": "Feature", "properties": { "NAME": "SAGECREST ESTATES" }, "geometry": { "type": "Point", "coordinates": [ -119.849275959741547, 39.545540752232668 ] } },
{ "type": "Feature", "properties": { "NAME": "CASTLE RIDGE 7" }, "geometry": { "type": "Point", "coordinates": [ -119.855381353101151, 39.47789247101619 ] } },
{ "type": "Feature", "properties": { "NAME": "MEADOW VIEW TERRACE 7" }, "geometry": { "type": "Point", "coordinates": [ -119.785855849401003, 39.558938553587311 ] } },
{ "type": "Feature", "properties": { "NAME": "CARTLIDGE ADDITION" }, "geometry": { "type": "Point", "coordinates": [ -119.833899382902231, 39.508104867112905 ] } },
{ "type": "Feature", "properties": { "NAME": "NORTHRIDGE HEIGHTS 3" }, "geometry": { "type": "Point", "coordinates": [ -119.840515194259709, 39.529692934277499 ] } },
{ "type": "Feature", "properties": { "NAME": "WILD STALLION ESTATES PHASE 7" }, "geometry": { "type": "Point", "coordinates": [ -119.838964458172271, 39.613462246191929 ] } },
{ "type": "Feature", "properties": { "NAME": "RIVERSIDE HEIGHTS 3" }, "geometry": { "type": "Point", "coordinates": [ -119.817211274800272, 39.521589411027144 ] } },
{ "type": "Feature", "properties": { "NAME": "THE MAYBERRY LOFTS" }, "geometry": { "type": "Point", "coordinates": [ -119.85958596372916, 39.507077761446766 ] } },
{ "type": "Feature", "properties": { "NAME": "SILVERADO RANCH ESTATES 2 PHASE 1" }, "geometry": { "type": "Point", "coordinates": [ -119.87074922304771, 39.54170945344358 ] } },
{ "type": "Feature", "properties": { "NAME": "SILVERADA 4" }, "geometry": { "type": "Point", "coordinates": [ -119.783420587476485, 39.53868006298088 ] } },
{ "type": "Feature", "properties": { "NAME": "SKY VISTA VILLAGE 1B" }, "geometry": { "type": "Point", "coordinates": [ -119.865026330072652, 39.641806285257758 ] } },
{ "type": "Feature", "properties": { "NAME": "NORTHRIDGE HEIGHTS 2" }, "geometry": { "type": "Point", "coordinates": [ -119.837854569414716, 39.529820131657949 ] } },
{ "type": "Feature", "properties": { "NAME": "RENO HIGHLAND 3" }, "geometry": { "type": "Point", "coordinates": [ -119.841311979559848, 39.547788531054387 ] } },
{ "type": "Feature", "properties": { "NAME": "REGENCY PARK PHASE 1B" }, "geometry": { "type": "Point", "coordinates": [ -119.87458481817265, 39.648791105512942 ] } },
{ "type": "Feature", "properties": { "NAME": "STEAMBOAT SPRINGS ESTATES 1" }, "geometry": { "type": "Point", "coordinates": [ -119.737284221997569, 39.388207963233903 ] } },
{ "type": "Feature", "properties": { "NAME": "UNITY" }, "geometry": { "type": "Point", "coordinates": [ -119.84435378290857, 39.538295291309538 ] } },
{ "type": "Feature", "properties": { "NAME": "ROLLING HILLS RANCHOS 4" }, "geometry": { "type": "Point", "coordinates": [ -119.809722224080517, 39.586397993489499 ] } },
{ "type": "Feature", "properties": { "NAME": "SILVERADO RANCH ESTATES 3 PHASE 2" }, "geometry": { "type": "Point", "coordinates": [ -119.878286666725245, 39.545994434267719 ] } },
{ "type": "Feature", "properties": { "NAME": "SILVER SHORES 10" }, "geometry": { "type": "Point", "coordinates": [ -119.907908597209115, 39.630331950399743 ] } },
{ "type": "Feature", "properties": { "NAME": "FERRARIS ADDITION" }, "geometry": { "type": "Point", "coordinates": [ -119.796214082486244, 39.539267754689547 ] } },
{ "type": "Feature", "properties": { "NAME": "VILLAGES AT DAMONTE RANCH 13B" }, "geometry": { "type": "Point", "coordinates": [ -119.72330750167599, 39.427381869113553 ] } },
{ "type": "Feature", "properties": { "NAME": "SILVER SHORES 26" }, "geometry": { "type": "Point", "coordinates": [ -119.905145270563082, 39.626213421689961 ] } },
{ "type": "Feature", "properties": { "NAME": "NORTHGATE 5A" }, "geometry": { "type": "Point", "coordinates": [ -119.891615794603979, 39.53489991354224 ] } },
{ "type": "Feature", "properties": { "NAME": "CAUGHLIN CREEK 2B" }, "geometry": { "type": "Point", "coordinates": [ -119.862248300472473, 39.497027240778849 ] } },
{ "type": "Feature", "properties": { "NAME": "PROSPECT HILL 1" }, "geometry": { "type": "Point", "coordinates": [ -119.819168600838807, 39.55649851198195 ] } },
{ "type": "Feature", "properties": { "NAME": "DOWNTOWN SERVICE CENTER" }, "geometry": { "type": "Point", "coordinates": [ -119.797974288604422, 39.534389454130455 ] } },
{ "type": "Feature", "properties": { "NAME": "COUNTRY CLUB ESTATES 1" }, "geometry": { "type": "Point", "coordinates": [ -119.828722719456962, 39.493495650985714 ] } },
{ "type": "Feature", "properties": { "NAME": "SIERRA HIGHLANDS 9A" }, "geometry": { "type": "Point", "coordinates": [ -119.875831501072213, 39.530184086983041 ] } },
{ "type": "Feature", "properties": { "NAME": "CLEARACRE GARDEN 2" }, "geometry": { "type": "Point", "coordinates": [ -119.784234087878531, 39.566423850018509 ] } },
{ "type": "Feature", "properties": { "NAME": "ACADEMY MANOR 2" }, "geometry": { "type": "Point", "coordinates": [ -119.787344894593772, 39.507679911900247 ] } },
{ "type": "Feature", "properties": { "NAME": "JONADA HEIGHTS ADDITION" }, "geometry": { "type": "Point", "coordinates": [ -119.83367216939962, 39.509236941883671 ] } },
{ "type": "Feature", "properties": { "NAME": "TOSCANO TOWNHOMES" }, "geometry": { "type": "Point", "coordinates": [ -119.836515132728962, 39.522383731090684 ] } },
{ "type": "Feature", "properties": { "NAME": "CORONET 3" }, "geometry": { "type": "Point", "coordinates": [ -119.805702104186352, 39.48560618261935 ] } },
{ "type": "Feature", "properties": { "NAME": "CRAMPTON ADDITION" }, "geometry": { "type": "Point", "coordinates": [ -119.811374386988021, 39.518395339858039 ] } },
{ "type": "Feature", "properties": { "NAME": "SAGE POINT 3" }, "geometry": { "type": "Point", "coordinates": [ -119.854787172113348, 39.517022575003573 ] } },
{ "type": "Feature", "properties": { "NAME": "SIERRA CANYON VILLAGE 12C" }, "geometry": { "type": "Point", "coordinates": [ -119.948306712939257, 39.516097075511482 ] } },
{ "type": "Feature", "properties": { "NAME": "HUFFAKER HILLS 7" }, "geometry": { "type": "Point", "coordinates": [ -119.764603589704379, 39.456447957289164 ] } },
{ "type": "Feature", "properties": { "NAME": "DEL RIO LANE" }, "geometry": { "type": "Point", "coordinates": [ -119.836973812889809, 39.501534406344 ] } },
{ "type": "Feature", "properties": { "NAME": "RIVERSIDE DRIVE CONDOMINIUMS" }, "geometry": { "type": "Point", "coordinates": [ -119.827384754382891, 39.520790979331856 ] } },
{ "type": "Feature", "properties": { "NAME": "HILLBORO 5" }, "geometry": { "type": "Point", "coordinates": [ -119.791444477869163, 39.542387832962575 ] } },
{ "type": "Feature", "properties": { "NAME": "WASHOE VISTA" }, "geometry": { "type": "Point", "coordinates": [ -119.833728146722933, 39.559979756088524 ] } },
{ "type": "Feature", "properties": { "NAME": "HOMBRE WAY" }, "geometry": { "type": "Point", "coordinates": [ -119.745505150306812, 39.476376444897241 ] } },
{ "type": "Feature", "properties": { "NAME": "MARKRIDGE 2" }, "geometry": { "type": "Point", "coordinates": [ -119.83731744663578, 39.496642233995424 ] } },
{ "type": "Feature", "properties": { "NAME": "SIERRA SAGE ESTATES 2" }, "geometry": { "type": "Point", "coordinates": [ -119.88032835450187, 39.650407183550691 ] } },
{ "type": "Feature", "properties": { "NAME": "SMITHRIDGE PARK TOWNHOUSES 3 UNIT 4" }, "geometry": { "type": "Point", "coordinates": [ -119.785320321354433, 39.482410193194696 ] } },
{ "type": "Feature", "properties": { "NAME": "SALEM MANOR" }, "geometry": { "type": "Point", "coordinates": [ -119.810553643502274, 39.495601115045147 ] } },
{ "type": "Feature", "properties": { "NAME": "LAKERIDGE SPRINGS 7" }, "geometry": { "type": "Point", "coordinates": [ -119.828256984363449, 39.470819913593886 ] } },
{ "type": "Feature", "properties": { "NAME": "NORTHGATE 11D" }, "geometry": { "type": "Point", "coordinates": [ -119.907121376619457, 39.547421016121731 ] } },
{ "type": "Feature", "properties": { "NAME": "VILLAGES AT DAMONTE RANCH 13B" }, "geometry": { "type": "Point", "coordinates": [ -119.722257335750086, 39.429823386967485 ] } },
{ "type": "Feature", "properties": { "NAME": "MANZANITA WEST 8" }, "geometry": { "type": "Point", "coordinates": [ -119.834632758905514, 39.47560091523448 ] } },
{ "type": "Feature", "properties": { "NAME": "SBE 64 @ SOMERSETT" }, "geometry": { "type": "Point", "coordinates": [ -119.943849879149482, 39.523856460116022 ] } },
{ "type": "Feature", "properties": { "NAME": "NORTHRIDGE HEIGHTS 4" }, "geometry": { "type": "Point", "coordinates": [ -119.842498343828083, 39.529600350853919 ] } },
{ "type": "Feature", "properties": { "NAME": "SOMERSETT VILLAGE 5D PHASE 1" }, "geometry": { "type": "Point", "coordinates": [ -119.948018694099488, 39.530514213699739 ] } },
{ "type": "Feature", "properties": { "NAME": "THE MEADOWS" }, "geometry": { "type": "Point", "coordinates": [ -119.778786464538612, 39.483873113693654 ] } },
{ "type": "Feature", "properties": { "NAME": "DOUBLE DIAMOND RANCH VILLAGE 14B" }, "geometry": { "type": "Point", "coordinates": [ -119.747410805645984, 39.434672508146754 ] } },
{ "type": "Feature", "properties": { "NAME": "DOUBLE DIAMOND RANCH VILLAGE 4 UNIT 1" }, "geometry": { "type": "Point", "coordinates": [ -119.740456022901952, 39.438131744219298 ] } },
{ "type": "Feature", "properties": { "NAME": "STEADFIELD ESTATES 1" }, "geometry": { "type": "Point", "coordinates": [ -119.830394344927981, 39.609376096284919 ] } },
{ "type": "Feature", "properties": { "NAME": "SIERRA HEIGHTS 6B" }, "geometry": { "type": "Point", "coordinates": [ -119.848461004522647, 39.52849954181611 ] } },
{ "type": "Feature", "properties": { "NAME": "SOUTHRIDGE ESTATES" }, "geometry": { "type": "Point", "coordinates": [ -119.82479905088492, 39.507448971609229 ] } },
{ "type": "Feature", "properties": { "NAME": "CAUGHLIN CREEK 6" }, "geometry": { "type": "Point", "coordinates": [ -119.861330095043414, 39.495905076977742 ] } },
{ "type": "Feature", "properties": { "NAME": "LEARENO ESTATES 2" }, "geometry": { "type": "Point", "coordinates": [ -119.900684107985043, 39.629797651435851 ] } },
{ "type": "Feature", "properties": { "NAME": "SUMMIT RIDGE" }, "geometry": { "type": "Point", "coordinates": [ -119.859694983576176, 39.521405813610343 ] } },
{ "type": "Feature", "properties": { "NAME": "WESTERN ADDITION" }, "geometry": { "type": "Point", "coordinates": [ -119.817451187186464, 39.529998244351226 ] } },
{ "type": "Feature", "properties": { "NAME": "WILD STALLION ESTATES PHASE 1" }, "geometry": { "type": "Point", "coordinates": [ -119.841328226085395, 39.608680063910121 ] } },
{ "type": "Feature", "properties": { "NAME": "NORTHGATE 3C" }, "geometry": { "type": "Point", "coordinates": [ -119.897620899245652, 39.523339719669011 ] } },
{ "type": "Feature", "properties": { "NAME": "SMITHRIDGE PARK TOWNHOUSES 3 UNIT 1" }, "geometry": { "type": "Point", "coordinates": [ -119.784646138139067, 39.484903318817047 ] } },
{ "type": "Feature", "properties": { "NAME": "LAKERIDGE 2" }, "geometry": { "type": "Point", "coordinates": [ -119.813462877850768, 39.481790483364108 ] } },
{ "type": "Feature", "properties": { "NAME": "DOUBLE DIAMOND RANCH VILLAGE 5B" }, "geometry": { "type": "Point", "coordinates": [ -119.742746696153446, 39.432841549889822 ] } },
{ "type": "Feature", "properties": { "NAME": "SOUTHWEST TERRACE 2" }, "geometry": { "type": "Point", "coordinates": [ -119.839963391723799, 39.487969909725948 ] } },
{ "type": "Feature", "properties": { "NAME": "SILVERADO RANCH ESTATES 11 PHASE 1" }, "geometry": { "type": "Point", "coordinates": [ -119.888352848358068, 39.541876054938655 ] } },
{ "type": "Feature", "properties": { "NAME": "STARDUST GARDENS 1" }, "geometry": { "type": "Point", "coordinates": [ -119.836126320247459, 39.529010318018457 ] } },
{ "type": "Feature", "properties": { "NAME": "NORTHGATE 3D" }, "geometry": { "type": "Point", "coordinates": [ -119.892089290065172, 39.524107530127068 ] } },
{ "type": "Feature", "properties": { "NAME": "THE MEADOWS 3" }, "geometry": { "type": "Point", "coordinates": [ -119.751615111149434, 39.439551256923522 ] } },
{ "type": "Feature", "properties": { "NAME": "FOURTEEN ON CASHILL" }, "geometry": { "type": "Point", "coordinates": [ -119.837016341552726, 39.48245512558033 ] } },
{ "type": "Feature", "properties": { "NAME": "NORTHGATE 7D" }, "geometry": { "type": "Point", "coordinates": [ -119.890568636853999, 39.531923095424318 ] } },
{ "type": "Feature", "properties": { "NAME": "SALEM PLAZA" }, "geometry": { "type": "Point", "coordinates": [ -119.811258292980142, 39.497480263163446 ] } },
{ "type": "Feature", "properties": { "NAME": "SIERRA HIGHLANDS 11" }, "geometry": { "type": "Point", "coordinates": [ -119.868283056311469, 39.531342910806892 ] } },
{ "type": "Feature", "properties": { "NAME": "WESTVIEW" }, "geometry": { "type": "Point", "coordinates": [ -119.863624212699222, 39.537194125666005 ] } },
{ "type": "Feature", "properties": { "NAME": "MEADOW CREEK ESTATES 2E-1" }, "geometry": { "type": "Point", "coordinates": [ -119.786083953223667, 39.450624638717699 ] } },
{ "type": "Feature", "properties": { "NAME": "NORTHGATE 3J" }, "geometry": { "type": "Point", "coordinates": [ -119.891595726948637, 39.519927406722999 ] } },
{ "type": "Feature", "properties": { "NAME": "DAMONTE RANCH V VILLAGE 1 & 2 UNIT 3B" }, "geometry": { "type": "Point", "coordinates": [ -119.733167086992594, 39.437169984270199 ] } },
{ "type": "Feature", "properties": { "NAME": "GOLDEN VALLEY ESTATES 2A" }, "geometry": { "type": "Point", "coordinates": [ -119.817716690266721, 39.601032559139448 ] } },
{ "type": "Feature", "properties": { "NAME": "EVANS PARK 3" }, "geometry": { "type": "Point", "coordinates": [ -119.827844615730911, 39.544403166547312 ] } },
{ "type": "Feature", "properties": { "NAME": "SILVERADA NORTH 1" }, "geometry": { "type": "Point", "coordinates": [ -119.784942573400158, 39.547276099074928 ] } },
{ "type": "Feature", "properties": { "NAME": "COMMERCIAL ADDITION" }, "geometry": { "type": "Point", "coordinates": [ -119.805322577675952, 39.531338216236541 ] } },
{ "type": "Feature", "properties": { "NAME": "NORTHSTAR RANCH PHASE 1" }, "geometry": { "type": "Point", "coordinates": [ -119.813078805219163, 39.602203493042019 ] } },
{ "type": "Feature", "properties": { "NAME": "SKY VISTA VILLAGE 6C" }, "geometry": { "type": "Point", "coordinates": [ -119.869630277357146, 39.631474447588033 ] } },
{ "type": "Feature", "properties": { "NAME": "NORTHSTAR RANCH PHASE 1" }, "geometry": { "type": "Point", "coordinates": [ -119.811137668901466, 39.595667846911226 ] } },
{ "type": "Feature", "properties": { "NAME": "DOUBLE DIAMOND RANCH VILLAGE 17B" }, "geometry": { "type": "Point", "coordinates": [ -119.749831934609773, 39.427492806665398 ] } },
{ "type": "Feature", "properties": { "NAME": "ROLLING HILLS HIGHLANDS 2" }, "geometry": { "type": "Point", "coordinates": [ -119.832473880071191, 39.58532209322366 ] } },
{ "type": "Feature", "properties": { "NAME": "RIVERWALK CONDOMINIUMS" }, "geometry": { "type": "Point", "coordinates": [ -119.816180599487609, 39.525961726418075 ] } },
{ "type": "Feature", "properties": { "NAME": "AMPHITHEATER 1" }, "geometry": { "type": "Point", "coordinates": [ -119.828435542054223, 39.53815583698443 ] } },
{ "type": "Feature", "properties": { "NAME": "SUNRISE CREEK 1" }, "geometry": { "type": "Point", "coordinates": [ -120.00043129274313, 39.521920729720208 ] } },
{ "type": "Feature", "properties": { "NAME": "SKY COUNTRY ESTATES 8" }, "geometry": { "type": "Point", "coordinates": [ -119.857080704793617, 39.548173841386649 ] } },
{ "type": "Feature", "properties": { "NAME": "SILVER DOLLAR ESTATES AREA 2 PHASE 2" }, "geometry": { "type": "Point", "coordinates": [ -119.86531182842694, 39.620799689214557 ] } },
{ "type": "Feature", "properties": { "NAME": "HILLBORO 4" }, "geometry": { "type": "Point", "coordinates": [ -119.792913775332181, 39.542992245224646 ] } },
{ "type": "Feature", "properties": { "NAME": "WILLOWBROOK 2" }, "geometry": { "type": "Point", "coordinates": [ -119.799903643231815, 39.485847334345991 ] } },
{ "type": "Feature", "properties": { "NAME": "EVANS NORTH ADDITION" }, "geometry": { "type": "Point", "coordinates": [ -119.813484448446744, 39.532520552129391 ] } },
{ "type": "Feature", "properties": { "NAME": "SIERRA HIGHLANDS 12" }, "geometry": { "type": "Point", "coordinates": [ -119.86564726095186, 39.528602083482149 ] } },
{ "type": "Feature", "properties": { "NAME": "SIERRA HIGHLANDS 4 PHASE 1B" }, "geometry": { "type": "Point", "coordinates": [ -119.879007224848721, 39.531172286966637 ] } },
{ "type": "Feature", "properties": { "NAME": "NEVADA HILLS COOPERATIVE APARTMENTS" }, "geometry": { "type": "Point", "coordinates": [ -119.821114927033648, 39.537361680940087 ] } },
{ "type": "Feature", "properties": { "NAME": "EVERGREEN 1" }, "geometry": { "type": "Point", "coordinates": [ -119.865273388659787, 39.487610689234458 ] } },
{ "type": "Feature", "properties": { "NAME": "SILVER DOLLAR ESTATES AREA 2 PHASE 1" }, "geometry": { "type": "Point", "coordinates": [ -119.867001446461316, 39.620263381628632 ] } },
{ "type": "Feature", "properties": { "NAME": "ROBERT`S 4" }, "geometry": { "type": "Point", "coordinates": [ -119.80453604975645, 39.480884837217801 ] } },
{ "type": "Feature", "properties": { "NAME": "DAMONTE RANCH VILLAGE 8C" }, "geometry": { "type": "Point", "coordinates": [ -119.724207951805866, 39.439362904596663 ] } },
{ "type": "Feature", "properties": { "NAME": "NEUENSCHWANDER" }, "geometry": { "type": "Point", "coordinates": [ -119.831927525534155, 39.506471201390852 ] } },
{ "type": "Feature", "properties": { "NAME": "SOUTHWEST TERRACE 3A" }, "geometry": { "type": "Point", "coordinates": [ -119.844509657655962, 39.488435163147884 ] } },
{ "type": "Feature", "properties": { "NAME": "MEDALLION ESTATES 1" }, "geometry": { "type": "Point", "coordinates": [ -119.828803376849407, 39.618800966027649 ] } },
{ "type": "Feature", "properties": { "NAME": "DONNER SPRINGS 2C-1" }, "geometry": { "type": "Point", "coordinates": [ -119.75425512044535, 39.484714846313473 ] } },
{ "type": "Feature", "properties": { "NAME": "ARLINGTON COURT" }, "geometry": { "type": "Point", "coordinates": [ -119.818239005679075, 39.507610916331927 ] } },
{ "type": "Feature", "properties": { "NAME": "WILBUR" }, "geometry": { "type": "Point", "coordinates": [ -119.836932764177405, 39.505746318661949 ] } },
{ "type": "Feature", "properties": { "NAME": "POWNING ADDITION" }, "geometry": { "type": "Point", "coordinates": [ -119.822574873827747, 39.524025742379521 ] } },
{ "type": "Feature", "properties": { "NAME": "NORTHGATE 3N" }, "geometry": { "type": "Point", "coordinates": [ -119.894024431776074, 39.519909825754652 ] } },
{ "type": "Feature", "properties": { "NAME": "SJ RANCH 1" }, "geometry": { "type": "Point", "coordinates": [ -119.777755553760727, 39.460167060435332 ] } },
{ "type": "Feature", "properties": { "NAME": "SKYLINE VIEW" }, "geometry": { "type": "Point", "coordinates": [ -119.841909163900169, 39.484384792674433 ] } },
{ "type": "Feature", "properties": { "NAME": "SAGE POINT 1" }, "geometry": { "type": "Point", "coordinates": [ -119.857014983468176, 39.519286884527695 ] } },
{ "type": "Feature", "properties": { "NAME": "PARK PLACE" }, "geometry": { "type": "Point", "coordinates": [ -119.842524346984405, 39.548980480445415 ] } },
{ "type": "Feature", "properties": { "NAME": "RENO HEIGHTS" }, "geometry": { "type": "Point", "coordinates": [ -119.841485733297475, 39.528041604714865 ] } },
{ "type": "Feature", "properties": { "NAME": "MOGUL HIGHLANDS 2A" }, "geometry": { "type": "Point", "coordinates": [ -119.939607649148101, 39.517083686510993 ] } },
{ "type": "Feature", "properties": { "NAME": "SILVER TERRACE 2  PHASE 2" }, "geometry": { "type": "Point", "coordinates": [ -119.89738708862393, 39.635785091400237 ] } },
{ "type": "Feature", "properties": { "NAME": "HIDDEN VALLEY 3" }, "geometry": { "type": "Point", "coordinates": [ -119.723614161297888, 39.495766076279025 ] } },
{ "type": "Feature", "properties": { "NAME": "CLOVERDALE HEIGHTS" }, "geometry": { "type": "Point", "coordinates": [ -119.833502967954516, 39.531288976768124 ] } },
{ "type": "Feature", "properties": { "NAME": "PEEK PARCEL 1" }, "geometry": { "type": "Point", "coordinates": [ -119.854914563769412, 39.638347891165893 ] } },
{ "type": "Feature", "properties": { "NAME": "SILVERADO RANCH ESTATES 1A" }, "geometry": { "type": "Point", "coordinates": [ -119.875127449773998, 39.543875488114523 ] } },
{ "type": "Feature", "properties": { "NAME": "REGENCY PARK II - PHASE A1" }, "geometry": { "type": "Point", "coordinates": [ -119.871352377413402, 39.649918501299098 ] } },
{ "type": "Feature", "properties": { "NAME": "EDGEWATER AT VIRGINIA LAKE" }, "geometry": { "type": "Point", "coordinates": [ -119.804739431318481, 39.499474286821467 ] } },
{ "type": "Feature", "properties": { "NAME": "DOUBLE DIAMOND RANCH VILLAGE 27A" }, "geometry": { "type": "Point", "coordinates": [ -119.734911566064071, 39.443995426282108 ] } },
{ "type": "Feature", "properties": { "NAME": "SIERRA HIGHLANDS 9B" }, "geometry": { "type": "Point", "coordinates": [ -119.876133293922905, 39.527635561881063 ] } },
{ "type": "Feature", "properties": { "NAME": "RIVERFRONT LOTS" }, "geometry": { "type": "Point", "coordinates": [ -119.815866364253338, 39.524892894891586 ] } },
{ "type": "Feature", "properties": { "NAME": "BACKER TRUST PROPERTY 2" }, "geometry": { "type": "Point", "coordinates": [ -119.87921861668508, 39.52037110348148 ] } },
{ "type": "Feature", "properties": { "NAME": "GLENMANOR 2" }, "geometry": { "type": "Point", "coordinates": [ -119.805633079919588, 39.504086568796176 ] } },
{ "type": "Feature", "properties": { "NAME": "DAMONTE RANCH VILLAGE 10C" }, "geometry": { "type": "Point", "coordinates": [ -119.708565460402198, 39.438937593324901 ] } },
{ "type": "Feature", "properties": { "NAME": "NORTHGATE 16A" }, "geometry": { "type": "Point", "coordinates": [ -119.90102203403093, 39.526768127791087 ] } },
{ "type": "Feature", "properties": { "NAME": "SIERRA HIGHLANDS 1" }, "geometry": { "type": "Point", "coordinates": [ -119.870507380145682, 39.532473427988322 ] } },
{ "type": "Feature", "properties": { "NAME": "WEST ROSE PARK 4" }, "geometry": { "type": "Point", "coordinates": [ -119.823938993821201, 39.503375762445742 ] } },
{ "type": "Feature", "properties": { "NAME": "TENAYA CREEK" }, "geometry": { "type": "Point", "coordinates": [ -119.8178046688504, 39.577075527903602 ] } },
{ "type": "Feature", "properties": { "NAME": "WHITES CREEK ESTATES 2" }, "geometry": { "type": "Point", "coordinates": [ -119.767092394794531, 39.412478059493054 ] } },
{ "type": "Feature", "properties": { "NAME": "GRANITE RIDGE PHASE 3" }, "geometry": { "type": "Point", "coordinates": [ -119.897547809613656, 39.551435933956895 ] } },
{ "type": "Feature", "properties": { "NAME": "SIERRA VISTA VILLAS 2" }, "geometry": { "type": "Point", "coordinates": [ -119.855413839329813, 39.544397153171417 ] } },
{ "type": "Feature", "properties": { "NAME": "DAMONTE RANCH VILLAGE 11D" }, "geometry": { "type": "Point", "coordinates": [ -119.711763292981644, 39.435703533917142 ] } },
{ "type": "Feature", "properties": { "NAME": "OVERLOOK 2" }, "geometry": { "type": "Point", "coordinates": [ -119.887458022038743, 39.53833423075929 ] } },
{ "type": "Feature", "properties": { "NAME": "TERRACE TRACT" }, "geometry": { "type": "Point", "coordinates": [ -119.804307280814086, 39.514189296988796 ] } },
{ "type": "Feature", "properties": { "NAME": "VILLAGES AT DAMONTE RANCH 16A" }, "geometry": { "type": "Point", "coordinates": [ -119.720935039776009, 39.419088224325904 ] } },
{ "type": "Feature", "properties": { "NAME": "IDLEWILD RIVERFRONT CONDOMINIUMS" }, "geometry": { "type": "Point", "coordinates": [ -119.84483268164405, 39.517345426872325 ] } },
{ "type": "Feature", "properties": { "NAME": "NORTHGATE 4B" }, "geometry": { "type": "Point", "coordinates": [ -119.892638621442103, 39.531039590831547 ] } },
{ "type": "Feature", "properties": { "NAME": "BRECKENRIDGE" }, "geometry": { "type": "Point", "coordinates": [ -119.870499731983429, 39.524229022319609 ] } },
{ "type": "Feature", "properties": { "NAME": "AREA 2 PHASE 1 @ SOMERSETT" }, "geometry": { "type": "Point", "coordinates": [ -119.931956289112065, 39.532904391281143 ] } },
{ "type": "Feature", "properties": { "NAME": "CASITAS DE LA SIERRA" }, "geometry": { "type": "Point", "coordinates": [ -119.78360916317159, 39.454029137243047 ] } },
{ "type": "Feature", "properties": { "NAME": "CRESTGATE-DIXON" }, "geometry": { "type": "Point", "coordinates": [ -119.778313421026084, 39.447977467262554 ] } },
{ "type": "Feature", "properties": { "NAME": "SILVERADO RANCH ESTATES 2 PHASE 2" }, "geometry": { "type": "Point", "coordinates": [ -119.875659632277419, 39.541946088638348 ] } },
{ "type": "Feature", "properties": { "NAME": "GOLDEN MEADOWS 1" }, "geometry": { "type": "Point", "coordinates": [ -119.833919082561692, 39.605835405730254 ] } },
{ "type": "Feature", "properties": { "NAME": "NORTHGATE 2F" }, "geometry": { "type": "Point", "coordinates": [ -119.883167141670427, 39.519551790536852 ] } },
{ "type": "Feature", "properties": { "NAME": "REVERSION SHARLANDS PLANNING UNIT 1 PHASE 1" }, "geometry": { "type": "Point", "coordinates": [ -119.898968146972933, 39.5175603960083 ] } },
{ "type": "Feature", "properties": { "NAME": "JUNIPER TRAILS 4" }, "geometry": { "type": "Point", "coordinates": [ -119.871582856752568, 39.49095324657133 ] } },
{ "type": "Feature", "properties": { "NAME": "MARKER TRACT" }, "geometry": { "type": "Point", "coordinates": [ -119.817914261851442, 39.516404569413154 ] } },
{ "type": "Feature", "properties": { "NAME": "SHARON" }, "geometry": { "type": "Point", "coordinates": [ -119.827627268156675, 39.502980072197722 ] } },
{ "type": "Feature", "properties": { "NAME": "VILLAS II @ KEYSTONE CANYON" }, "geometry": { "type": "Point", "coordinates": [ -119.850947153000078, 39.551376837306428 ] } },
{ "type": "Feature", "properties": { "NAME": "SUNRAY" }, "geometry": { "type": "Point", "coordinates": [ -119.850710579883753, 39.544462248277704 ] } },
{ "type": "Feature", "properties": { "NAME": "SIERRA HIGHLANDS 5" }, "geometry": { "type": "Point", "coordinates": [ -119.875962897033759, 39.532818227799645 ] } },
{ "type": "Feature", "properties": { "NAME": "SIERRA CANYON VILLAGE 11C" }, "geometry": { "type": "Point", "coordinates": [ -119.948746858670759, 39.518178756618312 ] } },
{ "type": "Feature", "properties": { "NAME": "VALLEY PARK ESTATES" }, "geometry": { "type": "Point", "coordinates": [ -119.842890561988611, 39.645843565314102 ] } },
{ "type": "Feature", "properties": { "NAME": "SILVERADO RANCH ESTATES 2 PHASE 3" }, "geometry": { "type": "Point", "coordinates": [ -119.87966278324329, 39.542419479536903 ] } },
{ "type": "Feature", "properties": { "NAME": "VILLAGES AT DAMONTE RANCH 13A" }, "geometry": { "type": "Point", "coordinates": [ -119.7245730885559, 39.427517779919157 ] } },
{ "type": "Feature", "properties": { "NAME": "HERON`S LANDING 1" }, "geometry": { "type": "Point", "coordinates": [ -119.740783768516835, 39.482624062646465 ] } },
{ "type": "Feature", "properties": { "NAME": "UNIVERSITY PARK" }, "geometry": { "type": "Point", "coordinates": [ -119.812380634192664, 39.543915959337852 ] } },
{ "type": "Feature", "properties": { "NAME": "VILLAGES AT DAMONTE RANCH 13C" }, "geometry": { "type": "Point", "coordinates": [ -119.720929775110875, 39.42819019319986 ] } },
{ "type": "Feature", "properties": { "NAME": "DOUBLE DIAMOND RANCH VILLAGE 2B" }, "geometry": { "type": "Point", "coordinates": [ -119.739797015125475, 39.443095265716359 ] } },
{ "type": "Feature", "properties": { "NAME": "NORTHGATE 16B" }, "geometry": { "type": "Point", "coordinates": [ -119.902199020857196, 39.529750032179365 ] } },
{ "type": "Feature", "properties": { "NAME": "VIEW CREST" }, "geometry": { "type": "Point", "coordinates": [ -119.85394546222237, 39.544548836846609 ] } },
{ "type": "Feature", "properties": { "NAME": "CARAMELLA RANCH ESTATES REGENCY VILLAGE UNIT 4" }, "geometry": { "type": "Point", "coordinates": [ -119.721461299936323, 39.412928291822745 ] } },
{ "type": "Feature", "properties": { "NAME": "AMENDED SIERRA MANOR" }, "geometry": { "type": "Point", "coordinates": [ -119.780641376562571, 39.4363022301021 ] } },
{ "type": "Feature", "properties": { "NAME": "AMENDED SIERRA MANOR" }, "geometry": { "type": "Point", "coordinates": [ -119.775709538416649, 39.43592048693732 ] } },
{ "type": "Feature", "properties": { "NAME": "AMENDED SIERRA MANOR" }, "geometry": { "type": "Point", "coordinates": [ -119.776574862341178, 39.440071341707466 ] } },
{ "type": "Feature", "properties": { "NAME": "SMITHRIDGE PARK 2" }, "geometry": { "type": "Point", "coordinates": [ -119.776416602779861, 39.480026778502008 ] } },
{ "type": "Feature", "properties": { "NAME": "VILLAGES AT DAMONTE RANCH 20B" }, "geometry": { "type": "Point", "coordinates": [ -119.73227991457378, 39.412859839126639 ] } },
{ "type": "Feature", "properties": { "NAME": "NORTHRIDGE HEIGHTS 10" }, "geometry": { "type": "Point", "coordinates": [ -119.836905140386492, 39.529183228505325 ] } },
{ "type": "Feature", "properties": { "NAME": "RALEIGH HEIGHTS 3" }, "geometry": { "type": "Point", "coordinates": [ -119.843640691104696, 39.590487264983906 ] } },
{ "type": "Feature", "properties": { "NAME": "UNIVERSITY RIDGE 5" }, "geometry": { "type": "Point", "coordinates": [ -119.812305458339864, 39.559656542818303 ] } },
{ "type": "Feature", "properties": { "NAME": "CHRISTENSEN`S" }, "geometry": { "type": "Point", "coordinates": [ -119.818970592459991, 39.540252883566332 ] } },
{ "type": "Feature", "properties": { "NAME": "MEADOW CREEK VILLAGE 2" }, "geometry": { "type": "Point", "coordinates": [ -119.778416224966975, 39.448782533842412 ] } },
{ "type": "Feature", "properties": { "NAME": "PATTON-FREDERICK ADDITION 2" }, "geometry": { "type": "Point", "coordinates": [ -119.796066284796737, 39.541145327833021 ] } },
{ "type": "Feature", "properties": { "NAME": "SAGEHEN HILL" }, "geometry": { "type": "Point", "coordinates": [ -119.815348000461725, 39.587133799666255 ] } },
{ "type": "Feature", "properties": { "NAME": "ROLLING HILLS HIGHLANDS 1" }, "geometry": { "type": "Point", "coordinates": [ -119.83198831845516, 39.583721123701039 ] } },
{ "type": "Feature", "properties": { "NAME": "SIERRA HEIGHTS 1C" }, "geometry": { "type": "Point", "coordinates": [ -119.859666775025588, 39.532009486535593 ] } },
{ "type": "Feature", "properties": { "NAME": "NORTHGATE 12B" }, "geometry": { "type": "Point", "coordinates": [ -119.912275923967584, 39.541890255017577 ] } },
{ "type": "Feature", "properties": { "NAME": "CREEKSIDE NORTH 1" }, "geometry": { "type": "Point", "coordinates": [ -119.860865782099836, 39.485473693064783 ] } },
{ "type": "Feature", "properties": { "NAME": "MOUNTAINGATE PHASE 1" }, "geometry": { "type": "Point", "coordinates": [ -119.77089779208346, 39.405069617015897 ] } },
{ "type": "Feature", "properties": { "NAME": "BALLENTYNE" }, "geometry": { "type": "Point", "coordinates": [ -119.796346596176932, 39.521248645982944 ] } },
{ "type": "Feature", "properties": { "NAME": "G. CURTI RANCH - UNIT 4" }, "geometry": { "type": "Point", "coordinates": [ -119.740335614705529, 39.408791664210099 ] } },
{ "type": "Feature", "properties": { "NAME": "LISTON" }, "geometry": { "type": "Point", "coordinates": [ -119.796365041233742, 39.508849857025034 ] } },
{ "type": "Feature", "properties": { "NAME": "WEST PLUMB LANE ESTATES 2" }, "geometry": { "type": "Point", "coordinates": [ -119.855208161126285, 39.496622364245177 ] } },
{ "type": "Feature", "properties": { "NAME": "LAKE RIDGE SHORES 1" }, "geometry": { "type": "Point", "coordinates": [ -119.825447790044223, 39.476571189621204 ] } },
{ "type": "Feature", "properties": { "NAME": "EVANS NORTHEAST ADDITION" }, "geometry": { "type": "Point", "coordinates": [ -119.812667802172896, 39.536334973606429 ] } },
{ "type": "Feature", "properties": { "NAME": "VILLA COURT ADDITION" }, "geometry": { "type": "Point", "coordinates": [ -119.811685885521072, 39.516186402727257 ] } },
{ "type": "Feature", "properties": { "NAME": "MOUNTAINGATE PHASE 2 A1" }, "geometry": { "type": "Point", "coordinates": [ -119.762277690847483, 39.408678668158515 ] } },
{ "type": "Feature", "properties": { "NAME": "DOUBLE DIAMOND RANCH UNIT 1" }, "geometry": { "type": "Point", "coordinates": [ -119.741616313066956, 39.435563927695178 ] } },
{ "type": "Feature", "properties": { "NAME": "WARREN WAY TOWNHOMES" }, "geometry": { "type": "Point", "coordinates": [ -119.804653789938968, 39.488476576327677 ] } },
{ "type": "Feature", "properties": { "NAME": "SIERRA VIEW" }, "geometry": { "type": "Point", "coordinates": [ -119.839676093742099, 39.514150550017675 ] } },
{ "type": "Feature", "properties": { "NAME": "MOUNTAINVIEW CORPORATE CENTRE" }, "geometry": { "type": "Point", "coordinates": [ -119.788849356676906, 39.464267611119411 ] } },
{ "type": "Feature", "properties": { "NAME": "MORNING STAR AT NORTHGATE 2" }, "geometry": { "type": "Point", "coordinates": [ -119.876703218981433, 39.534267190715227 ] } },
{ "type": "Feature", "properties": { "NAME": "WASHINGTON HEIGHTS" }, "geometry": { "type": "Point", "coordinates": [ -119.828867116287526, 39.535970178624019 ] } },
{ "type": "Feature", "properties": { "NAME": "BELLA VISTA RANCH VILLAGE D UNIT 2" }, "geometry": { "type": "Point", "coordinates": [ -119.72095905529541, 39.443415342368105 ] } },
{ "type": "Feature", "properties": { "NAME": "FRANKTOWN CORNERS" }, "geometry": { "type": "Point", "coordinates": [ -119.789888923743078, 39.501470156859618 ] } },
{ "type": "Feature", "properties": { "NAME": "TURTLE CREEK II" }, "geometry": { "type": "Point", "coordinates": [ -119.907488540257646, 39.626034547706709 ] } },
{ "type": "Feature", "properties": { "NAME": "COUNTRY CLUB HEIGHTS" }, "geometry": { "type": "Point", "coordinates": [ -119.819619659319883, 39.504630099493916 ] } },
{ "type": "Feature", "properties": { "NAME": "NORTHWEST VILLAS 2" }, "geometry": { "type": "Point", "coordinates": [ -119.848885539179591, 39.533807597632588 ] } },
{ "type": "Feature", "properties": { "NAME": "BOWMAR" }, "geometry": { "type": "Point", "coordinates": [ -119.855871878453826, 39.671240141466178 ] } },
{ "type": "Feature", "properties": { "NAME": "WILKINSON 2" }, "geometry": { "type": "Point", "coordinates": [ -119.793140799645897, 39.519249809869237 ] } },
{ "type": "Feature", "properties": { "NAME": "UNIT 4B-4E @ SOMERSETT" }, "geometry": { "type": "Point", "coordinates": [ -119.934955820088774, 39.53948518674234 ] } },
{ "type": "Feature", "properties": { "NAME": "ESPLANADE AT DAMONTE RANCH VILLAGE 24C UNIT 1" }, "geometry": { "type": "Point", "coordinates": [ -119.728648744464877, 39.424612395004083 ] } },
{ "type": "Feature", "properties": { "NAME": "SIERRA LOMA 2" }, "geometry": { "type": "Point", "coordinates": [ -119.855438991088221, 39.53447835071195 ] } },
{ "type": "Feature", "properties": { "NAME": "SUN ACRES 2" }, "geometry": { "type": "Point", "coordinates": [ -119.778192401728106, 39.492238773527532 ] } },
{ "type": "Feature", "properties": { "NAME": "KNOLL CREST ACRES" }, "geometry": { "type": "Point", "coordinates": [ -119.806874900604939, 39.487774478609623 ] } },
{ "type": "Feature", "properties": { "NAME": "KNOLL CREST ACRES" }, "geometry": { "type": "Point", "coordinates": [ -119.806442544769823, 39.488624241503892 ] } },
{ "type": "Feature", "properties": { "NAME": "3E @ SOMERSETT" }, "geometry": { "type": "Point", "coordinates": [ -119.925082153693751, 39.543637386919023 ] } },
{ "type": "Feature", "properties": { "NAME": "SOMERSETT VILLAGE 5B" }, "geometry": { "type": "Point", "coordinates": [ -119.948499992009573, 39.53368591336352 ] } },
{ "type": "Feature", "properties": { "NAME": "GULLING" }, "geometry": { "type": "Point", "coordinates": [ -119.850686540441885, 39.541718273894773 ] } },
{ "type": "Feature", "properties": { "NAME": "TERRAVIEW" }, "geometry": { "type": "Point", "coordinates": [ -119.881214827249423, 39.646071247698046 ] } },
{ "type": "Feature", "properties": { "NAME": "WATT LANDING CONDOMINIUMS" }, "geometry": { "type": "Point", "coordinates": [ -119.809561674982149, 39.513982499400718 ] } },
{ "type": "Feature", "properties": { "NAME": "NORTHGATE 3K" }, "geometry": { "type": "Point", "coordinates": [ -119.890727080879387, 39.521641257997672 ] } },
{ "type": "Feature", "properties": { "NAME": "UNIVERSITY RIDGE UNITS 7 AND 9 PHASE 3" }, "geometry": { "type": "Point", "coordinates": [ -119.819085752316624, 39.562681118315147 ] } },
{ "type": "Feature", "properties": { "NAME": "FALLEN LEAF @ GALENA CONDOMINIUMS" }, "geometry": { "type": "Point", "coordinates": [ -119.76410962119887, 39.395883051439398 ] } },
{ "type": "Feature", "properties": { "NAME": "LAKERIDGE APARTMENTS PHASE 1" }, "geometry": { "type": "Point", "coordinates": [ -119.812328980754742, 39.474410211736235 ] } },
{ "type": "Feature", "properties": { "NAME": "VILLAS AT LAKERIDGE 2" }, "geometry": { "type": "Point", "coordinates": [ -119.809014526861262, 39.479308066153749 ] } },
{ "type": "Feature", "properties": { "NAME": "EVANS NORTHWEST ADDITION" }, "geometry": { "type": "Point", "coordinates": [ -119.816722562669057, 39.535061891488581 ] } },
{ "type": "Feature", "properties": { "NAME": "PANORAMA VILLAGE" }, "geometry": { "type": "Point", "coordinates": [ -119.791812310634569, 39.565523128707284 ] } },
{ "type": "Feature", "properties": { "NAME": "DAMONTE RANCH VILLAGE 14B" }, "geometry": { "type": "Point", "coordinates": [ -119.717275598873343, 39.425240651138594 ] } },
{ "type": "Feature", "properties": { "NAME": "GALENA JUNCTION" }, "geometry": { "type": "Point", "coordinates": [ -119.76625378885619, 39.3943365880613 ] } },
{ "type": "Feature", "properties": { "NAME": "SIERRA CANYON AT SOMERSETT VILLAGE 1" }, "geometry": { "type": "Point", "coordinates": [ -119.950720389987112, 39.532864056503428 ] } },
{ "type": "Feature", "properties": { "NAME": "CORAL" }, "geometry": { "type": "Point", "coordinates": [ -119.835178753981779, 39.506398760867683 ] } },
{ "type": "Feature", "properties": { "NAME": "WARD`S ADDITION" }, "geometry": { "type": "Point", "coordinates": [ -119.821161517267683, 39.534054638313776 ] } },
{ "type": "Feature", "properties": { "NAME": "CURTI RANCH 2 UNIT 8" }, "geometry": { "type": "Point", "coordinates": [ -119.730122850151744, 39.403869500802543 ] } },
{ "type": "Feature", "properties": { "NAME": "MORNING STAR AT NORTHGATE 3" }, "geometry": { "type": "Point", "coordinates": [ -119.879199631233789, 39.534061107765012 ] } },
{ "type": "Feature", "properties": { "NAME": "VILLAGES AT DAMONTE RANCH 12A" }, "geometry": { "type": "Point", "coordinates": [ -119.720033174130407, 39.430631173558922 ] } },
{ "type": "Feature", "properties": { "NAME": "SMITH" }, "geometry": { "type": "Point", "coordinates": [ -119.799045228159983, 39.492110725224656 ] } },
{ "type": "Feature", "properties": { "NAME": "AMENDED ROYAL HEIGHTS 5" }, "geometry": { "type": "Point", "coordinates": [ -119.842991251943474, 39.540610359974728 ] } },
{ "type": "Feature", "properties": { "NAME": "SAGEHEN HILL 2 PHASE 4" }, "geometry": { "type": "Point", "coordinates": [ -119.814102037975005, 39.59250067878483 ] } },
{ "type": "Feature", "properties": { "NAME": "SILVERADO RANCH ESTATES 4B" }, "geometry": { "type": "Point", "coordinates": [ -119.88427579270946, 39.543319706747816 ] } },
{ "type": "Feature", "properties": { "NAME": "SIERRA HIGHLANDS 8B" }, "geometry": { "type": "Point", "coordinates": [ -119.870808724832358, 39.52658159385615 ] } },
{ "type": "Feature", "properties": { "NAME": "MOBILE GLEN 2" }, "geometry": { "type": "Point", "coordinates": [ -119.781128469126244, 39.568643287379402 ] } },
{ "type": "Feature", "properties": { "NAME": "DONNER SPRINGS 2C-4" }, "geometry": { "type": "Point", "coordinates": [ -119.75632255694623, 39.478985865710463 ] } },
{ "type": "Feature", "properties": { "NAME": "MANZANITA WEST 1" }, "geometry": { "type": "Point", "coordinates": [ -119.827643086244862, 39.483745298965658 ] } },
{ "type": "Feature", "properties": { "NAME": "BAKER LANE APARTMENTS" }, "geometry": { "type": "Point", "coordinates": [ -119.799051005234588, 39.485354061287602 ] } },
{ "type": "Feature", "properties": { "NAME": "NEWLANDS TERRACE" }, "geometry": { "type": "Point", "coordinates": [ -119.819364876418277, 39.516150818276124 ] } },
{ "type": "Feature", "properties": { "NAME": "NORTH VALLEY ESTATES UNIT 3 PHASE 1" }, "geometry": { "type": "Point", "coordinates": [ -119.849166263897729, 39.64183930616943 ] } },
{ "type": "Feature", "properties": { "NAME": "SUNSET BLUFFS" }, "geometry": { "type": "Point", "coordinates": [ -119.927918903465851, 39.5237443158654 ] } },
{ "type": "Feature", "properties": { "NAME": "THE VILLAS AT SKY VISTA PHASE 1" }, "geometry": { "type": "Point", "coordinates": [ -119.870805930957033, 39.624056509879381 ] } },
{ "type": "Feature", "properties": { "NAME": "GOLDEN HIGHLANDS PHASE 7" }, "geometry": { "type": "Point", "coordinates": [ -119.820449764289137, 39.595207651123161 ] } },
{ "type": "Feature", "properties": { "NAME": "SILVER SHORES 35" }, "geometry": { "type": "Point", "coordinates": [ -119.898766344152378, 39.631143512170041 ] } },
{ "type": "Feature", "properties": { "NAME": "RALEIGH HEIGHTS 2" }, "geometry": { "type": "Point", "coordinates": [ -119.841751064419327, 39.592704667837936 ] } },
{ "type": "Feature", "properties": { "NAME": "MOUNTAIN VIEW" }, "geometry": { "type": "Point", "coordinates": [ -119.797202922026131, 39.514670741595452 ] } },
{ "type": "Feature", "properties": { "NAME": "ROCKWOOD" }, "geometry": { "type": "Point", "coordinates": [ -119.848885263689027, 39.50326180109365 ] } },
{ "type": "Feature", "properties": { "NAME": "LAKE RIDGE SHORES 4" }, "geometry": { "type": "Point", "coordinates": [ -119.824271536154413, 39.470960579569216 ] } },
{ "type": "Feature", "properties": { "NAME": "DOUBLE DIAMOND RANCH VILLAGE 29A" }, "geometry": { "type": "Point", "coordinates": [ -119.738968893319893, 39.446144232878858 ] } },
{ "type": "Feature", "properties": { "NAME": "VILLAGES AT DAMONTE RANCH 19B-4" }, "geometry": { "type": "Point", "coordinates": [ -119.725836618686102, 39.414358243514904 ] } },
{ "type": "Feature", "properties": { "NAME": "SILVERADA 6" }, "geometry": { "type": "Point", "coordinates": [ -119.785777305550511, 39.538893817205555 ] } },
{ "type": "Feature", "properties": { "NAME": "THE MEADOWS 4" }, "geometry": { "type": "Point", "coordinates": [ -119.750425436353041, 39.437955758404684 ] } },
{ "type": "Feature", "properties": { "NAME": "TONOPAH LOFTS AT MIDTOWN" }, "geometry": { "type": "Point", "coordinates": [ -119.806564224896405, 39.51029768505925 ] } },
{ "type": "Feature", "properties": { "NAME": "MOUNTAINGATE PHASE 2-A2" }, "geometry": { "type": "Point", "coordinates": [ -119.76270116699304, 39.410832129195711 ] } },
{ "type": "Feature", "properties": { "NAME": "LAKERIDGE GREEN 1" }, "geometry": { "type": "Point", "coordinates": [ -119.811927861371274, 39.478566787643921 ] } },
{ "type": "Feature", "properties": { "NAME": "RANCHO SAN RAFAEL TOWNHOMES PHASE 3" }, "geometry": { "type": "Point", "coordinates": [ -119.831125569866515, 39.568801928276883 ] } },
{ "type": "Feature", "properties": { "NAME": "5E @ SOMERSETT" }, "geometry": { "type": "Point", "coordinates": [ -119.943745178305676, 39.527497667816256 ] } },
{ "type": "Feature", "properties": { "NAME": "MEADOW VIEW TERRACE 4" }, "geometry": { "type": "Point", "coordinates": [ -119.781857926165472, 39.55968928086893 ] } },
{ "type": "Feature", "properties": { "NAME": "EVANS CREEK ESTATES 5" }, "geometry": { "type": "Point", "coordinates": [ -119.809468343284578, 39.467615485973326 ] } },
{ "type": "Feature", "properties": { "NAME": "RIVER PINES" }, "geometry": { "type": "Point", "coordinates": [ -119.98827170498744, 39.525139164583571 ] } },
{ "type": "Feature", "properties": { "NAME": "REVERSION ROLLING HILLS HIGHLANDS 3 THRU 7" }, "geometry": { "type": "Point", "coordinates": [ -119.837857981644746, 39.585808331673014 ] } },
{ "type": "Feature", "properties": { "NAME": "RIVER RUN 2" }, "geometry": { "type": "Point", "coordinates": [ -119.855465865565918, 39.509903241490235 ] } },
{ "type": "Feature", "properties": { "NAME": "VANTAGE POINT 3" }, "geometry": { "type": "Point", "coordinates": [ -119.857837726134832, 39.485551021409307 ] } },
{ "type": "Feature", "properties": { "NAME": "SIERRA CANYON AT SOMERSETT VILLAGE 3" }, "geometry": { "type": "Point", "coordinates": [ -119.953132035282053, 39.533886399932499 ] } },
{ "type": "Feature", "properties": { "NAME": "TANAMERA PHASE II" }, "geometry": { "type": "Point", "coordinates": [ -119.753399593642726, 39.43885228712908 ] } },
{ "type": "Feature", "properties": { "NAME": "SILVERADO RANCH ESTATES 6 & 7" }, "geometry": { "type": "Point", "coordinates": [ -119.873571475012682, 39.537198957957976 ] } },
{ "type": "Feature", "properties": { "NAME": "SKY VISTA VILLAGE 8A" }, "geometry": { "type": "Point", "coordinates": [ -119.872595977226226, 39.635171744701211 ] } },
{ "type": "Feature", "properties": { "NAME": "CRESTVIEW HEIGHTS" }, "geometry": { "type": "Point", "coordinates": [ -119.832708687383402, 39.509273787097847 ] } },
{ "type": "Feature", "properties": { "NAME": "SILVER SHORES 12" }, "geometry": { "type": "Point", "coordinates": [ -119.908140304604132, 39.633545782679271 ] } },
{ "type": "Feature", "properties": { "NAME": "NORTHGATE VILLAGE 2" }, "geometry": { "type": "Point", "coordinates": [ -119.883889432704152, 39.532167828698626 ] } },
{ "type": "Feature", "properties": { "NAME": "CANYON PINES PHASE 2" }, "geometry": { "type": "Point", "coordinates": [ -119.916614545951276, 39.54180867241493 ] } },
{ "type": "Feature", "properties": { "NAME": "RIVER PINES" }, "geometry": { "type": "Point", "coordinates": [ -119.983592247685124, 39.524077032688588 ] } },
{ "type": "Feature", "properties": { "NAME": "CURTI 1" }, "geometry": { "type": "Point", "coordinates": [ -119.794832337725708, 39.522397156309339 ] } },
{ "type": "Feature", "properties": { "NAME": "BRINKBY" }, "geometry": { "type": "Point", "coordinates": [ -119.808413243504731, 39.495417899565233 ] } },
{ "type": "Feature", "properties": { "NAME": "MESA PARK" }, "geometry": { "type": "Point", "coordinates": [ -119.904408288284998, 39.514938496285893 ] } },
{ "type": "Feature", "properties": { "NAME": "SOUTHLAND HEIGHTS" }, "geometry": { "type": "Point", "coordinates": [ -119.809862076681796, 39.507760682285827 ] } },
{ "type": "Feature", "properties": { "NAME": "LAKERIDGE 4" }, "geometry": { "type": "Point", "coordinates": [ -119.823959828034518, 39.479203152265143 ] } },
{ "type": "Feature", "properties": { "NAME": "3G @ SOMERSETT" }, "geometry": { "type": "Point", "coordinates": [ -119.920056976155962, 39.537981675512356 ] } },
{ "type": "Feature", "properties": { "NAME": "HOME GARDENS" }, "geometry": { "type": "Point", "coordinates": [ -119.77621623972378, 39.475686520573788 ] } },
{ "type": "Feature", "properties": { "NAME": "SILVERADA NORTH 2" }, "geometry": { "type": "Point", "coordinates": [ -119.781362052726294, 39.551212827354952 ] } },
{ "type": "Feature", "properties": { "NAME": "NANCY HEIGHTS 1" }, "geometry": { "type": "Point", "coordinates": [ -119.854231297141027, 39.529762697506712 ] } },
{ "type": "Feature", "properties": { "NAME": "FAULSTICH" }, "geometry": { "type": "Point", "coordinates": [ -119.800798717098232, 39.495299390798685 ] } },
{ "type": "Feature", "properties": { "NAME": "THE MONTAGE PHASE 1" }, "geometry": { "type": "Point", "coordinates": [ -119.815150593744661, 39.527196393427822 ] } },
{ "type": "Feature", "properties": { "NAME": "EVANS CREEK ESTATES 4" }, "geometry": { "type": "Point", "coordinates": [ -119.811330668174023, 39.463529168674484 ] } },
{ "type": "Feature", "properties": { "NAME": "NORTHGATE 16E" }, "geometry": { "type": "Point", "coordinates": [ -119.903480845028412, 39.523075113485888 ] } },
{ "type": "Feature", "properties": { "NAME": "MAYBERRY ESTATES" }, "geometry": { "type": "Point", "coordinates": [ -119.843847268323188, 39.508352820132004 ] } },
{ "type": "Feature", "properties": { "NAME": "EVANS CREEK ESTATES 3" }, "geometry": { "type": "Point", "coordinates": [ -119.813150617630015, 39.464054614881569 ] } },
{ "type": "Feature", "properties": { "NAME": "SIERRA HIGHLANDS 2A" }, "geometry": { "type": "Point", "coordinates": [ -119.870615945924925, 39.530868531913846 ] } },
{ "type": "Feature", "properties": { "NAME": "ANDERSON ADDITION" }, "geometry": { "type": "Point", "coordinates": [ -119.817291874861297, 39.536963534139716 ] } },
{ "type": "Feature", "properties": { "NAME": "SJ RANCH 3" }, "geometry": { "type": "Point", "coordinates": [ -119.774925644496307, 39.457684000864042 ] } },
{ "type": "Feature", "properties": { "NAME": "VALLEY VILLAGE 1 & 2" }, "geometry": { "type": "Point", "coordinates": [ -119.843683099809311, 39.641657975177637 ] } },
{ "type": "Feature", "properties": { "NAME": "NORTHGATE 21" }, "geometry": { "type": "Point", "coordinates": [ -119.897133175686619, 39.536923560020774 ] } },
{ "type": "Feature", "properties": { "NAME": "BELLA VISTA VILLAGE A UNIT 1" }, "geometry": { "type": "Point", "coordinates": [ -119.731426357976261, 39.449951846114764 ] } },
{ "type": "Feature", "properties": { "NAME": "PARK TERRACE 1" }, "geometry": { "type": "Point", "coordinates": [ -119.795196766124619, 39.537595692883208 ] } },
{ "type": "Feature", "properties": { "NAME": "WOODLAND VILLAGE PHASE 20" }, "geometry": { "type": "Point", "coordinates": [ -119.962540118866656, 39.697585740315603 ] } },
{ "type": "Feature", "properties": { "NAME": "WOODLAND VILLAGE PHASE 20" }, "geometry": { "type": "Point", "coordinates": [ -119.970257000232692, 39.704757424466571 ] } },
{ "type": "Feature", "properties": { "NAME": "ST GEORGE ADDITION" }, "geometry": { "type": "Point", "coordinates": [ -119.82391855588169, 39.536365111485537 ] } },
{ "type": "Feature", "properties": { "NAME": "SIERRA MEADOWS ANNEX" }, "geometry": { "type": "Point", "coordinates": [ -119.794675862720581, 39.503382961074713 ] } },
{ "type": "Feature", "properties": { "NAME": "WILKINSON 1" }, "geometry": { "type": "Point", "coordinates": [ -119.794715679729407, 39.518314026151764 ] } },
{ "type": "Feature", "properties": { "NAME": "VISTA ENCLAVE" }, "geometry": { "type": "Point", "coordinates": [ -119.85923677223937, 39.619410933301687 ] } },
{ "type": "Feature", "properties": { "NAME": "SKY VISTA VILLAGE 10B PHASE 3" }, "geometry": { "type": "Point", "coordinates": [ -119.876343349107387, 39.62844673610585 ] } },
{ "type": "Feature", "properties": { "NAME": "NORTHSTAR RANCH PHASE 3" }, "geometry": { "type": "Point", "coordinates": [ -119.809522188239612, 39.600566053831344 ] } },
{ "type": "Feature", "properties": { "NAME": "MOUNTAIN VIEW ESTATES 1B PHASE 3" }, "geometry": { "type": "Point", "coordinates": [ -119.814075650886508, 39.565248278406692 ] } },
{ "type": "Feature", "properties": { "NAME": "EAGLE'S NEST" }, "geometry": { "type": "Point", "coordinates": [ -119.826465647024492, 39.569240473367486 ] } },
{ "type": "Feature", "properties": { "NAME": "NORTHGATE 7C" }, "geometry": { "type": "Point", "coordinates": [ -119.886935655925328, 39.5307215915849 ] } },
{ "type": "Feature", "properties": { "NAME": "GREENFIELD BLOCK B" }, "geometry": { "type": "Point", "coordinates": [ -119.817282774041871, 39.48928683252317 ] } },
{ "type": "Feature", "properties": { "NAME": "STONEFIELD PHASE 4 VILLAGE 1B" }, "geometry": { "type": "Point", "coordinates": [ -119.855467298715922, 39.644400796609546 ] } },
{ "type": "Feature", "properties": { "NAME": "GRANITE HILLS 1" }, "geometry": { "type": "Point", "coordinates": [ -119.876932439671734, 39.639075414027808 ] } },
{ "type": "Feature", "properties": { "NAME": "DRISCOLL HILLS 2" }, "geometry": { "type": "Point", "coordinates": [ -119.847166044494969, 39.498747300313575 ] } },
{ "type": "Feature", "properties": { "NAME": "RIVERSIDE @ SOMERSETT" }, "geometry": { "type": "Point", "coordinates": [ -119.912319832065862, 39.524210586672069 ] } },
{ "type": "Feature", "properties": { "NAME": "CENTENNIAL PARK" }, "geometry": { "type": "Point", "coordinates": [ -119.801590052884549, 39.54850461383451 ] } },
{ "type": "Feature", "properties": { "NAME": "RIVERFRONT LOTS" }, "geometry": { "type": "Point", "coordinates": [ -119.810371407823766, 39.526477074373012 ] } },
{ "type": "Feature", "properties": { "NAME": "STEAMBOAT SPRINGS ESTATES 2" }, "geometry": { "type": "Point", "coordinates": [ -119.737638630505472, 39.387735469837672 ] } },
{ "type": "Feature", "properties": { "NAME": "MILLER ADDITION" }, "geometry": { "type": "Point", "coordinates": [ -119.821019228932954, 39.537902521296132 ] } },
{ "type": "Feature", "properties": { "NAME": "TRADITIONS AT CAUGHLIN RANCH 1" }, "geometry": { "type": "Point", "coordinates": [ -119.859430791784519, 39.484174406702891 ] } },
{ "type": "Feature", "properties": { "NAME": "PALISADES NORTH CONDOMINIUMS" }, "geometry": { "type": "Point", "coordinates": [ -119.758216923971744, 39.455843793682142 ] } },
{ "type": "Feature", "properties": { "NAME": "SKYLINE HEIGHTS 1" }, "geometry": { "type": "Point", "coordinates": [ -119.831078088233085, 39.489236309439192 ] } },
{ "type": "Feature", "properties": { "NAME": "LAKERIDGE TERRACE 2" }, "geometry": { "type": "Point", "coordinates": [ -119.810908708079424, 39.477103516833104 ] } },
{ "type": "Feature", "properties": { "NAME": "SILVER DOLLAR ESTATES AREA 1 PHASE 1" }, "geometry": { "type": "Point", "coordinates": [ -119.868708366221341, 39.620328557738212 ] } },
{ "type": "Feature", "properties": { "NAME": "NORTHGATE 16H" }, "geometry": { "type": "Point", "coordinates": [ -119.905631677692213, 39.525764766885445 ] } },
{ "type": "Feature", "properties": { "NAME": "CAMELOT ESTATES 2" }, "geometry": { "type": "Point", "coordinates": [ -119.841154520007223, 39.499895376721852 ] } },
{ "type": "Feature", "properties": { "NAME": "DONNER SPRINGS 2B" }, "geometry": { "type": "Point", "coordinates": [ -119.753319032148397, 39.485785584882819 ] } },
{ "type": "Feature", "properties": { "NAME": "ROYAL HEIGHTS 2" }, "geometry": { "type": "Point", "coordinates": [ -119.840844811411188, 39.534898344240574 ] } },
{ "type": "Feature", "properties": { "NAME": "ALUM CREEK PATIO HOMES 2" }, "geometry": { "type": "Point", "coordinates": [ -119.857754280759067, 39.508312233241405 ] } },
{ "type": "Feature", "properties": { "NAME": "LAKERIDGE TERRACE WEST 2" }, "geometry": { "type": "Point", "coordinates": [ -119.812572415805889, 39.477397988136246 ] } },
{ "type": "Feature", "properties": { "NAME": "TINY TEN TOWNHOME" }, "geometry": { "type": "Point", "coordinates": [ -119.800969462543819, 39.524064978295222 ] } },
{ "type": "Feature", "properties": { "NAME": "SILVER LAKE 1A" }, "geometry": { "type": "Point", "coordinates": [ -119.88662819551476, 39.624063114660032 ] } },
{ "type": "Feature", "properties": { "NAME": "NANCY HEIGHTS 2" }, "geometry": { "type": "Point", "coordinates": [ -119.851468585678873, 39.527832453131062 ] } },
{ "type": "Feature", "properties": { "NAME": "BACKER TRUST PROPERTY 1" }, "geometry": { "type": "Point", "coordinates": [ -119.881119654276489, 39.520917421993531 ] } },
{ "type": "Feature", "properties": { "NAME": "GOLDEN HIGHLANDS PHASE 5" }, "geometry": { "type": "Point", "coordinates": [ -119.824762879805306, 39.599203724620693 ] } },
{ "type": "Feature", "properties": { "NAME": "FERTILE ACRES" }, "geometry": { "type": "Point", "coordinates": [ -119.89241878430073, 39.50850611952756 ] } },
{ "type": "Feature", "properties": { "NAME": "SOMERSETT VILLAGE 6C" }, "geometry": { "type": "Point", "coordinates": [ -119.947117465852486, 39.540058928509666 ] } },
{ "type": "Feature", "properties": { "NAME": "CORONET 1" }, "geometry": { "type": "Point", "coordinates": [ -119.845386273891577, 39.508092907653754 ] } },
{ "type": "Feature", "properties": { "NAME": "DOUBLE DIAMOND RANCH VILLAGE 17A" }, "geometry": { "type": "Point", "coordinates": [ -119.749876114751757, 39.428985384526577 ] } },
{ "type": "Feature", "properties": { "NAME": "SIERRA HIGHLANDS 7" }, "geometry": { "type": "Point", "coordinates": [ -119.871999315694055, 39.528028971666572 ] } },
{ "type": "Feature", "properties": { "NAME": "BELLA VISTA VILLAGE A UNIT 2" }, "geometry": { "type": "Point", "coordinates": [ -119.730623152605574, 39.447433192684635 ] } },
{ "type": "Feature", "properties": { "NAME": "SKYLINE HEIGHTS 2" }, "geometry": { "type": "Point", "coordinates": [ -119.833040450326365, 39.48636992661703 ] } },
{ "type": "Feature", "properties": { "NAME": "SIERRA CANYON AT SOMERSETT VILLAGE 9" }, "geometry": { "type": "Point", "coordinates": [ -119.952048405602028, 39.521886669651735 ] } },
{ "type": "Feature", "properties": { "NAME": "WILD STALLION ESTATES #4A" }, "geometry": { "type": "Point", "coordinates": [ -119.842682390305498, 39.609413423115384 ] } },
{ "type": "Feature", "properties": { "NAME": "DAMONTE RANCH V VILLAGES 1 & 2 UNIT 2B" }, "geometry": { "type": "Point", "coordinates": [ -119.732481497659563, 39.433077152645843 ] } },
{ "type": "Feature", "properties": { "NAME": "NORTHGATE 7A" }, "geometry": { "type": "Point", "coordinates": [ -119.886081058231198, 39.53158105972625 ] } },
{ "type": "Feature", "properties": { "NAME": "NORTHGATE 4A" }, "geometry": { "type": "Point", "coordinates": [ -119.892223371546251, 39.528622451658187 ] } },
{ "type": "Feature", "properties": { "NAME": "GOLDEN HILLS PHASE 2A" }, "geometry": { "type": "Point", "coordinates": [ -119.707579062782912, 39.42799546071754 ] } },
{ "type": "Feature", "properties": { "NAME": "CIMARRON 2" }, "geometry": { "type": "Point", "coordinates": [ -119.843199508138269, 39.547675211317504 ] } },
{ "type": "Feature", "properties": { "NAME": "SKY VISTA COMMONS" }, "geometry": { "type": "Point", "coordinates": [ -119.870145266909716, 39.626673971422846 ] } },
{ "type": "Feature", "properties": { "NAME": "MOUNTAIN VIEW ESTATES 1B PHASE 2" }, "geometry": { "type": "Point", "coordinates": [ -119.813368998997774, 39.565285016835745 ] } },
{ "type": "Feature", "properties": { "NAME": "SOMERSETT VILLAGE 5D PHASE 3" }, "geometry": { "type": "Point", "coordinates": [ -119.947534847205375, 39.528753360941806 ] } },
{ "type": "Feature", "properties": { "NAME": "SJ RANCH 4" }, "geometry": { "type": "Point", "coordinates": [ -119.777462658582493, 39.456127347445999 ] } },
{ "type": "Feature", "properties": { "NAME": "GRAND SUMMIT" }, "geometry": { "type": "Point", "coordinates": [ -119.875438700500965, 39.520302033965656 ] } },
{ "type": "Feature", "properties": { "NAME": "SUN ACRES 1" }, "geometry": { "type": "Point", "coordinates": [ -119.779759296264515, 39.484039178465501 ] } },
{ "type": "Feature", "properties": { "NAME": "AUTUMN RIDGE PHASE 1 @ SOMERSETT" }, "geometry": { "type": "Point", "coordinates": [ -119.91652314032649, 39.534625398530771 ] } },
{ "type": "Feature", "properties": { "NAME": "CAMELOT ESTATES 4" }, "geometry": { "type": "Point", "coordinates": [ -119.848067385366804, 39.497034995732257 ] } },
{ "type": "Feature", "properties": { "NAME": "RIO VISTA HEIGHTS" }, "geometry": { "type": "Point", "coordinates": [ -119.818768045521324, 39.520860219197949 ] } },
{ "type": "Feature", "properties": { "NAME": "VISTA LA JOLLA" }, "geometry": { "type": "Point", "coordinates": [ -119.840743456771762, 39.543372591871218 ] } },
{ "type": "Feature", "properties": { "NAME": "STODDARD ADDITION" }, "geometry": { "type": "Point", "coordinates": [ -119.826887125221162, 39.521205219476222 ] } },
{ "type": "Feature", "properties": { "NAME": "HERITAGE ON THE GREEN 3" }, "geometry": { "type": "Point", "coordinates": [ -119.85294720682964, 39.48109306699331 ] } },
{ "type": "Feature", "properties": { "NAME": "SOMERSETT TOWN CENTER RESIDENTIAL PHASE 2" }, "geometry": { "type": "Point", "coordinates": [ -119.913045998128268, 39.530390985000381 ] } },
{ "type": "Feature", "properties": { "NAME": "SOUTH VIRGINIA ROAD" }, "geometry": { "type": "Point", "coordinates": [ -119.783788205277304, 39.466819305595926 ] } },
{ "type": "Feature", "properties": { "NAME": "G. CURTI RANCH - UNIT 6" }, "geometry": { "type": "Point", "coordinates": [ -119.739017503016186, 39.404033739452842 ] } },
{ "type": "Feature", "properties": { "NAME": "WEST PLUMB LANE ESTATES 3" }, "geometry": { "type": "Point", "coordinates": [ -119.854922949760081, 39.498910997958639 ] } },
{ "type": "Feature", "properties": { "NAME": "SIERRA HEIGHTS 7A" }, "geometry": { "type": "Point", "coordinates": [ -119.84628942634393, 39.534016840660399 ] } },
{ "type": "Feature", "properties": { "NAME": "EDGEWATER 4" }, "geometry": { "type": "Point", "coordinates": [ -119.859603678376573, 39.509634319711537 ] } },
{ "type": "Feature", "properties": { "NAME": "NORTHGATE 17D" }, "geometry": { "type": "Point", "coordinates": [ -119.899702240365229, 39.544663147254624 ] } },
{ "type": "Feature", "properties": { "NAME": "HILLVIEW TERRACE" }, "geometry": { "type": "Point", "coordinates": [ -119.805389128039167, 39.547930143037242 ] } },
{ "type": "Feature", "properties": { "NAME": "SILVER SHORES 9" }, "geometry": { "type": "Point", "coordinates": [ -119.907199086724518, 39.633036097723583 ] } },
{ "type": "Feature", "properties": { "NAME": "CAMPUS HEIGHTS ADDITION" }, "geometry": { "type": "Point", "coordinates": [ -119.818367107519052, 39.541296698088921 ] } },
{ "type": "Feature", "properties": { "NAME": "GLENMANOR 1" }, "geometry": { "type": "Point", "coordinates": [ -119.804892927613466, 39.503443777283174 ] } },
{ "type": "Feature", "properties": { "NAME": "MANOR KNOLL" }, "geometry": { "type": "Point", "coordinates": [ -119.827660965316468, 39.508745761141299 ] } },
{ "type": "Feature", "properties": { "NAME": "PANTHER VALLEY ESTATES" }, "geometry": { "type": "Point", "coordinates": [ -119.824166714562779, 39.591278607191107 ] } },
{ "type": "Feature", "properties": { "NAME": "UNIVERSITY RIDGE 3" }, "geometry": { "type": "Point", "coordinates": [ -119.814702190865688, 39.559370470814727 ] } },
{ "type": "Feature", "properties": { "NAME": "PARKSIDE" }, "geometry": { "type": "Point", "coordinates": [ -119.835434704741729, 39.518572332133168 ] } },
{ "type": "Feature", "properties": { "NAME": "NORTH VALLEY ESTATES UNIT 3 PHASE 2" }, "geometry": { "type": "Point", "coordinates": [ -119.848124365211987, 39.642386315756056 ] } },
{ "type": "Feature", "properties": { "NAME": "TOWN OF RENO" }, "geometry": { "type": "Point", "coordinates": [ -119.813141661390418, 39.52978878440436 ] } },
{ "type": "Feature", "properties": { "NAME": "SILVERADO RANCH ESTATES 1B" }, "geometry": { "type": "Point", "coordinates": [ -119.87946323868286, 39.54430742385685 ] } },
{ "type": "Feature", "properties": { "NAME": "DOUBLE DIAMOND RANCH VILLAGE 28B" }, "geometry": { "type": "Point", "coordinates": [ -119.738284759261774, 39.449856985272405 ] } },
{ "type": "Feature", "properties": { "NAME": "RENO VISTA 1" }, "geometry": { "type": "Point", "coordinates": [ -119.857609810569045, 39.522456505410879 ] } },
{ "type": "Feature", "properties": { "NAME": "PEAVINE ESTATE" }, "geometry": { "type": "Point", "coordinates": [ -119.880179876415085, 39.63277152179807 ] } },
{ "type": "Feature", "properties": { "NAME": "SBE 64 @ SOMERSETT" }, "geometry": { "type": "Point", "coordinates": [ -119.945209822954936, 39.525975603095247 ] } },
{ "type": "Feature", "properties": { "NAME": "MAYBERRY MEADOWS 3" }, "geometry": { "type": "Point", "coordinates": [ -119.855685263330642, 39.502611340662902 ] } },
{ "type": "Feature", "properties": { "NAME": "RANCHARRAH VILLAGES 1,2,& 3" }, "geometry": { "type": "Point", "coordinates": [ -119.799452690233451, 39.471170372074646 ] } },
{ "type": "Feature", "properties": { "NAME": "SMITHRIDGE PARK TOWNHOUSES 4 UNIT 1" }, "geometry": { "type": "Point", "coordinates": [ -119.785366939707956, 39.480224942053638 ] } },
{ "type": "Feature", "properties": { "NAME": "WILLOW RANCH PHASE 2 @ SOMERSETT" }, "geometry": { "type": "Point", "coordinates": [ -119.926319947735337, 39.53375565299536 ] } },
{ "type": "Feature", "properties": { "NAME": "PLUMAS SOUTH" }, "geometry": { "type": "Point", "coordinates": [ -119.811321754479053, 39.497951842947685 ] } },
{ "type": "Feature", "properties": { "NAME": "EASTSIDE 2" }, "geometry": { "type": "Point", "coordinates": [ -119.745814341942207, 39.494948561858074 ] } },
{ "type": "Feature", "properties": { "NAME": "NEWPORT HEIGHTS" }, "geometry": { "type": "Point", "coordinates": [ -119.817737445326927, 39.587140635201848 ] } },
{ "type": "Feature", "properties": { "NAME": "PJ KELLY`S" }, "geometry": { "type": "Point", "coordinates": [ -119.791321380837928, 39.559989951956531 ] } },
{ "type": "Feature", "properties": { "NAME": "MCCAULEY RANCH ESTATES" }, "geometry": { "type": "Point", "coordinates": [ -119.709345422572824, 39.426062288133444 ] } },
{ "type": "Feature", "properties": { "NAME": "DOUBLE DIAMOND RANCH VILLAGE 11C" }, "geometry": { "type": "Point", "coordinates": [ -119.744512726080458, 39.44221925158903 ] } },
{ "type": "Feature", "properties": { "NAME": "SILVERADO RANCH ESTATES 11 PHASE 2" }, "geometry": { "type": "Point", "coordinates": [ -119.889991348395597, 39.544960273219303 ] } },
{ "type": "Feature", "properties": { "NAME": "WOODLAND VILLAGE PHASE 16" }, "geometry": { "type": "Point", "coordinates": [ -119.961759138932919, 39.694365383148067 ] } },
{ "type": "Feature", "properties": { "NAME": "SIERRA CANYON VILLAGE 11A" }, "geometry": { "type": "Point", "coordinates": [ -119.945674273844716, 39.518456126121976 ] } },
{ "type": "Feature", "properties": { "NAME": "DONNER SPRINGS 7" }, "geometry": { "type": "Point", "coordinates": [ -119.747248876281361, 39.473415137607489 ] } },
{ "type": "Feature", "properties": { "NAME": "NORTH VALLEY ESTATES UNIT 1" }, "geometry": { "type": "Point", "coordinates": [ -119.845716354208193, 39.63867846240678 ] } },
{ "type": "Feature", "properties": { "NAME": "RENADA CREST 1" }, "geometry": { "type": "Point", "coordinates": [ -119.803188772754183, 39.485841865342508 ] } },
{ "type": "Feature", "properties": { "NAME": "SOMERSETT VILLAGE 6A" }, "geometry": { "type": "Point", "coordinates": [ -119.950880971086505, 39.538878154084806 ] } },
{ "type": "Feature", "properties": { "NAME": "LAKERIDGE HEIGHTS" }, "geometry": { "type": "Point", "coordinates": [ -119.821169888638977, 39.478199643543 ] } },
{ "type": "Feature", "properties": { "NAME": "HAMPTON COURT ESTATES" }, "geometry": { "type": "Point", "coordinates": [ -119.879746284714685, 39.649942676501269 ] } },
{ "type": "Feature", "properties": { "NAME": "SBE 64 @ SOMERSETT" }, "geometry": { "type": "Point", "coordinates": [ -119.940491513656397, 39.523267460215976 ] } },
{ "type": "Feature", "properties": { "NAME": "NORTHGATE 3H" }, "geometry": { "type": "Point", "coordinates": [ -119.888816557485015, 39.520098446967786 ] } },
{ "type": "Feature", "properties": { "NAME": "SILVER SHORES 7" }, "geometry": { "type": "Point", "coordinates": [ -119.902333883201678, 39.627649264889726 ] } },
{ "type": "Feature", "properties": { "NAME": "BELLA VISTA RANCH VILLAGE C" }, "geometry": { "type": "Point", "coordinates": [ -119.725070367421665, 39.447651165084295 ] } },
{ "type": "Feature", "properties": { "NAME": "JONADA HEIGHTS ADDITION" }, "geometry": { "type": "Point", "coordinates": [ -119.831517043383855, 39.510975598723846 ] } },
{ "type": "Feature", "properties": { "NAME": "LAKERIDGE SPRINGS 2" }, "geometry": { "type": "Point", "coordinates": [ -119.823787319113251, 39.468467064181546 ] } },
{ "type": "Feature", "properties": { "NAME": "AMPHITHEATER 3" }, "geometry": { "type": "Point", "coordinates": [ -119.830778193791659, 39.53914196433459 ] } },
{ "type": "Feature", "properties": { "NAME": "STRADA FIORITA" }, "geometry": { "type": "Point", "coordinates": [ -119.837702165511573, 39.479061672489429 ] } },
{ "type": "Feature", "properties": { "NAME": "CARAMELLA RANCH ESTATES CONVENTIONAL VILLAGE" }, "geometry": { "type": "Point", "coordinates": [ -119.716607660161486, 39.411221362649151 ] } },
{ "type": "Feature", "properties": { "NAME": "MOUNTAINGATE PHASE 2-A2" }, "geometry": { "type": "Point", "coordinates": [ -119.762508506174768, 39.409569414309026 ] } },
{ "type": "Feature", "properties": { "NAME": "BELLI ADDITION" }, "geometry": { "type": "Point", "coordinates": [ -119.797261301659546, 39.518395348570685 ] } },
{ "type": "Feature", "properties": { "NAME": "REGENCY PARK II PHASE B1" }, "geometry": { "type": "Point", "coordinates": [ -119.87385599177027, 39.650281624970383 ] } },
{ "type": "Feature", "properties": { "NAME": "WILD STALLION ESTATES PHASE 2" }, "geometry": { "type": "Point", "coordinates": [ -119.837960997647585, 39.608883034034285 ] } },
{ "type": "Feature", "properties": { "NAME": "SIERRA HEIGHTS 5A" }, "geometry": { "type": "Point", "coordinates": [ -119.856308055663007, 39.540698286034512 ] } },
{ "type": "Feature", "properties": { "NAME": "PARKSIDE VISTA" }, "geometry": { "type": "Point", "coordinates": [ -119.838949619532386, 39.518238782579445 ] } },
{ "type": "Feature", "properties": { "NAME": "REVERSION OF TM 3321/3448" }, "geometry": { "type": "Point", "coordinates": [ -119.740269490831622, 39.48389102168337 ] } },
{ "type": "Feature", "properties": { "NAME": "DAMONTE RANCH VILLAGE 26A" }, "geometry": { "type": "Point", "coordinates": [ -119.724830588847141, 39.417298744836337 ] } },
{ "type": "Feature", "properties": { "NAME": "SIERRA CEDARS CONDOMINIUMS" }, "geometry": { "type": "Point", "coordinates": [ -119.79129229022152, 39.502428729089353 ] } },
{ "type": "Feature", "properties": { "NAME": "HORIZON HILLS 2" }, "geometry": { "type": "Point", "coordinates": [ -119.868292494045406, 39.605415760374484 ] } },
{ "type": "Feature", "properties": { "NAME": "MONTE VISTA VILLAGE" }, "geometry": { "type": "Point", "coordinates": [ -119.85921090953461, 39.516295280738042 ] } },
{ "type": "Feature", "properties": { "NAME": "WESTGATE" }, "geometry": { "type": "Point", "coordinates": [ -119.845934466764149, 39.539325354347625 ] } },
{ "type": "Feature", "properties": { "NAME": "PEAVINE HEIGHTS 3" }, "geometry": { "type": "Point", "coordinates": [ -119.852405805000799, 39.597219396599421 ] } },
{ "type": "Feature", "properties": { "NAME": "SIERRA LOMA 1" }, "geometry": { "type": "Point", "coordinates": [ -119.857609426362899, 39.534536124666673 ] } },
{ "type": "Feature", "properties": { "NAME": "WEST PLUMB LANE ESTATES 4" }, "geometry": { "type": "Point", "coordinates": [ -119.852755457326793, 39.494919990351271 ] } },
{ "type": "Feature", "properties": { "NAME": "LAKERIDGE SPRINGS 6" }, "geometry": { "type": "Point", "coordinates": [ -119.828701662547687, 39.468071469505716 ] } },
{ "type": "Feature", "properties": { "NAME": "SIERRA CANYON AT SOMERSETT VILLAGE 7" }, "geometry": { "type": "Point", "coordinates": [ -119.943350267172107, 39.521059046505393 ] } },
{ "type": "Feature", "properties": { "NAME": "SMITHRIDGE PARK TOWNHOUSES 4 UNIT 2" }, "geometry": { "type": "Point", "coordinates": [ -119.78468497044291, 39.479477761292536 ] } },
{ "type": "Feature", "properties": { "NAME": "SUN GARDEN CONDOMINUMS" }, "geometry": { "type": "Point", "coordinates": [ -119.808580838208684, 39.495030810592596 ] } },
{ "type": "Feature", "properties": { "NAME": "MONTE VISTA ESTATES" }, "geometry": { "type": "Point", "coordinates": [ -119.843285636719401, 39.544173092175029 ] } },
{ "type": "Feature", "properties": { "NAME": "DOUBLE DIAMOND RANCH VILLAGE 3" }, "geometry": { "type": "Point", "coordinates": [ -119.740136953226255, 39.440179815324882 ] } },
{ "type": "Feature", "properties": { "NAME": "COIT HEIGHTS 3" }, "geometry": { "type": "Point", "coordinates": [ -119.870029027707503, 39.540146917082652 ] } },
{ "type": "Feature", "properties": { "NAME": "HERON`S LANDING 2" }, "geometry": { "type": "Point", "coordinates": [ -119.739452948050854, 39.483324532613175 ] } },
{ "type": "Feature", "properties": { "NAME": "COUNTRY CLUB ESTATES 2" }, "geometry": { "type": "Point", "coordinates": [ -119.830125373954488, 39.491565087049047 ] } },
{ "type": "Feature", "properties": { "NAME": "SKY COUNTRY ESTATES 5" }, "geometry": { "type": "Point", "coordinates": [ -119.856457662543875, 39.545492163441239 ] } },
{ "type": "Feature", "properties": { "NAME": "STEARNS" }, "geometry": { "type": "Point", "coordinates": [ -119.79166580994513, 39.472718528327022 ] } },
{ "type": "Feature", "properties": { "NAME": "SIERRA HEIGHTS 3D" }, "geometry": { "type": "Point", "coordinates": [ -119.848978868388215, 39.5401820221308 ] } },
{ "type": "Feature", "properties": { "NAME": "NORTHERN LIGHTS 2" }, "geometry": { "type": "Point", "coordinates": [ -119.820228398531157, 39.580268312003895 ] } },
{ "type": "Feature", "properties": { "NAME": "MOUNTAINGATE PHASE 2-A3" }, "geometry": { "type": "Point", "coordinates": [ -119.761333178033624, 39.410309028159475 ] } },
{ "type": "Feature", "properties": { "NAME": "SILVER SHORES 6B" }, "geometry": { "type": "Point", "coordinates": [ -119.907609990676789, 39.627857228659337 ] } },
{ "type": "Feature", "properties": { "NAME": "UNIVERSITY HEIGHTS 2 PHASE 5" }, "geometry": { "type": "Point", "coordinates": [ -119.808539280366062, 39.553625771977764 ] } },
{ "type": "Feature", "properties": { "NAME": "ROLLING HILLS RANCHOS 3" }, "geometry": { "type": "Point", "coordinates": [ -119.809024639862642, 39.589471278296038 ] } },
{ "type": "Feature", "properties": { "NAME": "18 ON LAKESIDE TOWNHOMES" }, "geometry": { "type": "Point", "coordinates": [ -119.807202062776398, 39.488254045350772 ] } },
{ "type": "Feature", "properties": { "NAME": "DAMONTE RANCH VILLAGE 5-3" }, "geometry": { "type": "Point", "coordinates": [ -119.722795104896448, 39.433424664081528 ] } },
{ "type": "Feature", "properties": { "NAME": "AMENDED ROYAL HEIGHTS 5" }, "geometry": { "type": "Point", "coordinates": [ -119.841782315928313, 39.53888800907778 ] } },
{ "type": "Feature", "properties": { "NAME": "LEWIS LAKESIDE 4" }, "geometry": { "type": "Point", "coordinates": [ -119.803161966220813, 39.47180705252579 ] } },
{ "type": "Feature", "properties": { "NAME": "MOUNTAINGATE PHASE 3A" }, "geometry": { "type": "Point", "coordinates": [ -119.768017302034849, 39.409756812843533 ] } },
{ "type": "Feature", "properties": { "NAME": "MOUNTAIN VIEW ESTATES UNIT 3 PHASE 1" }, "geometry": { "type": "Point", "coordinates": [ -119.814730874660526, 39.564770388883339 ] } },
{ "type": "Feature", "properties": { "NAME": "SPYGLASS ESTATES 2" }, "geometry": { "type": "Point", "coordinates": [ -119.837650703659264, 39.494127538859637 ] } },
{ "type": "Feature", "properties": { "NAME": "SHORELINE VILLAS" }, "geometry": { "type": "Point", "coordinates": [ -119.839559650585244, 39.520529338636436 ] } },
{ "type": "Feature", "properties": { "NAME": "FITCH" }, "geometry": { "type": "Point", "coordinates": [ -119.827687924765897, 39.508332799198008 ] } },
{ "type": "Feature", "properties": { "NAME": "21 @ SOMERSETT" }, "geometry": { "type": "Point", "coordinates": [ -119.933283544168148, 39.536046451217167 ] } },
{ "type": "Feature", "properties": { "NAME": "SMITHRIDGE PARK TOWNHOUSES 2 ADDITION" }, "geometry": { "type": "Point", "coordinates": [ -119.783951134062647, 39.482547333137248 ] } },
{ "type": "Feature", "properties": { "NAME": "CANYON PINES PHASE 3" }, "geometry": { "type": "Point", "coordinates": [ -119.915416823825552, 39.546514883171682 ] } },
{ "type": "Feature", "properties": { "NAME": "MIRAVALLE PHASE 1" }, "geometry": { "type": "Point", "coordinates": [ -119.850487803862094, 39.60309203286409 ] } },
{ "type": "Feature", "properties": { "NAME": "VILLAGIO DELLA MONTAGNA PHASE 1" }, "geometry": { "type": "Point", "coordinates": [ -119.831871092844779, 39.470062774961825 ] } },
{ "type": "Feature", "properties": { "NAME": "WILD STALLION ESTATES #4A" }, "geometry": { "type": "Point", "coordinates": [ -119.840334015968295, 39.610616818840249 ] } },
{ "type": "Feature", "properties": { "NAME": "JUBILEE" }, "geometry": { "type": "Point", "coordinates": [ -119.795624137131938, 39.507872983811161 ] } },
{ "type": "Feature", "properties": { "NAME": "CASAZZA RANCH ESTATES 6" }, "geometry": { "type": "Point", "coordinates": [ -119.778491376577534, 39.441708196652733 ] } },