{
"type": "FeatureCollection",
"name": "nc_hospitals",
"crs": { "type": "name", "properties": { "name": "urn:ogc:def:crs:OGC:1.3:CRS84" } },
"features": [
{ "type": "Feature", "properties": { "OBJECTID": 1031, "ID": "0011527962", "NAME": "WASHINGTON COUNTY HOSPITAL", "ADDRESS": "958 U S HIGHWAY 64 EAST", "CITY": "PLYMOUTH", "STATE": "NC", "ZIP": "27962", "ZIP4": "NOT AVAILABLE", "TELEPHONE": "(252) 793-4135", "TYPE": "GENERAL ACUTE CARE", "STATUS": "OPEN", "POPULATION": 49, "COUNTY": "WASHINGTON", "COUNTYFIPS": "37187", "COUNTRY": "USA", "LATITUDE": 35.862782083000099, "LONGITUDE": -76.729283680999998, "NAICS_CODE": "622110", "NAICS_DESC": "GENERAL MEDICAL AND SURGICAL HOSPITALS", "SOURCE": "https:\/\/www2.ncdhhs.gov\/dhsr\/reports.htm", "SOURCEDATE": "2018-08-10T00:00:00.000Z", "VAL_METHOD": "IMAGERY\/OTHER", "VAL_DATE": "2014-02-11T00:00:00.000Z", "WEBSITE": "wch.hmccah.com\/â€Ž", "STATE_ID": "NOT AVAILABLE", "ALT_NAME": "NOT AVAILABLE", "ST_FIPS": "37", "OWNER": "GOVERNMENT - LOCAL", "TTL_STAFF": -999, "BEDS": 49, "TRAUMA": "NOT AVAILABLE", "HELIPAD": "N" }, "geometry": { "type": "Point", "coordinates": [ -76.729283680999956, 35.862782083000063 ] } },
{ "type": "Feature", "properties": { "OBJECTID": 1179, "ID": "0002228078", "NAME": "NOVANT HEALTH HUNTERSVILLE MEDICAL CENTER", "ADDRESS": "10030 GILEAD ROAD", "CITY": "HUNTERSVILLE", "STATE": "NC", "ZIP": "28078", "ZIP4": "NOT AVAILABLE", "TELEPHONE": "(704) 316-4010", "TYPE": "GENERAL ACUTE CARE", "STATUS": "OPEN", "POPULATION": 91, "COUNTY": "MECKLENBURG", "COUNTYFIPS": "37119", "COUNTRY": "USA", "LATITUDE": 35.406444182000001, "LONGITUDE": -80.860260894999996, "NAICS_CODE": "622110", "NAICS_DESC": "GENERAL MEDICAL AND SURGICAL HOSPITALS", "SOURCE": "https:\/\/www2.ncdhhs.gov\/dhsr\/reports.htm", "SOURCEDATE": "2018-08-10T00:00:00.000Z", "VAL_METHOD": "IMAGERY\/OTHER", "VAL_DATE": "2014-02-10T00:00:00.000Z", "WEBSITE": "https:\/\/www.novanthealth.org\/huntersville-medical-center.aspx", "STATE_ID": "NOT AVAILABLE", "ALT_NAME": "HUNTERSVILLE MEDICAL CENTER", "ST_FIPS": "37", "OWNER": "NON-PROFIT", "TTL_STAFF": -999, "BEDS": 91, "TRAUMA": "NOT AVAILABLE", "HELIPAD": "Y" }, "geometry": { "type": "Point", "coordinates": [ -80.860260894999968, 35.40644418200003 ] } },
{ "type": "Feature", "properties": { "OBJECTID": 1180, "ID": "0002328106", "NAME": "NOVANT HEALTH MATTHEWS MEDICAL CENTER", "ADDRESS": "1500 MATTHEWS TOWNSHIP PARKWAY", "CITY": "MATTHEWS", "STATE": "NC", "ZIP": "28106", "ZIP4": "NOT AVAILABLE", "TELEPHONE": "(704) 384-6370", "TYPE": "GENERAL ACUTE CARE", "STATUS": "OPEN", "POPULATION": 146, "COUNTY": "MECKLENBURG", "COUNTYFIPS": "37119", "COUNTRY": "USA", "LATITUDE": 35.119984807999998, "LONGITUDE": -80.714078412999996, "NAICS_CODE": "622110", "NAICS_DESC": "GENERAL MEDICAL AND SURGICAL HOSPITALS", "SOURCE": "https:\/\/www2.ncdhhs.gov\/dhsr\/reports.htm", "SOURCEDATE": "2018-08-10T00:00:00.000Z", "VAL_METHOD": "IMAGERY\/OTHER", "VAL_DATE": "2014-02-10T00:00:00.000Z", "WEBSITE": "https:\/\/www.novanthealth.org\/matthews-medical-center.aspx", "STATE_ID": "NOT AVAILABLE", "ALT_NAME": "MATTHEWS MEDICAL CENTER", "ST_FIPS": "37", "OWNER": "NON-PROFIT", "TTL_STAFF": -999, "BEDS": 146, "TRAUMA": "NOT AVAILABLE", "HELIPAD": "Y" }, "geometry": { "type": "Point", "coordinates": [ -80.714078412999982, 35.119984808000019 ] } },
{ "type": "Feature", "properties": { "OBJECTID": 1181, "ID": "0009228207", "NAME": "NOVANT HOSPITAL CHARLOTTE ORTHOPEDIC HOSPITAL", "ADDRESS": "1901 RANDOLPH RD", "CITY": "CHARLOTTE", "STATE": "NC", "ZIP": "28207", "ZIP4": "NOT AVAILABLE", "TELEPHONE": "(704) 316-2000", "TYPE": "GENERAL ACUTE CARE", "STATUS": "OPEN", "POPULATION": 80, "COUNTY": "MECKLENBURG", "COUNTYFIPS": "37119", "COUNTRY": "USA", "LATITUDE": 35.210797601000003, "LONGITUDE": -80.823521516, "NAICS_CODE": "622110", "NAICS_DESC": "GENERAL MEDICAL AND SURGICAL HOSPITALS", "SOURCE": "https:\/\/www2.ncdhhs.gov\/dhsr\/reports.htm", "SOURCEDATE": "2018-08-10T00:00:00.000Z", "VAL_METHOD": "IMAGERY\/OTHER", "VAL_DATE": "2014-02-10T00:00:00.000Z", "WEBSITE": "https:\/\/www.novanthealth.org\/charlotte-orthopedic-hospital.aspx", "STATE_ID": "NOT AVAILABLE", "ALT_NAME": "CHARLOTTE ORTHOPEDIC HOSPITAL", "ST_FIPS": "37", "OWNER": "NON-PROFIT", "TTL_STAFF": -999, "BEDS": 80, "TRAUMA": "NOT AVAILABLE", "HELIPAD": "Y" }, "geometry": { "type": "Point", "coordinates": [ -80.823521515999971, 35.210797601000024 ] } },
{ "type": "Feature", "properties": { "OBJECTID": 1182, "ID": "0009728144", "NAME": "NOVANT HEALTH ROWAN MEDICAL CENTER", "ADDRESS": "612 MOCKSVILLE AVE", "CITY": "SALISBURY", "STATE": "NC", "ZIP": "28144", "ZIP4": "NOT AVAILABLE", "TELEPHONE": "(704) 210-5000", "TYPE": "GENERAL ACUTE CARE", "STATUS": "OPEN", "POPULATION": 268, "COUNTY": "ROWAN", "COUNTYFIPS": "37159", "COUNTRY": "USA", "LATITUDE": 35.681269842000098, "LONGITUDE": -80.470707938000004, "NAICS_CODE": "622110", "NAICS_DESC": "GENERAL MEDICAL AND SURGICAL HOSPITALS", "SOURCE": "https:\/\/www2.ncdhhs.gov\/dhsr\/reports.htm", "SOURCEDATE": "2018-08-10T00:00:00.000Z", "VAL_METHOD": "IMAGERY\/OTHER", "VAL_DATE": "2014-02-10T00:00:00.000Z", "WEBSITE": "https:\/\/www.novanthealth.org\/rowan-medical-center.aspx", "STATE_ID": "NOT AVAILABLE", "ALT_NAME": "ROWAN REGIONAL MEDICAL CENTER", "ST_FIPS": "37", "OWNER": "NON-PROFIT", "TTL_STAFF": -999, "BEDS": 268, "TRAUMA": "NOT AVAILABLE", "HELIPAD": "Y" }, "geometry": { "type": "Point", "coordinates": [ -80.470707937999975, 35.681269842000056 ] } },
{ "type": "Feature", "properties": { "OBJECTID": 1183, "ID": "0003428337", "NAME": "CAPE FEAR VALLEY - BLADEN COUNTY HOSPITAL", "ADDRESS": "501 SOUTH POPLAR STREET", "CITY": "ELIZABETHTOWN", "STATE": "NC", "ZIP": "28337", "ZIP4": "NOT AVAILABLE", "TELEPHONE": "(910) 862-5179", "TYPE": "GENERAL ACUTE CARE", "STATUS": "OPEN", "POPULATION": 58, "COUNTY": "BLADEN", "COUNTYFIPS": "37017", "COUNTRY": "USA", "LATITUDE": 34.622433926, "LONGITUDE": -78.608004487000002, "NAICS_CODE": "622110", "NAICS_DESC": "GENERAL MEDICAL AND SURGICAL HOSPITALS", "SOURCE": "https:\/\/www2.ncdhhs.gov\/dhsr\/reports.htm", "SOURCEDATE": "2018-08-10T00:00:00.000Z", "VAL_METHOD": "IMAGERY\/OTHER", "VAL_DATE": "2014-02-10T00:00:00.000Z", "WEBSITE": "http:\/\/www.capefearvalley.com\/bladen\/home.html", "STATE_ID": "NOT AVAILABLE", "ALT_NAME": "BLADEN COUNTY HOSPITAL", "ST_FIPS": "37", "OWNER": "NON-PROFIT", "TTL_STAFF": -999, "BEDS": 58, "TRAUMA": "NOT AVAILABLE", "HELIPAD": "Y" }, "geometry": { "type": "Point", "coordinates": [ -78.60800448699996, 34.622433926000035 ] } },
{ "type": "Feature", "properties": { "OBJECTID": 1184, "ID": "0002427906", "NAME": "SENTARA ALBEMARLE MEDICAL CENTER", "ADDRESS": "1144 NORTH ROAD STREET", "CITY": "ELIZABETH CITY", "STATE": "NC", "ZIP": "27906", "ZIP4": "NOT AVAILABLE", "TELEPHONE": "(252) 384-4600", "TYPE": "GENERAL ACUTE CARE", "STATUS": "OPEN", "POPULATION": 182, "COUNTY": "PASQUOTANK", "COUNTYFIPS": "37139", "COUNTRY": "USA", "LATITUDE": 36.323596314, "LONGITUDE": -76.217933328999905, "NAICS_CODE": "622110", "NAICS_DESC": "GENERAL MEDICAL AND SURGICAL HOSPITALS", "SOURCE": "https:\/\/www2.ncdhhs.gov\/dhsr\/reports.htm", "SOURCEDATE": "2018-08-10T00:00:00.000Z", "VAL_METHOD": "IMAGERY\/OTHER", "VAL_DATE": "2014-02-10T00:00:00.000Z", "WEBSITE": "http:\/\/www.sentara.com\/albemarle-north-carolina\/default.aspx", "STATE_ID": "NOT AVAILABLE", "ALT_NAME": "ALBEMARLE HOSPITAL", "ST_FIPS": "37", "OWNER": "NON-PROFIT", "TTL_STAFF": -999, "BEDS": 182, "TRAUMA": "NOT AVAILABLE", "HELIPAD": "Y" }, "geometry": { "type": "Point", "coordinates": [ -76.217933328999948, 36.323596314000035 ] } },
{ "type": "Feature", "properties": { "OBJECTID": 1185, "ID": "0008728086", "NAME": "CAROLINAS HEALTHCARE SYSTEM KINGS MOUNTAIN", "ADDRESS": "706 WEST KING STREET", "CITY": "KINGS MOUNTAIN", "STATE": "NC", "ZIP": "28086", "ZIP4": "NOT AVAILABLE", "TELEPHONE": "(704) 739-3601", "TYPE": "GENERAL ACUTE CARE", "STATUS": "OPEN", "POPULATION": 102, "COUNTY": "CLEVELAND", "COUNTYFIPS": "37045", "COUNTRY": "USA", "LATITUDE": 35.241560535000097, "LONGITUDE": -81.357057955000002, "NAICS_CODE": "622110", "NAICS_DESC": "GENERAL MEDICAL AND SURGICAL HOSPITALS", "SOURCE": "https:\/\/www2.ncdhhs.gov\/dhsr\/reports.htm", "SOURCEDATE": "2018-08-10T00:00:00.000Z", "VAL_METHOD": "IMAGERY\/OTHER", "VAL_DATE": "2014-02-10T00:00:00.000Z", "WEBSITE": "http:\/\/www.carolinashealthcare.org\/kings-mountain", "STATE_ID": "NOT AVAILABLE", "ALT_NAME": "KINGS MOUNTAIN HOSPITAL", "ST_FIPS": "37", "OWNER": "NON-PROFIT", "TTL_STAFF": -999, "BEDS": 102, "TRAUMA": "NOT AVAILABLE", "HELIPAD": "Y" }, "geometry": { "type": "Point", "coordinates": [ -81.357057954999945, 35.241560535000069 ] } },
{ "type": "Feature", "properties": { "OBJECTID": 1186, "ID": "0006328349", "NAME": "VIDANT DUPLIN HOSPITAL", "ADDRESS": "401 NORTH MAIN ST", "CITY": "KENANSVILLE", "STATE": "NC", "ZIP": "28349", "ZIP4": "NOT AVAILABLE", "TELEPHONE": "(910) 296-0941", "TYPE": "GENERAL ACUTE CARE", "STATUS": "OPEN", "POPULATION": 101, "COUNTY": "DUPLIN", "COUNTYFIPS": "37061", "COUNTRY": "USA", "LATITUDE": 34.965279678999998, "LONGITUDE": -77.961913308999996, "NAICS_CODE": "622110", "NAICS_DESC": "GENERAL MEDICAL AND SURGICAL HOSPITALS", "SOURCE": "https:\/\/www2.ncdhhs.gov\/dhsr\/reports.htm", "SOURCEDATE": "2018-08-10T00:00:00.000Z", "VAL_METHOD": "IMAGERY\/OTHER", "VAL_DATE": "2014-02-10T00:00:00.000Z", "WEBSITE": "https:\/\/www.vidanthealth.com\/duplin\/default.aspx", "STATE_ID": "NOT AVAILABLE", "ALT_NAME": "NOT AVAILABLE", "ST_FIPS": "37", "OWNER": "NON-PROFIT", "TTL_STAFF": -999, "BEDS": 101, "TRAUMA": "NOT AVAILABLE", "HELIPAD": "Y" }, "geometry": { "type": "Point", "coordinates": [ -77.961913308999954, 34.965279679000048 ] } },
{ "type": "Feature", "properties": { "OBJECTID": 1187, "ID": "0000527103", "NAME": "NOVANT HEALTH MEDICAL PARK HOSPITAL", "ADDRESS": "1950 SOUTH HAWTHORNE RD", "CITY": "WINSTON SALEM", "STATE": "NC", "ZIP": "27103", "ZIP4": "NOT AVAILABLE", "TELEPHONE": "(336) 718-0600", "TYPE": "GENERAL ACUTE CARE", "STATUS": "OPEN", "POPULATION": 22, "COUNTY": "FORSYTH", "COUNTYFIPS": "37067", "COUNTRY": "USA", "LATITUDE": 36.078945147000098, "LONGITUDE": -80.296194462999907, "NAICS_CODE": "622110", "NAICS_DESC": "GENERAL MEDICAL AND SURGICAL HOSPITALS", "SOURCE": "https:\/\/www2.ncdhhs.gov\/dhsr\/reports.htm", "SOURCEDATE": "2018-08-10T00:00:00.000Z", "VAL_METHOD": "IMAGERY\/OTHER", "VAL_DATE": "2014-02-10T00:00:00.000Z", "WEBSITE": "http:\/\/www.novanthealth.org", "STATE_ID": "NOT AVAILABLE", "ALT_NAME": "NOT AVAILABLE", "ST_FIPS": "37", "OWNER": "NON-PROFIT", "TTL_STAFF": -999, "BEDS": 22, "TRAUMA": "NOT AVAILABLE", "HELIPAD": "Y" }, "geometry": { "type": "Point", "coordinates": [ -80.296194462999949, 36.078945147000063 ] } },
{ "type": "Feature", "properties": { "OBJECTID": 1188, "ID": "0008527577", "NAME": "JOHNSTON MEDICAL CENTER - SMITHFIELD", "ADDRESS": "509 N. BRIGHT LEAF BLVD.", "CITY": "SMITHFIELD", "STATE": "NC", "ZIP": "27577", "ZIP4": "NOT AVAILABLE", "TELEPHONE": "(919) 934-8171", "TYPE": "GENERAL ACUTE CARE", "STATUS": "OPEN", "POPULATION": 199, "COUNTY": "JOHNSTON", "COUNTYFIPS": "37101", "COUNTRY": "USA", "LATITUDE": 35.514414576, "LONGITUDE": -78.334980779000006, "NAICS_CODE": "622110", "NAICS_DESC": "GENERAL MEDICAL AND SURGICAL HOSPITALS", "SOURCE": "https:\/\/www2.ncdhhs.gov\/dhsr\/reports.htm", "SOURCEDATE": "2018-08-10T00:00:00.000Z", "VAL_METHOD": "IMAGERY\/OTHER", "VAL_DATE": "2014-02-10T00:00:00.000Z", "WEBSITE": "http:\/\/www.johnstonhealth.org\/", "STATE_ID": "NOT AVAILABLE", "ALT_NAME": "NOT AVAILABLE", "ST_FIPS": "37", "OWNER": "GOVERNMENT - DISTRICT\/AUTHORITY", "TTL_STAFF": -999, "BEDS": 199, "TRAUMA": "NOT AVAILABLE", "HELIPAD": "Y" }, "geometry": { "type": "Point", "coordinates": [ -78.334980778999977, 35.514414576000036 ] } },
{ "type": "Feature", "properties": { "OBJECTID": 1189, "ID": "0010728752", "NAME": "MCDOWELL HOSPITAL", "ADDRESS": "430 RANKIN DRIVE", "CITY": "MARION", "STATE": "NC", "ZIP": "28752", "ZIP4": "NOT AVAILABLE", "TELEPHONE": "(828) 659-5000", "TYPE": "GENERAL ACUTE CARE", "STATUS": "OPEN", "POPULATION": 65, "COUNTY": "MCDOWELL", "COUNTYFIPS": "37111", "COUNTRY": "USA", "LATITUDE": 35.66339557, "LONGITUDE": -82.02847628000001, "NAICS_CODE": "622110", "NAICS_DESC": "GENERAL MEDICAL AND SURGICAL HOSPITALS", "SOURCE": "https:\/\/www2.ncdhhs.gov\/dhsr\/reports.htm", "SOURCEDATE": "2018-08-10T00:00:00.000Z", "VAL_METHOD": "IMAGERY", "VAL_DATE": "2014-02-10T00:00:00.000Z", "WEBSITE": "http:\/\/www.mcdhospital.org", "STATE_ID": "NOT AVAILABLE", "ALT_NAME": "NOT AVAILABLE", "ST_FIPS": "37", "OWNER": "NON-PROFIT", "TTL_STAFF": -999, "BEDS": 65, "TRAUMA": "NOT AVAILABLE", "HELIPAD": "Y" }, "geometry": { "type": "Point", "coordinates": [ -82.0284762799999, 35.663395570000034 ] } },
{ "type": "Feature", "properties": { "OBJECTID": 1190, "ID": "0000228791", "NAME": "MARGARET R. PARDEE MEMORIAL HOSPITAL", "ADDRESS": "800 NORTH JUSTICE STREET", "CITY": "HENDERSONVILLE", "STATE": "NC", "ZIP": "28791", "ZIP4": "NOT AVAILABLE", "TELEPHONE": "(828) 696-1000", "TYPE": "GENERAL ACUTE CARE", "STATUS": "OPEN", "POPULATION": 222, "COUNTY": "HENDERSON", "COUNTYFIPS": "37089", "COUNTRY": "USA", "LATITUDE": 35.320314361999998, "LONGITUDE": -82.467080417999995, "NAICS_CODE": "622110", "NAICS_DESC": "GENERAL MEDICAL AND SURGICAL HOSPITALS", "SOURCE": "https:\/\/www2.ncdhhs.gov\/dhsr\/reports.htm", "SOURCEDATE": "2018-08-10T00:00:00.000Z", "VAL_METHOD": "IMAGERY\/OTHER", "VAL_DATE": "2014-02-10T00:00:00.000Z", "WEBSITE": "http:\/\/www.pardeehospital.org", "STATE_ID": "NOT AVAILABLE", "ALT_NAME": "NOT AVAILABLE", "ST_FIPS": "37", "OWNER": "GOVERNMENT - LOCAL", "TTL_STAFF": -999, "BEDS": 222, "TRAUMA": "NOT AVAILABLE", "HELIPAD": "Y" }, "geometry": { "type": "Point", "coordinates": [ -82.467080417999966, 35.32031436200004 ] } },
{ "type": "Feature", "properties": { "OBJECTID": 1191, "ID": "0007628721", "NAME": "HAYWOOD REGIONAL MEDICAL CENTER", "ADDRESS": "262 LEROY GEORGE DRIVE", "CITY": "CLYDE", "STATE": "NC", "ZIP": "28721", "ZIP4": "NOT AVAILABLE", "TELEPHONE": "(828) 456-7311", "TYPE": "GENERAL ACUTE CARE", "STATUS": "OPEN", "POPULATION": 190, "COUNTY": "HAYWOOD", "COUNTYFIPS": "37087", "COUNTRY": "USA", "LATITUDE": 35.525381277000101, "LONGITUDE": -82.942508883999906, "NAICS_CODE": "622110", "NAICS_DESC": "GENERAL MEDICAL AND SURGICAL HOSPITALS", "SOURCE": "https:\/\/www2.ncdhhs.gov\/dhsr\/reports.htm", "SOURCEDATE": "2018-08-10T00:00:00.000Z", "VAL_METHOD": "IMAGERY\/OTHER", "VAL_DATE": "2014-02-10T00:00:00.000Z", "WEBSITE": "http:\/\/www.myhaywoodregional.com\/", "STATE_ID": "NOT AVAILABLE", "ALT_NAME": "MEDWEST - HAYWOOD", "ST_FIPS": "37", "OWNER": "GOVERNMENT - DISTRICT\/AUTHORITY", "TTL_STAFF": -999, "BEDS": 190, "TRAUMA": "NOT AVAILABLE", "HELIPAD": "Y" }, "geometry": { "type": "Point", "coordinates": [ -82.942508883999949, 35.525381277000065 ] } },
{ "type": "Feature", "properties": { "OBJECTID": 1192, "ID": "0001627874", "NAME": "OUR COMMUNITY HOSPITAL", "ADDRESS": "921 JUNIOR HIGH ROAD", "CITY": "SCOTLAND NECK", "STATE": "NC", "ZIP": "27874", "ZIP4": "NOT AVAILABLE", "TELEPHONE": "(252) 826-4144", "TYPE": "GENERAL ACUTE CARE", "STATUS": "OPEN", "POPULATION": 100, "COUNTY": "HALIFAX", "COUNTYFIPS": "37083", "COUNTRY": "USA", "LATITUDE": 36.129142144000099, "LONGITUDE": -77.429718658, "NAICS_CODE": "622110", "NAICS_DESC": "GENERAL MEDICAL AND SURGICAL HOSPITALS", "SOURCE": "https:\/\/www2.ncdhhs.gov\/dhsr\/reports.htm", "SOURCEDATE": "2018-08-10T00:00:00.000Z", "VAL_METHOD": "IMAGERY\/OTHER", "VAL_DATE": "2014-02-10T00:00:00.000Z", "WEBSITE": "http:\/\/www.och-bltc.org", "STATE_ID": "NOT AVAILABLE", "ALT_NAME": "NOT AVAILABLE", "ST_FIPS": "37", "OWNER": "NON-PROFIT", "TTL_STAFF": -999, "BEDS": 100, "TRAUMA": "NOT AVAILABLE", "HELIPAD": "Y" }, "geometry": { "type": "Point", "coordinates": [ -77.429718657999942, 36.12914214400007 ] } },
{ "type": "Feature", "properties": { "OBJECTID": 1193, "ID": "0007827261", "NAME": "HIGH POINT REGIONAL HEALTH SYSTEM", "ADDRESS": "601 NORTH ELM STREET", "CITY": "HIGH POINT", "STATE": "NC", "ZIP": "27261", "ZIP4": "NOT AVAILABLE", "TELEPHONE": "(336) 878-6000", "TYPE": "GENERAL ACUTE CARE", "STATUS": "OPEN", "POPULATION": 384, "COUNTY": "GUILFORD", "COUNTYFIPS": "37081", "COUNTRY": "USA", "LATITUDE": 35.962823799, "LONGITUDE": -80.013394317000007, "NAICS_CODE": "622110", "NAICS_DESC": "GENERAL MEDICAL AND SURGICAL HOSPITALS", "SOURCE": "https:\/\/www2.ncdhhs.gov\/dhsr\/reports.htm", "SOURCEDATE": "2018-08-10T00:00:00.000Z", "VAL_METHOD": "IMAGERY\/OTHER", "VAL_DATE": "2014-02-10T00:00:00.000Z", "WEBSITE": "http:\/\/www.highpointregional.com", "STATE_ID": "NOT AVAILABLE", "ALT_NAME": "NOT AVAILABLE", "ST_FIPS": "37", "OWNER": "NON-PROFIT", "TTL_STAFF": -999, "BEDS": 384, "TRAUMA": "LEVEL III", "HELIPAD": "Y" }, "geometry": { "type": "Point", "coordinates": [ -80.013394316999936, 35.962823799000013 ] } },
{ "type": "Feature", "properties": { "OBJECTID": 1194, "ID": "0006028687", "NAME": "DAVIS REGIONAL MEDICAL CENTER", "ADDRESS": "218 OLD MOCKSVILLE ROAD", "CITY": "STATESVILLE", "STATE": "NC", "ZIP": "28687", "ZIP4": "NOT AVAILABLE", "TELEPHONE": "(704) 873-0281", "TYPE": "GENERAL ACUTE CARE", "STATUS": "OPEN", "POPULATION": 149, "COUNTY": "IREDELL", "COUNTYFIPS": "37097", "COUNTRY": "USA", "LATITUDE": 35.818428674000103, "LONGITUDE": -80.828714738000002, "NAICS_CODE": "622110", "NAICS_DESC": "GENERAL MEDICAL AND SURGICAL HOSPITALS", "SOURCE": "https:\/\/www2.ncdhhs.gov\/dhsr\/reports.htm", "SOURCEDATE": "2018-08-10T00:00:00.000Z", "VAL_METHOD": "IMAGERY\/OTHER", "VAL_DATE": "2014-02-10T00:00:00.000Z", "WEBSITE": "http:\/\/www.davisregional.com", "STATE_ID": "NOT AVAILABLE", "ALT_NAME": "NOT AVAILABLE", "ST_FIPS": "37", "OWNER": "PROPRIETARY", "TTL_STAFF": -999, "BEDS": 149, "TRAUMA": "NOT AVAILABLE", "HELIPAD": "Y" }, "geometry": { "type": "Point", "coordinates": [ -80.82871473799996, 35.818428674000074 ] } },
{ "type": "Feature", "properties": { "OBJECTID": 1195, "ID": "0008328677", "NAME": "IREDELL MEMORIAL HOSPITAL, INCORPORATED", "ADDRESS": "557 BROOKDALE DRIVE", "CITY": "STATESVILLE", "STATE": "NC", "ZIP": "28677", "ZIP4": "NOT AVAILABLE", "TELEPHONE": "(704) 878-4500", "TYPE": "GENERAL ACUTE CARE", "STATUS": "OPEN", "POPULATION": 247, "COUNTY": "IREDELL", "COUNTYFIPS": "37097", "COUNTRY": "USA", "LATITUDE": 35.799261529, "LONGITUDE": -80.878068336999902, "NAICS_CODE": "622110", "NAICS_DESC": "GENERAL MEDICAL AND SURGICAL HOSPITALS", "SOURCE": "https:\/\/www2.ncdhhs.gov\/dhsr\/reports.htm", "SOURCEDATE": "2018-08-10T00:00:00.000Z", "VAL_METHOD": "IMAGERY\/OTHER", "VAL_DATE": "2014-02-10T00:00:00.000Z", "WEBSITE": "http:\/\/www.iredellmemorial.org", "STATE_ID": "NOT AVAILABLE", "ALT_NAME": "NOT AVAILABLE", "ST_FIPS": "37", "OWNER": "NON-PROFIT", "TTL_STAFF": -999, "BEDS": 247, "TRAUMA": "NOT AVAILABLE", "HELIPAD": "Y" }, "geometry": { "type": "Point", "coordinates": [ -80.878068336999945, 35.799261529000034 ] } },
{ "type": "Feature", "properties": { "OBJECTID": 1196, "ID": "0009627910", "NAME": "VIDANT ROANOKE-CHOWAN HOSPITAL", "ADDRESS": "500 SOUTH ACADEMY STREET", "CITY": "AHOSKIE", "STATE": "NC", "ZIP": "27910", "ZIP4": "NOT AVAILABLE", "TELEPHONE": "(252) 209-3000", "TYPE": "GENERAL ACUTE CARE", "STATUS": "OPEN", "POPULATION": 114, "COUNTY": "HERTFORD", "COUNTYFIPS": "37091", "COUNTRY": "USA", "LATITUDE": 36.285431303000102, "LONGITUDE": -76.9952349819999, "NAICS_CODE": "622110", "NAICS_DESC": "GENERAL MEDICAL AND SURGICAL HOSPITALS", "SOURCE": "https:\/\/www2.ncdhhs.gov\/dhsr\/reports.htm", "SOURCEDATE": "2018-08-10T00:00:00.000Z", "VAL_METHOD": "IMAGERY\/OTHER", "VAL_DATE": "2014-02-10T00:00:00.000Z", "WEBSITE": "https:\/\/www.vidanthealth.com\/roanokechowan\/dynamic-detail.aspx?id=449", "STATE_ID": "NOT AVAILABLE", "ALT_NAME": "NOT AVAILABLE", "ST_FIPS": "37", "OWNER": "NON-PROFIT", "TTL_STAFF": -999, "BEDS": 114, "TRAUMA": "NOT AVAILABLE", "HELIPAD": "N" }, "geometry": { "type": "Point", "coordinates": [ -76.995234981999943, 36.285431303000053 ] } },
{ "type": "Feature", "properties": { "OBJECTID": 1197, "ID": "0003528605", "NAME": "BLOWING ROCK HOSPITAL", "ADDRESS": "418 CHESTNUT STREET", "CITY": "BLOWING ROCK", "STATE": "NC", "ZIP": "28605", "ZIP4": "NOT AVAILABLE", "TELEPHONE": "(828) 295-3136", "TYPE": "GENERAL ACUTE CARE", "STATUS": "OPEN", "POPULATION": 100, "COUNTY": "WATAUGA", "COUNTYFIPS": "37189", "COUNTRY": "USA", "LATITUDE": 36.128916886000098, "LONGITUDE": -81.677914821999906, "NAICS_CODE": "622110", "NAICS_DESC": "GENERAL MEDICAL AND SURGICAL HOSPITALS", "SOURCE": "https:\/\/www2.ncdhhs.gov\/dhsr\/reports.htm", "SOURCEDATE": "2018-08-10T00:00:00.000Z", "VAL_METHOD": "IMAGERY", "VAL_DATE": "2019-05-09T00:00:00.000Z", "WEBSITE": "https:\/\/apprhs.org\/locations\/blowing-rock-hospital", "STATE_ID": "NOT AVAILABLE", "ALT_NAME": "NOT AVAILABLE", "ST_FIPS": "37", "OWNER": "NON-PROFIT", "TTL_STAFF": -999, "BEDS": 100, "TRAUMA": "NOT AVAILABLE", "HELIPAD": "N" }, "geometry": { "type": "Point", "coordinates": [ -81.677914821999934, 36.12891688600007 ] } },
{ "type": "Feature", "properties": { "OBJECTID": 1198, "ID": "0002828170", "NAME": "ANSON COMMUNITY HOSPITAL", "ADDRESS": "500 MORVEN RD", "CITY": "WADESBORO", "STATE": "NC", "ZIP": "28170", "ZIP4": "NOT AVAILABLE", "TELEPHONE": "(704) 694-5131", "TYPE": "GENERAL ACUTE CARE", "STATUS": "CLOSED", "POPULATION": 147, "COUNTY": "ANSON", "COUNTYFIPS": "37007", "COUNTRY": "USA", "LATITUDE": 34.961429174000003, "LONGITUDE": -80.075940023000001, "NAICS_CODE": "622110", "NAICS_DESC": "GENERAL MEDICAL AND SURGICAL HOSPITALS", "SOURCE": "https:\/\/www2.ncdhhs.gov\/dhsr\/data\/hllist.pdf", "SOURCEDATE": "2012-07-03T00:00:00.000Z", "VAL_METHOD": "IMAGERY\/OTHER", "VAL_DATE": "2019-05-09T00:00:00.000Z", "WEBSITE": "http:\/\/www.carolinashealthcare.org\/anson-community-hospital", "STATE_ID": "NOT AVAILABLE", "ALT_NAME": "NOT AVAILABLE", "ST_FIPS": "37", "OWNER": "GOVERNMENT - DISTRICT\/AUTHORITY", "TTL_STAFF": -999, "BEDS": 147, "TRAUMA": "NOT AVAILABLE", "HELIPAD": "N" }, "geometry": { "type": "Point", "coordinates": [ -80.075940022999987, 34.961429174000045 ] } },
{ "type": "Feature", "properties": { "OBJECTID": 1199, "ID": "0001927573", "NAME": "PERSON MEMORIAL HOSPITAL", "ADDRESS": "615 RIDGE RD", "CITY": "ROXBORO", "STATE": "NC", "ZIP": "27573", "ZIP4": "NOT AVAILABLE", "TELEPHONE": "(336) 599-2121", "TYPE": "GENERAL ACUTE CARE", "STATUS": "OPEN", "POPULATION": 110, "COUNTY": "PERSON", "COUNTYFIPS": "37145", "COUNTRY": "USA", "LATITUDE": 36.408453469000101, "LONGITUDE": -78.984895238999997, "NAICS_CODE": "622110", "NAICS_DESC": "GENERAL MEDICAL AND SURGICAL HOSPITALS", "SOURCE": "https:\/\/www2.ncdhhs.gov\/dhsr\/reports.htm", "SOURCEDATE": "2018-08-10T00:00:00.000Z", "VAL_METHOD": "IMAGERY", "VAL_DATE": "2014-02-10T00:00:00.000Z", "WEBSITE": "http:\/\/www.personhospital.com", "STATE_ID": "NOT AVAILABLE", "ALT_NAME": "NOT AVAILABLE", "ST_FIPS": "37", "OWNER": "NON-PROFIT", "TTL_STAFF": -999, "BEDS": 110, "TRAUMA": "NOT AVAILABLE", "HELIPAD": "Y" }, "geometry": { "type": "Point", "coordinates": [ -78.984895238999968, 36.408453469000051 ] } },
{ "type": "Feature", "properties": { "OBJECTID": 1200, "ID": "0005327344", "NAME": "CHATHAM HOSPITAL, INC.", "ADDRESS": "475 PROGRESS BOULEVARD", "CITY": "SILER CITY", "STATE": "NC", "ZIP": "27344", "ZIP4": "NOT AVAILABLE", "TELEPHONE": "(919) 663-2113", "TYPE": "GENERAL ACUTE CARE", "STATUS": "OPEN", "POPULATION": 25, "COUNTY": "CHATHAM", "COUNTYFIPS": "37037", "COUNTRY": "USA", "LATITUDE": 35.722954498, "LONGITUDE": -79.420855357999997, "NAICS_CODE": "622110", "NAICS_DESC": "GENERAL MEDICAL AND SURGICAL HOSPITALS", "SOURCE": "https:\/\/www2.ncdhhs.gov\/dhsr\/reports.htm", "SOURCEDATE": "2018-08-10T00:00:00.000Z", "VAL_METHOD": "IMAGERY", "VAL_DATE": "2014-02-10T00:00:00.000Z", "WEBSITE": "http:\/\/www.chathamhospital.org", "STATE_ID": "NOT AVAILABLE", "ALT_NAME": "NOT AVAILABLE", "ST_FIPS": "37", "OWNER": "NON-PROFIT", "TTL_STAFF": -999, "BEDS": 25, "TRAUMA": "NOT AVAILABLE", "HELIPAD": "Y" }, "geometry": { "type": "Point", "coordinates": [ -79.420855358, 35.722954498000036 ] } },
{ "type": "Feature", "properties": { "OBJECTID": 1201, "ID": "0000928906", "NAME": "MURPHY MEDICAL CENTER", "ADDRESS": "3990 EAST US HWY 64", "CITY": "MURPHY", "STATE": "NC", "ZIP": "28906", "ZIP4": "NOT AVAILABLE", "TELEPHONE": "(828) 837-8161", "TYPE": "GENERAL ACUTE CARE", "STATUS": "OPEN", "POPULATION": 191, "COUNTY": "CHEROKEE", "COUNTYFIPS": "37039", "COUNTRY": "USA", "LATITUDE": 35.072712896, "LONGITUDE": -83.966662408000005, "NAICS_CODE": "622110", "NAICS_DESC": "GENERAL MEDICAL AND SURGICAL HOSPITALS", "SOURCE": "https:\/\/www2.ncdhhs.gov\/dhsr\/reports.htm", "SOURCEDATE": "2018-08-10T00:00:00.000Z", "VAL_METHOD": "IMAGERY", "VAL_DATE": "2014-02-10T00:00:00.000Z", "WEBSITE": "http:\/\/www.murphymedical.org", "STATE_ID": "NOT AVAILABLE", "ALT_NAME": "NOT AVAILABLE", "ST_FIPS": "37", "OWNER": "NON-PROFIT", "TTL_STAFF": -999, "BEDS": 191, "TRAUMA": "NOT AVAILABLE", "HELIPAD": "Y" }, "geometry": { "type": "Point", "coordinates": [ -83.96666240799999, 35.072712896000034 ] } },
{ "type": "Feature", "properties": { "OBJECTID": 1202, "ID": "0010228359", "NAME": "SOUTHEASTERN REGIONAL MEDICAL CENTER", "ADDRESS": "300 WEST 27TH ST", "CITY": "LUMBERTON", "STATE": "NC", "ZIP": "28359", "ZIP4": "NOT AVAILABLE", "TELEPHONE": "(910) 671-5000", "TYPE": "GENERAL ACUTE CARE", "STATUS": "OPEN", "POPULATION": 452, "COUNTY": "ROBESON", "COUNTYFIPS": "37155", "COUNTRY": "USA", "LATITUDE": 34.636910792999998, "LONGITUDE": -79.012129533000007, "NAICS_CODE": "622110", "NAICS_DESC": "GENERAL MEDICAL AND SURGICAL HOSPITALS", "SOURCE": "https:\/\/www2.ncdhhs.gov\/dhsr\/reports.htm", "SOURCEDATE": "2018-08-10T00:00:00.000Z", "VAL_METHOD": "IMAGERY\/OTHER", "VAL_DATE": "2013-10-01T00:00:00.000Z", "WEBSITE": "http:\/\/www.srmc.org\/main\/", "STATE_ID": "NOT AVAILABLE", "ALT_NAME": "NOT AVAILABLE", "ST_FIPS": "37", "OWNER": "PROPRIETARY", "TTL_STAFF": -999, "BEDS": 452, "TRAUMA": "NOT AVAILABLE", "HELIPAD": "N" }, "geometry": { "type": "Point", "coordinates": [ -79.012129532999936, 34.636910793000027 ] } },
{ "type": "Feature", "properties": { "OBJECTID": 1203, "ID": "0005228646", "NAME": "CHARLES A. CANNON, JR. MEMORIAL HOSPITAL", "ADDRESS": "434 HOSPITAL DRIVE", "CITY": "LINVILLE", "STATE": "NC", "ZIP": "28646", "ZIP4": "NOT AVAILABLE", "TELEPHONE": "(828) 737-7000", "TYPE": "GENERAL ACUTE CARE", "STATUS": "OPEN", "POPULATION": 50, "COUNTY": "AVERY", "COUNTYFIPS": "37011", "COUNTRY": "USA", "LATITUDE": 36.060317924000103, "LONGITUDE": -81.889357114999896, "NAICS_CODE": "622110", "NAICS_DESC": "GENERAL MEDICAL AND SURGICAL HOSPITALS", "SOURCE": "https:\/\/www2.ncdhhs.gov\/dhsr\/reports.htm", "SOURCEDATE": "2018-08-10T00:00:00.000Z", "VAL_METHOD": "IMAGERY", "VAL_DATE": "2014-02-10T00:00:00.000Z", "WEBSITE": "https:\/\/apprhs.org\/locations\/cannon-memorial-hospital", "STATE_ID": "NOT AVAILABLE", "ALT_NAME": "NOT AVAILABLE", "ST_FIPS": "37", "OWNER": "NON-PROFIT", "TTL_STAFF": -999, "BEDS": 50, "TRAUMA": "NOT AVAILABLE", "HELIPAD": "Y" }, "geometry": { "type": "Point", "coordinates": [ -81.889357114999939, 36.060317924000053 ] } },
{ "type": "Feature", "properties": { "OBJECTID": 1204, "ID": "0008428461", "NAME": "J. ARTHUR DOSHER MEMORIAL HOSPITAL", "ADDRESS": "924 HOWE ST", "CITY": "SOUTHPORT", "STATE": "NC", "ZIP": "28461", "ZIP4": "NOT AVAILABLE", "TELEPHONE": "(910) 457-3800", "TYPE": "GENERAL ACUTE CARE", "STATUS": "OPEN", "POPULATION": 100, "COUNTY": "BRUNSWICK", "COUNTYFIPS": "37019", "COUNTRY": "USA", "LATITUDE": 33.92966195, "LONGITUDE": -78.021590311999901, "NAICS_CODE": "622110", "NAICS_DESC": "GENERAL MEDICAL AND SURGICAL HOSPITALS", "SOURCE": "https:\/\/www2.ncdhhs.gov\/dhsr\/reports.htm", "SOURCEDATE": "2018-08-10T00:00:00.000Z", "VAL_METHOD": "IMAGERY\/OTHER", "VAL_DATE": "2014-02-10T00:00:00.000Z", "WEBSITE": "http:\/\/www.dosher.org", "STATE_ID": "NOT AVAILABLE", "ALT_NAME": "NOT AVAILABLE", "ST_FIPS": "37", "OWNER": "NON-PROFIT", "TTL_STAFF": -999, "BEDS": 100, "TRAUMA": "NOT AVAILABLE", "HELIPAD": "Y" }, "geometry": { "type": "Point", "coordinates": [ -78.021590311999958, 33.929661950000018 ] } },
{ "type": "Feature", "properties": { "OBJECTID": 1205, "ID": "0004028813", "NAME": "CAREPARTNERS REHABILITATION HOSPITAL", "ADDRESS": "68 SWEETEN CREEK ROAD", "CITY": "ASHEVILLE", "STATE": "NC", "ZIP": "28813", "ZIP4": "NOT AVAILABLE", "TELEPHONE": "(828) 274-2400", "TYPE": "REHABILITATION", "STATUS": "OPEN", "POPULATION": 80, "COUNTY": "BUNCOMBE", "COUNTYFIPS": "37021", "COUNTRY": "USA", "LATITUDE": 35.562271092000103, "LONGITUDE": -82.53131981, "NAICS_CODE": "622310", "NAICS_DESC": "REHABILITATION HOSPITALS (EXCEPT ALCOHOLISM, DRUG ADDICTION)", "SOURCE": "https:\/\/www2.ncdhhs.gov\/dhsr\/reports.htm", "SOURCEDATE": "2018-08-10T00:00:00.000Z", "VAL_METHOD": "IMAGERY", "VAL_DATE": "2014-02-10T00:00:00.000Z", "WEBSITE": "http:\/\/www.carepartners.org", "STATE_ID": "NOT AVAILABLE", "ALT_NAME": "NOT AVAILABLE", "ST_FIPS": "37", "OWNER": "NON-PROFIT", "TTL_STAFF": -999, "BEDS": 80, "TRAUMA": "NOT AVAILABLE", "HELIPAD": "N" }, "geometry": { "type": "Point", "coordinates": [ -82.531319809999957, 35.562271092000053 ] } },
{ "type": "Feature", "properties": { "OBJECTID": 1206, "ID": "0007228655", "NAME": "CAROLINAS HEALTHCARE SYSTEM BLUE RIDGE", "ADDRESS": "2201 SOUTH STERLING ST", "CITY": "MORGANTON", "STATE": "NC", "ZIP": "28655", "ZIP4": "NOT AVAILABLE", "TELEPHONE": "(828) 580-5000", "TYPE": "GENERAL ACUTE CARE", "STATUS": "OPEN", "POPULATION": 315, "COUNTY": "BURKE", "COUNTYFIPS": "37023", "COUNTRY": "USA", "LATITUDE": 35.726391173000003, "LONGITUDE": -81.654492278999996, "NAICS_CODE": "622110", "NAICS_DESC": "GENERAL MEDICAL AND SURGICAL HOSPITALS", "SOURCE": "https:\/\/www2.ncdhhs.gov\/dhsr\/reports.htm", "SOURCEDATE": "2018-08-10T00:00:00.000Z", "VAL_METHOD": "IMAGERY\/OTHER", "VAL_DATE": "2014-02-10T00:00:00.000Z", "WEBSITE": "http:\/\/www.blueridgehealth.org\/morganton.html", "STATE_ID": "NOT AVAILABLE", "ALT_NAME": "NOT AVAILABLE", "ST_FIPS": "37", "OWNER": "NON-PROFIT", "TTL_STAFF": -999, "BEDS": 315, "TRAUMA": "NOT AVAILABLE", "HELIPAD": "Y" }, "geometry": { "type": "Point", "coordinates": [ -81.654492278999939, 35.726391173000017 ] } },
{ "type": "Feature", "properties": { "OBJECTID": 1207, "ID": "0003928302", "NAME": "CAPE FEAR VALLEY MEDICAL CENTER", "ADDRESS": "1638 OWEN DRIVE", "CITY": "FAYETTEVILLE", "STATE": "NC", "ZIP": "28302", "ZIP4": "NOT AVAILABLE", "TELEPHONE": "(910) 615-6700", "TYPE": "GENERAL ACUTE CARE", "STATUS": "OPEN", "POPULATION": 600, "COUNTY": "CUMBERLAND", "COUNTYFIPS": "37051", "COUNTRY": "USA", "LATITUDE": 35.0318387250001, "LONGITUDE": -78.933053684999905, "NAICS_CODE": "622110", "NAICS_DESC": "GENERAL MEDICAL AND SURGICAL HOSPITALS", "SOURCE": "https:\/\/www2.ncdhhs.gov\/dhsr\/reports.htm", "SOURCEDATE": "2018-08-10T00:00:00.000Z", "VAL_METHOD": "IMAGERY\/OTHER", "VAL_DATE": "2014-02-10T00:00:00.000Z", "WEBSITE": "http:\/\/www.capefearvalley.com", "STATE_ID": "NOT AVAILABLE", "ALT_NAME": "NOT AVAILABLE", "ST_FIPS": "37", "OWNER": "NON-PROFIT", "TTL_STAFF": -999, "BEDS": 600, "TRAUMA": "LEVEL III", "HELIPAD": "Y" }, "geometry": { "type": "Point", "coordinates": [ -78.933053684999948, 35.03183872500005 ] } },
{ "type": "Feature", "properties": { "OBJECTID": 1208, "ID": "0000000126", "NAME": "KERNERSVILLE MEDICAL CENTER-ER", "ADDRESS": "1750 KERNERSVILLE MEDICAL PKWY", "CITY": "KERNERSVILLE", "STATE": "NC", "ZIP": "27284", "ZIP4": "NOT AVAILABLE", "TELEPHONE": "(336) 564-4000", "TYPE": "GENERAL ACUTE CARE", "STATUS": "OPEN", "POPULATION": -999, "COUNTY": "FORSYTH", "COUNTYFIPS": "37067", "COUNTRY": "USA", "LATITUDE": 36.090960321000097, "LONGITUDE": -80.044150381999899, "NAICS_CODE": "622110", "NAICS_DESC": "GENERAL MEDICAL AND SURGICAL HOSPITALS", "SOURCE": "https:\/\/www2.ncdhhs.gov\/dhsr\/reports.htm", "SOURCEDATE": "2018-08-10T00:00:00.000Z", "VAL_METHOD": "IMAGERY\/OTHER", "VAL_DATE": "2015-05-23T00:00:00.000Z", "WEBSITE": "https:\/\/www.novanthealth.org\/kernersville-medical-center.aspx", "STATE_ID": "NOT AVAILABLE", "ALT_NAME": "NOT AVAILABLE", "ST_FIPS": "37", "OWNER": "NON-PROFIT", "TTL_STAFF": -999, "BEDS": -999, "TRAUMA": "NOT AVAILABLE", "HELIPAD": "N" }, "geometry": { "type": "Point", "coordinates": [ -80.044150381999941, 36.090960321000068 ] } },
{ "type": "Feature", "properties": { "OBJECTID": 1209, "ID": "0014128170", "NAME": "CAROLINAS HEALTHCARE SYSTEM - ANSON", "ADDRESS": "2301 US HIGHWAY 74 WEST", "CITY": "WADESBORO", "STATE": "NC", "ZIP": "28170", "ZIP4": "NOT AVAILABLE", "TELEPHONE": "(704) 694-5131", "TYPE": "GENERAL ACUTE CARE", "STATUS": "OPEN", "POPULATION": 15, "COUNTY": "ANSON", "COUNTYFIPS": "37007", "COUNTRY": "USA", "LATITUDE": 34.977721881999997, "LONGITUDE": -80.110085620999897, "NAICS_CODE": "622110", "NAICS_DESC": "GENERAL MEDICAL AND SURGICAL HOSPITALS", "SOURCE": "https:\/\/www2.ncdhhs.gov\/dhsr\/reports.htm", "SOURCEDATE": "2018-08-10T00:00:00.000Z", "VAL_METHOD": "IMAGERY\/OTHER", "VAL_DATE": "2016-01-25T00:00:00.000Z", "WEBSITE": "http:\/\/www.carolinashealthcare.org\/anson", "STATE_ID": "NOT AVAILABLE", "ALT_NAME": "NOT AVAILABLE", "ST_FIPS": "37", "OWNER": "GOVERNMENT - DISTRICT\/AUTHORITY", "TTL_STAFF": -999, "BEDS": 15, "TRAUMA": "NOT AVAILABLE", "HELIPAD": "Y" }, "geometry": { "type": "Point", "coordinates": [ -80.110085620999939, 34.977721882000019 ] } },
{ "type": "Feature", "properties": { "OBJECTID": 1210, "ID": "0014328086", "NAME": "CAROLINAS CONTINUECARE AT KINGS MOUNTAIN", "ADDRESS": "706 WEST KING STREET", "CITY": "KINGS MOUNTAIN", "STATE": "NC", "ZIP": "28086", "ZIP4": "NOT AVAILABLE", "TELEPHONE": "(980) 487-5520", "TYPE": "LONG TERM CARE", "STATUS": "OPEN", "POPULATION": 28, "COUNTY": "CLEVELAND", "COUNTYFIPS": "37045", "COUNTRY": "USA", "LATITUDE": 35.241865106, "LONGITUDE": -81.356548749999902, "NAICS_CODE": "622310", "NAICS_DESC": "SPECIALTY (EXCEPT PSYCHIATRIC AND SUBSTANCE ABUSE) HOSPITALS", "SOURCE": "https:\/\/www2.ncdhhs.gov\/dhsr\/reports.htm", "SOURCEDATE": "2018-08-10T00:00:00.000Z", "VAL_METHOD": "IMAGERY\/OTHER", "VAL_DATE": "2016-01-26T00:00:00.000Z", "WEBSITE": "http:\/\/continuecare.org\/kings-mountain\/", "STATE_ID": "NOT AVAILABLE", "ALT_NAME": "NOT AVAILABLE", "ST_FIPS": "37", "OWNER": "NON-PROFIT", "TTL_STAFF": -999, "BEDS": 28, "TRAUMA": "NOT AVAILABLE", "HELIPAD": "Y" }, "geometry": { "type": "Point", "coordinates": [ -81.356548749999945, 35.241865106000013 ] } },
{ "type": "Feature", "properties": { "OBJECTID": 1211, "ID": "0014528025", "NAME": "CAROLINAS REHABILITATION - NORTHEAST", "ADDRESS": "487 LAKE CONCORD ROAD", "CITY": "CONCORD", "STATE": "NC", "ZIP": "28025", "ZIP4": "NOT AVAILABLE", "TELEPHONE": "(704) 355-3398", "TYPE": "REHABILITATION", "STATUS": "OPEN", "POPULATION": 40, "COUNTY": "CABARRUS", "COUNTYFIPS": "37025", "COUNTRY": "USA", "LATITUDE": 35.442816061000002, "LONGITUDE": -80.600843650999906, "NAICS_CODE": "622310", "NAICS_DESC": "REHABILITATION HOSPITALS (EXCEPT ALCOHOLISM, DRUG ADDICTION)", "SOURCE": "https:\/\/www2.ncdhhs.gov\/dhsr\/reports.htm", "SOURCEDATE": "2018-08-10T00:00:00.000Z", "VAL_METHOD": "IMAGERY\/OTHER", "VAL_DATE": "2016-01-26T00:00:00.000Z", "WEBSITE": "http:\/\/www.carolinashealthcare.org\/rehabilitation", "STATE_ID": "NOT AVAILABLE", "ALT_NAME": "NOT AVAILABLE", "ST_FIPS": "37", "OWNER": "NON-PROFIT", "TTL_STAFF": -999, "BEDS": 40, "TRAUMA": "NOT AVAILABLE", "HELIPAD": "N" }, "geometry": { "type": "Point", "coordinates": [ -80.600843650999934, 35.44281606100003 ] } },
{ "type": "Feature", "properties": { "OBJECTID": 1212, "ID": "0014628376", "NAME": "FIRSTHEALTH MOORE REGIONAL HOSPITAL - HOKE CAMPUS", "ADDRESS": "6408 FAYETTEVILLE ROAD", "CITY": "RAEFORD", "STATE": "NC", "ZIP": "28376", "ZIP4": "NOT AVAILABLE", "TELEPHONE": "(910) 878-6000", "TYPE": "GENERAL ACUTE CARE", "STATUS": "OPEN", "POPULATION": 8, "COUNTY": "HOKE", "COUNTYFIPS": "37093", "COUNTRY": "USA", "LATITUDE": 35.02100061, "LONGITUDE": -79.149218661000006, "NAICS_CODE": "622110", "NAICS_DESC": "GENERAL MEDICAL AND SURGICAL HOSPITALS", "SOURCE": "https:\/\/www2.ncdhhs.gov\/dhsr\/reports.htm", "SOURCEDATE": "2018-08-10T00:00:00.000Z", "VAL_METHOD": "IMAGERY\/OTHER", "VAL_DATE": "2016-01-27T00:00:00.000Z", "WEBSITE": "https:\/\/www.firsthealth.org\/directory\/hospitals-and-service-locations\/firsthealth-moore-regional-hospital-hoke-campus", "STATE_ID": "NOT AVAILABLE", "ALT_NAME": "NOT AVAILABLE", "ST_FIPS": "37", "OWNER": "NON-PROFIT", "TTL_STAFF": -999, "BEDS": 8, "TRAUMA": "NOT AVAILABLE", "HELIPAD": "Y" }, "geometry": { "type": "Point", "coordinates": [ -79.149218660999964, 35.02100061000003 ] } },
{ "type": "Feature", "properties": { "OBJECTID": 1213, "ID": "0015127401", "NAME": "SELECT SPECIALTY HOSPITAL - GREENSBORO", "ADDRESS": "1200 NORTH ELM STREET", "CITY": "GREENSBORO", "STATE": "NC", "ZIP": "27401", "ZIP4": "NOT AVAILABLE", "TELEPHONE": "(336) 832-5700", "TYPE": "GENERAL ACUTE CARE", "STATUS": "OPEN", "POPULATION": 30, "COUNTY": "GUILFORD", "COUNTYFIPS": "37081", "COUNTRY": "USA", "LATITUDE": 36.091017987999997, "LONGITUDE": -79.786048112999893, "NAICS_CODE": "622110", "NAICS_DESC": "GENERAL MEDICAL AND SURGICAL HOSPITALS", "SOURCE": "https:\/\/www2.ncdhhs.gov\/dhsr\/reports.htm", "SOURCEDATE": "2018-08-10T00:00:00.000Z", "VAL_METHOD": "IMAGERY\/OTHER", "VAL_DATE": "2016-02-22T00:00:00.000Z", "WEBSITE": "http:\/\/greensboro.selectspecialtyhospitals.com\/", "STATE_ID": "NOT AVAILABLE", "ALT_NAME": "NOT AVAILABLE", "ST_FIPS": "37", "OWNER": "PROPRIETARY", "TTL_STAFF": -999, "BEDS": 30, "TRAUMA": "NOT AVAILABLE", "HELIPAD": "N" }, "geometry": { "type": "Point", "coordinates": [ -79.78604811299995, 36.091017988000019 ] } },
{ "type": "Feature", "properties": { "OBJECTID": 2197, "ID": "0002128233", "NAME": "NOVANT HEALTH PRESBYTERIAN MEDICAL CENTER", "ADDRESS": "200 HAWTHORNE LANE", "CITY": "CHARLOTTE", "STATE": "NC", "ZIP": "28233", "ZIP4": "NOT AVAILABLE", "TELEPHONE": "(704) 384-4000", "TYPE": "GENERAL ACUTE CARE", "STATUS": "OPEN", "POPULATION": 661, "COUNTY": "MECKLENBURG", "COUNTYFIPS": "37119", "COUNTRY": "USA", "LATITUDE": 35.211838192000101, "LONGITUDE": -80.824164440999894, "NAICS_CODE": "622110", "NAICS_DESC": "GENERAL MEDICAL AND SURGICAL HOSPITALS", "SOURCE": "https:\/\/www2.ncdhhs.gov\/dhsr\/reports.htm", "SOURCEDATE": "2018-08-10T00:00:00.000Z", "VAL_METHOD": "IMAGERY\/OTHER", "VAL_DATE": "2014-02-10T00:00:00.000Z", "WEBSITE": "https:\/\/www.novanthealth.org\/presbyterian-medical-center.aspx", "STATE_ID": "NOT AVAILABLE", "ALT_NAME": "PRESBYTERIAN MEDICAL CENTER", "ST_FIPS": "37", "OWNER": "NON-PROFIT", "TTL_STAFF": -999, "BEDS": 661, "TRAUMA": "LEVEL III", "HELIPAD": "Y" }, "geometry": { "type": "Point", "coordinates": [ -80.824164440999937, 35.211838192000073 ] } },
{ "type": "Feature", "properties": { "OBJECTID": 2198, "ID": "0003127889", "NAME": "VIDANT BEAUFORT HOSPITAL", "ADDRESS": "628 EAST TWELFTH ST", "CITY": "WASHINGTON", "STATE": "NC", "ZIP": "27889", "ZIP4": "NOT AVAILABLE", "TELEPHONE": "(252) 975-4100", "TYPE": "GENERAL ACUTE CARE", "STATUS": "OPEN", "POPULATION": 142, "COUNTY": "BEAUFORT", "COUNTYFIPS": "37013", "COUNTRY": "USA", "LATITUDE": 35.549221908000099, "LONGITUDE": -77.037838049000001, "NAICS_CODE": "622110", "NAICS_DESC": "GENERAL MEDICAL AND SURGICAL HOSPITALS", "SOURCE": "https:\/\/www2.ncdhhs.gov\/dhsr\/reports.htm", "SOURCEDATE": "2018-08-10T00:00:00.000Z", "VAL_METHOD": "IMAGERY\/OTHER", "VAL_DATE": "2013-10-01T00:00:00.000Z", "WEBSITE": "https:\/\/www.vidanthealth.com\/beaufort\/", "STATE_ID": "NOT AVAILABLE", "ALT_NAME": "BEAUFORT COUNTY HOSPITAL", "ST_FIPS": "37", "OWNER": "NON-PROFIT", "TTL_STAFF": -999, "BEDS": 142, "TRAUMA": "NOT AVAILABLE", "HELIPAD": "N" }, "geometry": { "type": "Point", "coordinates": [ -77.037838048999959, 35.549221908000028 ] } },
{ "type": "Feature", "properties": { "OBJECTID": 2199, "ID": "0011228690", "NAME": "VALDESE GENERAL HOSPITAL, INC.", "ADDRESS": "720 MALCOLM BOULEVARD", "CITY": "VALDESE", "STATE": "NC", "ZIP": "28690", "ZIP4": "NOT AVAILABLE", "TELEPHONE": "(828) 874-2251", "TYPE": "GENERAL ACUTE CARE", "STATUS": "CLOSED", "POPULATION": 131, "COUNTY": "BURKE", "COUNTYFIPS": "37023", "COUNTRY": "USA", "LATITUDE": 35.748123859000003, "LONGITUDE": -81.523419917999902, "NAICS_CODE": "622110", "NAICS_DESC": "GENERAL MEDICAL AND SURGICAL HOSPITALS", "SOURCE": "https:\/\/www2.ncdhhs.gov\/dhsr\/data\/hllist.pdf", "SOURCEDATE": "2012-07-03T00:00:00.000Z", "VAL_METHOD": "IMAGERY\/OTHER", "VAL_DATE": "2014-02-10T00:00:00.000Z", "WEBSITE": "http:\/\/www.blueridgehealth.org", "STATE_ID": "NOT AVAILABLE", "ALT_NAME": "CAROLINAS HEALTHCARE SYSTEM BLUE RIDGE VALDESE", "ST_FIPS": "37", "OWNER": "NON-PROFIT", "TTL_STAFF": -999, "BEDS": 131, "TRAUMA": "NOT AVAILABLE", "HELIPAD": "Y" }, "geometry": { "type": "Point", "coordinates": [ -81.523419917999945, 35.748123859000017 ] } },
{ "type": "Feature", "properties": { "OBJECTID": 2200, "ID": "0007727886", "NAME": "VIDANTE EDGECOMBE HOSPITAL", "ADDRESS": "111 HOSPITAL DR", "CITY": "TARBORO", "STATE": "NC", "ZIP": "27886", "ZIP4": "NOT AVAILABLE", "TELEPHONE": "(252) 641-7700", "TYPE": "GENERAL ACUTE CARE", "STATUS": "OPEN", "POPULATION": 117, "COUNTY": "EDGECOMBE", "COUNTYFIPS": "37065", "COUNTRY": "USA", "LATITUDE": 35.921031406000097, "LONGITUDE": -77.555915619000004, "NAICS_CODE": "622110", "NAICS_DESC": "GENERAL MEDICAL AND SURGICAL HOSPITALS", "SOURCE": "https:\/\/www2.ncdhhs.gov\/dhsr\/reports.htm", "SOURCEDATE": "2018-08-10T00:00:00.000Z", "VAL_METHOD": "IMAGERY\/OTHER", "VAL_DATE": "2014-02-10T00:00:00.000Z", "WEBSITE": "https:\/\/www.vidanthealth.com\/edgecombe\/", "STATE_ID": "NOT AVAILABLE", "ALT_NAME": "NOT AVAILABLE", "ST_FIPS": "37", "OWNER": "NON-PROFIT", "TTL_STAFF": -999, "BEDS": 117, "TRAUMA": "NOT AVAILABLE", "HELIPAD": "Y" }, "geometry": { "type": "Point", "coordinates": [ -77.555915618999961, 35.921031406000054 ] } },
{ "type": "Feature", "properties": { "OBJECTID": 2201, "ID": "0004528256", "NAME": "CAROLINAS HEALTHCARE SYSTEM UNIVERSITY", "ADDRESS": "8800 NORTH TRYON STREET", "CITY": "CHARLOTTE", "STATE": "NC", "ZIP": "28256", "ZIP4": "NOT AVAILABLE", "TELEPHONE": "(704) 863-6000", "TYPE": "GENERAL ACUTE CARE", "STATUS": "OPEN", "POPULATION": 100, "COUNTY": "MECKLENBURG", "COUNTYFIPS": "37119", "COUNTRY": "USA", "LATITUDE": 35.306757427000001, "LONGITUDE": -80.747047941999895, "NAICS_CODE": "622110", "NAICS_DESC": "GENERAL MEDICAL AND SURGICAL HOSPITALS", "SOURCE": "https:\/\/www2.ncdhhs.gov\/dhsr\/reports.htm", "SOURCEDATE": "2018-08-10T00:00:00.000Z", "VAL_METHOD": "IMAGERY\/OTHER", "VAL_DATE": "2014-02-10T00:00:00.000Z", "WEBSITE": "https:\/\/www.carolinashealthcare.org\/locations\/carolinas-healthcare-system-university", "STATE_ID": "NOT AVAILABLE", "ALT_NAME": "CAROLINAS MEDICAL CENTER UNIVERSITY", "ST_FIPS": "37", "OWNER": "GOVERNMENT - DISTRICT\/AUTHORITY", "TTL_STAFF": -999, "BEDS": 100, "TRAUMA": "NOT AVAILABLE", "HELIPAD": "Y" }, "geometry": { "type": "Point", "coordinates": [ -80.747047941999938, 35.306757427000029 ] } },
{ "type": "Feature", "properties": { "OBJECTID": 2202, "ID": "0003328335", "NAME": "BETSY JOHNSON HOSPITAL", "ADDRESS": "800 TILGHMAN DR", "CITY": "DUNN", "STATE": "NC", "ZIP": "28335", "ZIP4": "NOT AVAILABLE", "TELEPHONE": "(910) 892-7161", "TYPE": "GENERAL ACUTE CARE", "STATUS": "OPEN", "POPULATION": 151, "COUNTY": "HARNETT", "COUNTYFIPS": "37085", "COUNTRY": "USA", "LATITUDE": 35.307032736000103, "LONGITUDE": -78.63466618, "NAICS_CODE": "622110", "NAICS_DESC": "GENERAL MEDICAL AND SURGICAL HOSPITALS", "SOURCE": "https:\/\/www2.ncdhhs.gov\/dhsr\/reports.htm", "SOURCEDATE": "2018-08-10T00:00:00.000Z", "VAL_METHOD": "IMAGERY\/OTHER", "VAL_DATE": "2014-02-10T00:00:00.000Z", "WEBSITE": "http:\/\/www.bjrh.org\/", "STATE_ID": "NOT AVAILABLE", "ALT_NAME": "NOT AVAILABLE", "ST_FIPS": "37", "OWNER": "NON-PROFIT", "TTL_STAFF": -999, "BEDS": 151, "TRAUMA": "NOT AVAILABLE", "HELIPAD": "Y" }, "geometry": { "type": "Point", "coordinates": [ -78.634666179999954, 35.307032736000046 ] } },
{ "type": "Feature", "properties": { "OBJECTID": 2203, "ID": "0007427870", "NAME": "HALIFAX REGIONAL MEDICAL CENTER", "ADDRESS": "250 SMITH CHURCH ROAD", "CITY": "ROANOKE RAPIDS", "STATE": "NC", "ZIP": "27870", "ZIP4": "NOT AVAILABLE", "TELEPHONE": "(252) 535-8011", "TYPE": "GENERAL ACUTE CARE", "STATUS": "OPEN", "POPULATION": 206, "COUNTY": "HALIFAX", "COUNTYFIPS": "37083", "COUNTRY": "USA", "LATITUDE": 36.4320062090001, "LONGITUDE": -77.646414115, "NAICS_CODE": "622110", "NAICS_DESC": "GENERAL MEDICAL AND SURGICAL HOSPITALS", "SOURCE": "https:\/\/www2.ncdhhs.gov\/dhsr\/reports.htm", "SOURCEDATE": "2018-08-10T00:00:00.000Z", "VAL_METHOD": "IMAGERY", "VAL_DATE": "2014-02-10T00:00:00.000Z", "WEBSITE": "http:\/\/www.halifaxmedicalcenter.org", "STATE_ID": "NOT AVAILABLE", "ALT_NAME": "NOT AVAILABLE", "ST_FIPS": "37", "OWNER": "NON-PROFIT", "TTL_STAFF": -999, "BEDS": 206, "TRAUMA": "NOT AVAILABLE", "HELIPAD": "Y" }, "geometry": { "type": "Point", "coordinates": [ -77.646414114999985, 36.43200620900005 ] } },
{ "type": "Feature", "properties": { "OBJECTID": 2204, "ID": "0006127611", "NAME": "DUKE HEALTH RALEIGH HOSPITAL", "ADDRESS": "3400 WAKE FOREST ROAD", "CITY": "RALEIGH", "STATE": "NC", "ZIP": "27611", "ZIP4": "NOT AVAILABLE", "TELEPHONE": "(919) 954-3000", "TYPE": "GENERAL ACUTE CARE", "STATUS": "OPEN", "POPULATION": 186, "COUNTY": "WAKE", "COUNTYFIPS": "37183", "COUNTRY": "USA", "LATITUDE": 35.828532570999997, "LONGITUDE": -78.618125956, "NAICS_CODE": "622110", "NAICS_DESC": "GENERAL MEDICAL AND SURGICAL HOSPITALS", "SOURCE": "https:\/\/www2.ncdhhs.gov\/dhsr\/reports.htm", "SOURCEDATE": "2018-08-10T00:00:00.000Z", "VAL_METHOD": "IMAGERY\/OTHER", "VAL_DATE": "2014-02-10T00:00:00.000Z", "WEBSITE": "http:\/\/www.dukehealthraleigh.org", "STATE_ID": "NOT AVAILABLE", "ALT_NAME": "NOT AVAILABLE", "ST_FIPS": "37", "OWNER": "NON-PROFIT", "TTL_STAFF": -999, "BEDS": 186, "TRAUMA": "NOT AVAILABLE", "HELIPAD": "N" }, "geometry": { "type": "Point", "coordinates": [ -78.618125955999957, 35.828532571000039 ] } },
{ "type": "Feature", "properties": { "OBJECTID": 2205, "ID": "0011427511", "NAME": "WAKEMED CARY HOSPITAL", "ADDRESS": "1900 KILDAIRE FARM RD.", "CITY": "CARY", "STATE": "NC", "ZIP": "27511", "ZIP4": "NOT AVAILABLE", "TELEPHONE": "(919) 350-2550", "TYPE": "GENERAL ACUTE CARE", "STATUS": "OPEN", "POPULATION": 150, "COUNTY": "WAKE", "COUNTYFIPS": "37183", "COUNTRY": "USA", "LATITUDE": 35.740224050999998, "LONGITUDE": -78.781456307, "NAICS_CODE": "622110", "NAICS_DESC": "GENERAL MEDICAL AND SURGICAL HOSPITALS", "SOURCE": "https:\/\/www2.ncdhhs.gov\/dhsr\/reports.htm", "SOURCEDATE": "2018-08-10T00:00:00.000Z", "VAL_METHOD": "IMAGERY\/OTHER", "VAL_DATE": "2014-02-10T00:00:00.000Z", "WEBSITE": "http:\/\/www.wakemed.org\/subhome.cfm?id=54", "STATE_ID": "NOT AVAILABLE", "ALT_NAME": "NOT AVAILABLE", "ST_FIPS": "37", "OWNER": "NON-PROFIT", "TTL_STAFF": -999, "BEDS": 150, "TRAUMA": "NOT AVAILABLE", "HELIPAD": "Y" }, "geometry": { "type": "Point", "coordinates": [ -78.781456306999985, 35.740224051000034 ] } },
{ "type": "Feature", "properties": { "OBJECTID": 2206, "ID": "0004928557", "NAME": "CARTERET GENERAL HOSPITAL", "ADDRESS": "3500 ARENDELL STREET", "CITY": "MOREHEAD CITY", "STATE": "NC", "ZIP": "28557", "ZIP4": "NOT AVAILABLE", "TELEPHONE": "(252) 808-6000", "TYPE": "GENERAL ACUTE CARE", "STATUS": "OPEN", "POPULATION": 135, "COUNTY": "CARTERET", "COUNTYFIPS": "37031", "COUNTRY": "USA", "LATITUDE": 34.726209498000102, "LONGITUDE": -76.755041171000002, "NAICS_CODE": "622110", "NAICS_DESC": "GENERAL MEDICAL AND SURGICAL HOSPITALS", "SOURCE": "https:\/\/www2.ncdhhs.gov\/dhsr\/reports.htm", "SOURCEDATE": "2018-08-10T00:00:00.000Z", "VAL_METHOD": "IMAGERY\/OTHER", "VAL_DATE": "2013-09-30T00:00:00.000Z", "WEBSITE": "http:\/\/www.ccgh.org", "STATE_ID": "NOT AVAILABLE", "ALT_NAME": "NOT AVAILABLE", "ST_FIPS": "37", "OWNER": "GOVERNMENT - LOCAL", "TTL_STAFF": -999, "BEDS": 135, "TRAUMA": "NOT AVAILABLE", "HELIPAD": "N" }, "geometry": { "type": "Point", "coordinates": [ -76.755041170999959, 34.726209498000053 ] } },
{ "type": "Feature", "properties": { "OBJECTID": 2207, "ID": "0007028601", "NAME": "FRYE REGIONAL MEDICAL CENTER", "ADDRESS": "420 NORTH CENTER ST", "CITY": "HICKORY", "STATE": "NC", "ZIP": "28601", "ZIP4": "NOT AVAILABLE", "TELEPHONE": "(828) 315-5000", "TYPE": "GENERAL ACUTE CARE", "STATUS": "OPEN", "POPULATION": 355, "COUNTY": "CATAWBA", "COUNTYFIPS": "37035", "COUNTRY": "USA", "LATITUDE": 35.737346474, "LONGITUDE": -81.337270844000003, "NAICS_CODE": "622110", "NAICS_DESC": "GENERAL MEDICAL AND SURGICAL HOSPITALS", "SOURCE": "https:\/\/www2.ncdhhs.gov\/dhsr\/reports.htm", "SOURCEDATE": "2018-08-10T00:00:00.000Z", "VAL_METHOD": "IMAGERY\/OTHER", "VAL_DATE": "2013-10-01T00:00:00.000Z", "WEBSITE": "http:\/\/www.fryemedctr.com", "STATE_ID": "NOT AVAILABLE", "ALT_NAME": "NOT AVAILABLE", "ST_FIPS": "37", "OWNER": "PROPRIETARY", "TTL_STAFF": -999, "BEDS": 355, "TRAUMA": "NOT AVAILABLE", "HELIPAD": "N" }, "geometry": { "type": "Point", "coordinates": [ -81.337270844, 35.737346474000041 ] } },
{ "type": "Feature", "properties": { "OBJECTID": 2208, "ID": "0009828139", "NAME": "RUTHERFORD HOSPITAL, INC.", "ADDRESS": "288 SOUTH RIDGECREST AVE.", "CITY": "RUTHERFORDTON", "STATE": "NC", "ZIP": "28139", "ZIP4": "NOT AVAILABLE", "TELEPHONE": "(828) 286-5000", "TYPE": "GENERAL ACUTE CARE", "STATUS": "OPEN", "POPULATION": 143, "COUNTY": "RUTHERFORD", "COUNTYFIPS": "37161", "COUNTRY": "USA", "LATITUDE": 35.36235121, "LONGITUDE": -81.96559595, "NAICS_CODE": "622110", "NAICS_DESC": "GENERAL MEDICAL AND SURGICAL HOSPITALS", "SOURCE": "https:\/\/www2.ncdhhs.gov\/dhsr\/reports.htm", "SOURCEDATE": "2018-08-10T00:00:00.000Z", "VAL_METHOD": "IMAGERY\/OTHER", "VAL_DATE": "2014-02-10T00:00:00.000Z", "WEBSITE": "http:\/\/www.rutherfordhosp.org", "STATE_ID": "NOT AVAILABLE", "ALT_NAME": "NOT AVAILABLE", "ST_FIPS": "37", "OWNER": "NON-PROFIT", "TTL_STAFF": -999, "BEDS": 143, "TRAUMA": "NOT AVAILABLE", "HELIPAD": "Y" }, "geometry": { "type": "Point", "coordinates": [ -81.965595949999951, 35.362351210000043 ] } },
{ "type": "Feature", "properties": { "OBJECTID": 2209, "ID": "0009928329", "NAME": "SAMPSON REGIONAL MEDICAL CENTER", "ADDRESS": "607 BEAMAN STREET", "CITY": "CLINTON", "STATE": "NC", "ZIP": "28329", "ZIP4": "NOT AVAILABLE", "TELEPHONE": "(910) 592-8511", "TYPE": "GENERAL ACUTE CARE", "STATUS": "OPEN", "POPULATION": 146, "COUNTY": "SAMPSON", "COUNTYFIPS": "37163", "COUNTRY": "USA", "LATITUDE": 35.007183301000097, "LONGITUDE": -78.324487667, "NAICS_CODE": "622110", "NAICS_DESC": "GENERAL MEDICAL AND SURGICAL HOSPITALS", "SOURCE": "https:\/\/www2.ncdhhs.gov\/dhsr\/reports.htm", "SOURCEDATE": "2018-08-10T00:00:00.000Z", "VAL_METHOD": "IMAGERY\/OTHER", "VAL_DATE": "2014-02-10T00:00:00.000Z", "WEBSITE": "http:\/\/www.sampsonrmc.org", "STATE_ID": "NOT AVAILABLE", "ALT_NAME": "NOT AVAILABLE", "ST_FIPS": "37", "OWNER": "GOVERNMENT - LOCAL", "TTL_STAFF": -999, "BEDS": 146, "TRAUMA": "NOT AVAILABLE", "HELIPAD": "Y" }, "geometry": { "type": "Point", "coordinates": [ -78.324487666999985, 35.007183301000055 ] } },
{ "type": "Feature", "properties": { "OBJECTID": 2210, "ID": "0009327810", "NAME": "PUNGO DISTRICT HOSPITAL CORPORATION", "ADDRESS": "202 EAST WATER ST", "CITY": "BELHAVEN", "STATE": "NC", "ZIP": "27810", "ZIP4": "NOT AVAILABLE", "TELEPHONE": "(252) 943-2111", "TYPE": "GENERAL ACUTE CARE", "STATUS": "CLOSED", "POPULATION": 49, "COUNTY": "BEAUFORT", "COUNTYFIPS": "37013", "COUNTRY": "USA", "LATITUDE": 35.537850370999998, "LONGITUDE": -76.623319124000005, "NAICS_CODE": "622110", "NAICS_DESC": "GENERAL MEDICAL AND SURGICAL HOSPITALS", "SOURCE": "https:\/\/www2.ncdhhs.gov\/dhsr\/data\/hllist.pdf", "SOURCEDATE": "2012-07-03T00:00:00.000Z", "VAL_METHOD": "IMAGERY\/OTHER", "VAL_DATE": "2014-02-10T00:00:00.000Z", "WEBSITE": "http:\/\/www.vidanthealth.com\/vidant\/dynamic-detail.aspx?id=11781", "STATE_ID": "NOT AVAILABLE", "ALT_NAME": "NOT AVAILABLE", "ST_FIPS": "37", "OWNER": "NON-PROFIT", "TTL_STAFF": -999, "BEDS": 49, "TRAUMA": "NOT AVAILABLE", "HELIPAD": "Y" }, "geometry": { "type": "Point", "coordinates": [ -76.623319123999963, 35.53785037100004 ] } },
{ "type": "Feature", "properties": { "OBJECTID": 2211, "ID": "0003828645", "NAME": "CALDWELL MEMORIAL HOSPITAL", "ADDRESS": "321 MULBERRY STREET SW", "CITY": "LENOIR", "STATE": "NC", "ZIP": "28645", "ZIP4": "NOT AVAILABLE", "TELEPHONE": "(828) 757-5100", "TYPE": "GENERAL ACUTE CARE", "STATUS": "OPEN", "POPULATION": 110, "COUNTY": "CALDWELL", "COUNTYFIPS": "37027", "COUNTRY": "USA", "LATITUDE": 35.910606527, "LONGITUDE": -81.535161384999995, "NAICS_CODE": "622110", "NAICS_DESC": "GENERAL MEDICAL AND SURGICAL HOSPITALS", "SOURCE": "https:\/\/www2.ncdhhs.gov\/dhsr\/reports.htm", "SOURCEDATE": "2018-08-10T00:00:00.000Z", "VAL_METHOD": "IMAGERY", "VAL_DATE": "2014-02-10T00:00:00.000Z", "WEBSITE": "http:\/\/www.caldwell-mem.org", "STATE_ID": "NOT AVAILABLE", "ALT_NAME": "NOT AVAILABLE", "ST_FIPS": "37", "OWNER": "NON-PROFIT", "TTL_STAFF": -999, "BEDS": 110, "TRAUMA": "NOT AVAILABLE", "HELIPAD": "Y" }, "geometry": { "type": "Point", "coordinates": [ -81.535161384999981, 35.910606527000027 ] } },
{ "type": "Feature", "properties": { "OBJECTID": 2212, "ID": "0005927028", "NAME": "DAVIE COUNTY HOSPITAL", "ADDRESS": "223 HOSPITAL STREET", "CITY": "MOCKSVILLE", "STATE": "NC", "ZIP": "27028", "ZIP4": "NOT AVAILABLE", "TELEPHONE": "(336) 751-8100", "TYPE": "GENERAL ACUTE CARE", "STATUS": "CLOSED", "POPULATION": 81, "COUNTY": "DAVIE", "COUNTYFIPS": "37059", "COUNTRY": "USA", "LATITUDE": 35.899376197000002, "LONGITUDE": -80.571791415999897, "NAICS_CODE": "622110", "NAICS_DESC": "GENERAL MEDICAL AND SURGICAL HOSPITALS", "SOURCE": "https:\/\/www2.ncdhhs.gov\/dhsr\/data\/hllist.pdf", "SOURCEDATE": "2016-01-25T00:00:00.000Z", "VAL_METHOD": "IMAGERY\/OTHER", "VAL_DATE": "2019-05-09T00:00:00.000Z", "WEBSITE": "http:\/\/www.daviehospital.org", "STATE_ID": "NOT AVAILABLE", "ALT_NAME": "NOT AVAILABLE", "ST_FIPS": "37", "OWNER": "NON-PROFIT", "TTL_STAFF": -999, "BEDS": 81, "TRAUMA": "NOT AVAILABLE", "HELIPAD": "N" }, "geometry": { "type": "Point", "coordinates": [ -80.57179141599994, 35.899376197000031 ] } },
{ "type": "Feature", "properties": { "OBJECTID": 2213, "ID": "0008028301", "NAME": "HIGHSMITH-RAINEY MEMORIAL HOSPITAL", "ADDRESS": "150 ROBESON STREET", "CITY": "FAYETTEVILLE", "STATE": "NC", "ZIP": "28301", "ZIP4": "NOT AVAILABLE", "TELEPHONE": "(910) 609-1434", "TYPE": "GENERAL ACUTE CARE", "STATUS": "OPEN", "POPULATION": 66, "COUNTY": "CUMBERLAND", "COUNTYFIPS": "37051", "COUNTRY": "USA", "LATITUDE": 35.0543031650001, "LONGITUDE": -78.888154299000007, "NAICS_CODE": "622110", "NAICS_DESC": "GENERAL MEDICAL AND SURGICAL HOSPITALS", "SOURCE": "https:\/\/www2.ncdhhs.gov\/dhsr\/reports.htm", "SOURCEDATE": "2018-08-10T00:00:00.000Z", "VAL_METHOD": "IMAGERY\/OTHER", "VAL_DATE": "2014-02-10T00:00:00.000Z", "WEBSITE": "http:\/\/www.capefearvalley.com\/hospitals\/hrsh.html", "STATE_ID": "NOT AVAILABLE", "ALT_NAME": "NOT AVAILABLE", "ST_FIPS": "37", "OWNER": "NON-PROFIT", "TTL_STAFF": -999, "BEDS": 66, "TRAUMA": "NOT AVAILABLE", "HELIPAD": "N" }, "geometry": { "type": "Point", "coordinates": [ -78.88815429899995, 35.054303165000078 ] } },
{ "type": "Feature", "properties": { "OBJECTID": 2214, "ID": "0009027293", "NAME": "LEXINGTON MEMORIAL HOSPITAL", "ADDRESS": "250 HOSPITAL DRIVE", "CITY": "LEXINGTON", "STATE": "NC", "ZIP": "27293", "ZIP4": "NOT AVAILABLE", "TELEPHONE": "(336) 248-5161", "TYPE": "GENERAL ACUTE CARE", "STATUS": "OPEN", "POPULATION": 94, "COUNTY": "DAVIDSON", "COUNTYFIPS": "37057", "COUNTRY": "USA", "LATITUDE": 35.806150151000097, "LONGITUDE": -80.2867354159999, "NAICS_CODE": "622110", "NAICS_DESC": "GENERAL MEDICAL AND SURGICAL HOSPITALS", "SOURCE": "https:\/\/www2.ncdhhs.gov\/dhsr\/reports.htm", "SOURCEDATE": "2018-08-10T00:00:00.000Z", "VAL_METHOD": "IMAGERY\/OTHER", "VAL_DATE": "2014-02-10T00:00:00.000Z", "WEBSITE": "http:\/\/lexington.wakehealth.edu\/", "STATE_ID": "NOT AVAILABLE", "ALT_NAME": "NOT AVAILABLE", "ST_FIPS": "37", "OWNER": "NON-PROFIT", "TTL_STAFF": -999, "BEDS": 94, "TRAUMA": "NOT AVAILABLE", "HELIPAD": "Y" }, "geometry": { "type": "Point", "coordinates": [ -80.286735415999956, 35.806150151000054 ] } },
{ "type": "Feature", "properties": { "OBJECTID": 2215, "ID": "0005728561", "NAME": "CAROLINA EAST HEALTH SYSTEM", "ADDRESS": "2000 NEUSE BLVD", "CITY": "NEW BERN", "STATE": "NC", "ZIP": "28561", "ZIP4": "NOT AVAILABLE", "TELEPHONE": "(252) 633-8640", "TYPE": "GENERAL ACUTE CARE", "STATUS": "OPEN", "POPULATION": 350, "COUNTY": "CRAVEN", "COUNTYFIPS": "37049", "COUNTRY": "USA", "LATITUDE": 35.113401928000002, "LONGITUDE": -77.065942891999995, "NAICS_CODE": "622110", "NAICS_DESC": "GENERAL MEDICAL AND SURGICAL HOSPITALS", "SOURCE": "https:\/\/www2.ncdhhs.gov\/dhsr\/reports.htm", "SOURCEDATE": "2018-08-10T00:00:00.000Z", "VAL_METHOD": "IMAGERY\/OTHER", "VAL_DATE": "2014-02-10T00:00:00.000Z", "WEBSITE": "http:\/\/www.carolinaeasthealth.com\/", "STATE_ID": "NOT AVAILABLE", "ALT_NAME": "NOT AVAILABLE", "ST_FIPS": "37", "OWNER": "GOVERNMENT - DISTRICT\/AUTHORITY", "TTL_STAFF": -999, "BEDS": 350, "TRAUMA": "NOT AVAILABLE", "HELIPAD": "Y" }, "geometry": { "type": "Point", "coordinates": [ -77.065942891999953, 35.113401928000023 ] } },
{ "type": "Feature", "properties": { "OBJECTID": 2216, "ID": "0002328719", "NAME": "CHEROKEE INDIAN HOSPITAL AUTHORITY", "ADDRESS": "1 HOSPITAL ROAD", "CITY": "CHEROKEE", "STATE": "NC", "ZIP": "28719", "ZIP4": "NOT AVAILABLE", "TELEPHONE": "(828) 497-9163", "TYPE": "CRITICAL ACCESS", "STATUS": "OPEN", "POPULATION": 28, "COUNTY": "SWAIN", "COUNTYFIPS": "37173", "COUNTRY": "USA", "LATITUDE": 35.484854972999997, "LONGITUDE": -83.323384402000002, "NAICS_CODE": "622110", "NAICS_DESC": "GENERAL MEDICAL AND SURGICAL HOSPITALS", "SOURCE": "https:\/\/www.ihs.gov\/findhealthcare\/", "SOURCEDATE": "2018-09-27T00:00:00.000Z", "VAL_METHOD": "IMAGERY\/OTHER", "VAL_DATE": "2015-04-29T00:00:00.000Z", "WEBSITE": "www.cherokee-hmd.com\/â€Ž", "STATE_ID": "NOT AVAILABLE", "ALT_NAME": "NOT AVAILABLE", "ST_FIPS": "37", "OWNER": "NON-PROFIT", "TTL_STAFF": -999, "BEDS": 28, "TRAUMA": "NOT AVAILABLE", "HELIPAD": "Y" }, "geometry": { "type": "Point", "coordinates": [ -83.323384401999988, 35.484854973000026 ] } },
{ "type": "Feature", "properties": { "OBJECTID": 2217, "ID": "0010428002", "NAME": "CAROLINAS HEALTHCARE SYSTEM STANLY", "ADDRESS": "301 YADKIN STREET", "CITY": "ALBEMARLE", "STATE": "NC", "ZIP": "28002", "ZIP4": "NOT AVAILABLE", "TELEPHONE": "(704) 984-4347", "TYPE": "GENERAL ACUTE CARE", "STATUS": "OPEN", "POPULATION": 109, "COUNTY": "STANLY", "COUNTYFIPS": "37167", "COUNTRY": "USA", "LATITUDE": 35.364443197000099, "LONGITUDE": -80.194822664999904, "NAICS_CODE": "622110", "NAICS_DESC": "GENERAL MEDICAL AND SURGICAL HOSPITALS", "SOURCE": "https:\/\/www2.ncdhhs.gov\/dhsr\/reports.htm", "SOURCEDATE": "2018-08-10T00:00:00.000Z", "VAL_METHOD": "IMAGERY", "VAL_DATE": "2014-02-10T00:00:00.000Z", "WEBSITE": "http:\/\/www.stanly.org", "STATE_ID": "NOT AVAILABLE", "ALT_NAME": "STANLY REGIONAL MEDICAL CENTER", "ST_FIPS": "37", "OWNER": "GOVERNMENT - DISTRICT\/AUTHORITY", "TTL_STAFF": -999, "BEDS": 109, "TRAUMA": "NOT AVAILABLE", "HELIPAD": "Y" }, "geometry": { "type": "Point", "coordinates": [ -80.194822664999933, 35.364443197000078 ] } },
{ "type": "Feature", "properties": { "OBJECTID": 2561, "ID": "0000427892", "NAME": "MARTIN GENERAL HOSPITAL", "ADDRESS": "310 SOUTH MCCASKEY ROAD", "CITY": "WILLIAMSTON", "STATE": "NC", "ZIP": "27892", "ZIP4": "NOT AVAILABLE", "TELEPHONE": "(252) 809-6179", "TYPE": "GENERAL ACUTE CARE", "STATUS": "OPEN", "POPULATION": 49, "COUNTY": "MARTIN", "COUNTYFIPS": "37117", "COUNTRY": "USA", "LATITUDE": 35.839790694999998, "LONGITUDE": -77.072254, "NAICS_CODE": "622110", "NAICS_DESC": "GENERAL MEDICAL AND SURGICAL HOSPITALS", "SOURCE": "https:\/\/www2.ncdhhs.gov\/dhsr\/reports.htm", "SOURCEDATE": "2018-08-10T00:00:00.000Z", "VAL_METHOD": "IMAGERY", "VAL_DATE": "2014-02-10T00:00:00.000Z", "WEBSITE": "http:\/\/www.martingeneral.com", "STATE_ID": "NOT AVAILABLE", "ALT_NAME": "NOT AVAILABLE", "ST_FIPS": "37", "OWNER": "PROPRIETARY", "TTL_STAFF": -999, "BEDS": 49, "TRAUMA": "NOT AVAILABLE", "HELIPAD": "Y" }, "geometry": { "type": "Point", "coordinates": [ -77.072254, 35.839790695000026 ] } },
{ "type": "Feature", "properties": { "OBJECTID": 2565, "ID": "0003028801", "NAME": "ASHEVILLE SPECIALTY HOSPITAL", "ADDRESS": "428 BILTMORE AVE", "CITY": "ASHEVILLE", "STATE": "NC", "ZIP": "28801", "ZIP4": "NOT AVAILABLE", "TELEPHONE": "(828) 213-5400", "TYPE": "LONG TERM CARE", "STATUS": "OPEN", "POPULATION": 34, "COUNTY": "BUNCOMBE", "COUNTYFIPS": "37021", "COUNTRY": "USA", "LATITUDE": 35.580556693000098, "LONGITUDE": -82.54999055, "NAICS_CODE": "622310", "NAICS_DESC": "SPECIALTY (EXCEPT PSYCHIATRIC AND SUBSTANCE ABUSE) HOSPITALS", "SOURCE": "https:\/\/www2.ncdhhs.gov\/dhsr\/reports.htm", "SOURCEDATE": "2018-08-10T00:00:00.000Z", "VAL_METHOD": "IMAGERY", "VAL_DATE": "2014-02-10T00:00:00.000Z", "WEBSITE": "http:\/\/www.missionhospitals.org\/acute-care", "STATE_ID": "NOT AVAILABLE", "ALT_NAME": "NOT AVAILABLE", "ST_FIPS": "37", "OWNER": "PROPRIETARY", "TTL_STAFF": -999, "BEDS": 34, "TRAUMA": "NOT AVAILABLE", "HELIPAD": "N" }, "geometry": { "type": "Point", "coordinates": [ -82.549990549999961, 35.580556693000055 ] } },
{ "type": "Feature", "properties": { "OBJECTID": 2638, "ID": "0011828659", "NAME": "WILKES REGIONAL MEDICAL CENTER", "ADDRESS": "1370 WEST 'D' STREET", "CITY": "NORTH WILKESBORO", "STATE": "NC", "ZIP": "28659", "ZIP4": "NOT AVAILABLE", "TELEPHONE": "(336) 651-8100", "TYPE": "GENERAL ACUTE CARE", "STATUS": "OPEN", "POPULATION": 130, "COUNTY": "WILKES", "COUNTYFIPS": "37193", "COUNTRY": "USA", "LATITUDE": 36.159193039000101, "LONGITUDE": -81.157911645999903, "NAICS_CODE": "622110", "NAICS_DESC": "GENERAL MEDICAL AND SURGICAL HOSPITALS", "SOURCE": "https:\/\/www2.ncdhhs.gov\/dhsr\/reports.htm", "SOURCEDATE": "2018-08-10T00:00:00.000Z", "VAL_METHOD": "IMAGERY\/OTHER", "VAL_DATE": "2014-02-10T00:00:00.000Z", "WEBSITE": "http:\/\/www.wilkesregional.org", "STATE_ID": "NOT AVAILABLE", "ALT_NAME": "NOT AVAILABLE", "ST_FIPS": "37", "OWNER": "GOVERNMENT - DISTRICT\/AUTHORITY", "TTL_STAFF": -999, "BEDS": 130, "TRAUMA": "NOT AVAILABLE", "HELIPAD": "Y" }, "geometry": { "type": "Point", "coordinates": [ -81.15791164599996, 36.159193039000058 ] } },
{ "type": "Feature", "properties": { "OBJECTID": 2964, "ID": "0006628374", "NAME": "FIRSTHEALTH MOORE REG. HOSP. AND PINEHURST TREATMENT", "ADDRESS": "155 MEMORIAL DRIVE", "CITY": "PINEHURST", "STATE": "NC", "ZIP": "28374", "ZIP4": "NOT AVAILABLE", "TELEPHONE": "(910) 215-1000", "TYPE": "GENERAL ACUTE CARE", "STATUS": "OPEN", "POPULATION": 372, "COUNTY": "MOORE", "COUNTYFIPS": "37125", "COUNTRY": "USA", "LATITUDE": 35.2052993510001, "LONGITUDE": -79.456438527000003, "NAICS_CODE": "622110", "NAICS_DESC": "GENERAL MEDICAL AND SURGICAL HOSPITALS", "SOURCE": "https:\/\/www2.ncdhhs.gov\/dhsr\/reports.htm", "SOURCEDATE": "2018-08-10T00:00:00.000Z", "VAL_METHOD": "IMAGERY\/OTHER", "VAL_DATE": "2014-02-10T00:00:00.000Z", "WEBSITE": "http:\/\/www.firsthealth.org", "STATE_ID": "NOT AVAILABLE", "ALT_NAME": "NOT AVAILABLE", "ST_FIPS": "37", "OWNER": "NON-PROFIT", "TTL_STAFF": -999, "BEDS": 372, "TRAUMA": "NOT AVAILABLE", "HELIPAD": "Y" }, "geometry": { "type": "Point", "coordinates": [ -79.456438526999989, 35.205299351000065 ] } },
{ "type": "Feature", "properties": { "OBJECTID": 4067, "ID": "0014728217", "NAME": "CAROLINA CONTINUECARE AT UNIVERSITY", "ADDRESS": "8800 NORTH TRYON ST, 4TH FLOOR", "CITY": "CHARLOTTE", "STATE": "NC", "ZIP": "28217", "ZIP4": "NOT AVAILABLE", "TELEPHONE": "(704) 863-8300", "TYPE": "LONG TERM CARE", "STATUS": "OPEN", "POPULATION": 35, "COUNTY": "MECKLENBURG", "COUNTYFIPS": "37119", "COUNTRY": "USA", "LATITUDE": 35.306757427000001, "LONGITUDE": -80.747726087999993, "NAICS_CODE": "622310", "NAICS_DESC": "SPECIALTY (EXCEPT PSYCHIATRIC AND SUBSTANCE ABUSE) HOSPITALS", "SOURCE": "https:\/\/www2.ncdhhs.gov\/dhsr\/reports.htm", "SOURCEDATE": "2018-08-10T00:00:00.000Z", "VAL_METHOD": "IMAGERY\/OTHER", "VAL_DATE": "2016-01-28T00:00:00.000Z", "WEBSITE": "http:\/\/continuecare.org\/charlotte\/", "STATE_ID": "NOT AVAILABLE", "ALT_NAME": "NOT AVAILABLE", "ST_FIPS": "37", "OWNER": "NON-PROFIT", "TTL_STAFF": -999, "BEDS": 35, "TRAUMA": "NOT AVAILABLE", "HELIPAD": "Y" }, "geometry": { "type": "Point", "coordinates": [ -80.747726087999979, 35.306757427000029 ] } },
{ "type": "Feature", "properties": { "OBJECTID": 4068, "ID": "0014828210", "NAME": "CAROLINA CONTINUECARE AT PINEVILLE", "ADDRESS": "10648 PARK ROAD, 3RD FLOOR", "CITY": "CHARLOTTE", "STATE": "NC", "ZIP": "28210", "ZIP4": "NOT AVAILABLE", "TELEPHONE": "(704) 667-8050", "TYPE": "LONG TERM CARE", "STATUS": "OPEN", "POPULATION": 40, "COUNTY": "MECKLENBURG", "COUNTYFIPS": "37119", "COUNTRY": "USA", "LATITUDE": 35.090827210999997, "LONGITUDE": -80.871225576000001, "NAICS_CODE": "622310", "NAICS_DESC": "SPECIALTY (EXCEPT PSYCHIATRIC AND SUBSTANCE ABUSE) HOSPITALS", "SOURCE": "https:\/\/www2.ncdhhs.gov\/dhsr\/reports.htm", "SOURCEDATE": "2018-08-10T00:00:00.000Z", "VAL_METHOD": "IMAGERY\/OTHER", "VAL_DATE": "2016-01-28T00:00:00.000Z", "WEBSITE": "http:\/\/continuecare.org\/pineville\/", "STATE_ID": "NOT AVAILABLE", "ALT_NAME": "NOT AVAILABLE", "ST_FIPS": "37", "OWNER": "NON-PROFIT", "TTL_STAFF": -999, "BEDS": 40, "TRAUMA": "NOT AVAILABLE", "HELIPAD": "Y" }, "geometry": { "type": "Point", "coordinates": [ -80.871225575999972, 35.090827211000025 ] } },
{ "type": "Feature", "properties": { "OBJECTID": 4069, "ID": "0014927103", "NAME": "SELECT SPECIALTY HOSPITAL - WINSTON SALEM", "ADDRESS": "3333 SILAS CREEK PARKWAY, 6TH FLOOR", "CITY": "WINSTON SALEM", "STATE": "NC", "ZIP": "27103", "ZIP4": "NOT AVAILABLE", "TELEPHONE": "(336) 760-4668", "TYPE": "GENERAL ACUTE CARE", "STATUS": "OPEN", "POPULATION": 42, "COUNTY": "FORSYTH", "COUNTYFIPS": "37067", "COUNTRY": "USA", "LATITUDE": 36.074722361000099, "LONGITUDE": -80.297522726999901, "NAICS_CODE": "622110", "NAICS_DESC": "GENERAL MEDICAL AND SURGICAL HOSPITALS", "SOURCE": "https:\/\/www2.ncdhhs.gov\/dhsr\/reports.htm", "SOURCEDATE": "2018-08-10T00:00:00.000Z", "VAL_METHOD": "IMAGERY\/OTHER", "VAL_DATE": "2016-02-22T00:00:00.000Z", "WEBSITE": "http:\/\/winstonsalem.selectspecialtyhospitals.com\/", "STATE_ID": "NOT AVAILABLE", "ALT_NAME": "NOT AVAILABLE", "ST_FIPS": "37", "OWNER": "PROPRIETARY", "TTL_STAFF": -999, "BEDS": 42, "TRAUMA": "NOT AVAILABLE", "HELIPAD": "Y" }, "geometry": { "type": "Point", "coordinates": [ -80.297522726999958, 36.074722361000056 ] } },
{ "type": "Feature", "properties": { "OBJECTID": 4192, "ID": "0015027704", "NAME": "SELECT SPECIALTY HOSPITAL - DURHAM", "ADDRESS": "3643 NORTH ROXBORO STREET, 6TH FLOOR", "CITY": "DURHAM", "STATE": "NC", "ZIP": "27704", "ZIP4": "NOT AVAILABLE", "TELEPHONE": "(919) 470-9159", "TYPE": "GENERAL ACUTE CARE", "STATUS": "OPEN", "POPULATION": 30, "COUNTY": "DURHAM", "COUNTYFIPS": "37063", "COUNTRY": "USA", "LATITUDE": 36.037497914, "LONGITUDE": -78.900606701999905, "NAICS_CODE": "622110", "NAICS_DESC": "GENERAL MEDICAL AND SURGICAL HOSPITALS", "SOURCE": "https:\/\/www2.ncdhhs.gov\/dhsr\/reports.htm", "SOURCEDATE": "2018-08-10T00:00:00.000Z", "VAL_METHOD": "IMAGERY\/OTHER", "VAL_DATE": "2016-02-22T00:00:00.000Z", "WEBSITE": "http:\/\/durham.selectspecialtyhospitals.com\/", "STATE_ID": "NOT AVAILABLE", "ALT_NAME": "NOT AVAILABLE", "ST_FIPS": "37", "OWNER": "PROPRIETARY", "TTL_STAFF": -999, "BEDS": 30, "TRAUMA": "NOT AVAILABLE", "HELIPAD": "N" }, "geometry": { "type": "Point", "coordinates": [ -78.900606701999948, 36.037497914000021 ] } },
{ "type": "Feature", "properties": { "OBJECTID": 4253, "ID": "0013128533", "NAME": "NAVAL HEALTH CLINIC CHERRY POINT", "ADDRESS": "BEAUFORT ROAD, BUILDING 4385", "CITY": "CHERRY POINT", "STATE": "NC", "ZIP": "28533", "ZIP4": "NOT AVAILABLE", "TELEPHONE": "(252) 466-0266", "TYPE": "GENERAL ACUTE CARE", "STATUS": "OPEN", "POPULATION": -999, "COUNTY": "CRAVEN", "COUNTYFIPS": "37049", "COUNTRY": "USA", "LATITUDE": 34.895165534999997, "LONGITUDE": -76.908676396000004, "NAICS_CODE": "622110", "NAICS_DESC": "GENERAL MEDICAL AND SURGICAL HOSPITALS", "SOURCE": "https:\/\/www2.ncdhhs.gov\/dhsr\/reports.htm", "SOURCEDATE": "2018-08-10T00:00:00.000Z", "VAL_METHOD": "IMAGERY", "VAL_DATE": "2013-10-02T00:00:00.000Z", "WEBSITE": "http:\/\/www.med.navy.mil\/sites\/cpoint\/Pages\/default.aspx", "STATE_ID": "NOT AVAILABLE", "ALT_NAME": "NOT AVAILABLE", "ST_FIPS": "37", "OWNER": "GOVERNMENT - DISTRICT\/AUTHORITY", "TTL_STAFF": -999, "BEDS": -999, "TRAUMA": "NOT AVAILABLE", "HELIPAD": "N" }, "geometry": { "type": "Point", "coordinates": [ -76.908676395999962, 34.895165535000039 ] } },
{ "type": "Feature", "properties": { "OBJECTID": 4611, "ID": "0001828425", "NAME": "PENDER MEMORIAL HOSPITAL, INC.", "ADDRESS": "507 E FREMONT STREET", "CITY": "BURGAW", "STATE": "NC", "ZIP": "28425", "ZIP4": "NOT AVAILABLE", "TELEPHONE": "(910) 259-5451", "TYPE": "GENERAL ACUTE CARE", "STATUS": "OPEN", "POPULATION": 86, "COUNTY": "PENDER", "COUNTYFIPS": "37141", "COUNTRY": "USA", "LATITUDE": 34.5506675520001, "LONGITUDE": -77.919875067999996, "NAICS_CODE": "622110", "NAICS_DESC": "GENERAL MEDICAL AND SURGICAL HOSPITALS", "SOURCE": "https:\/\/www2.ncdhhs.gov\/dhsr\/reports.htm", "SOURCEDATE": "2018-08-10T00:00:00.000Z", "VAL_METHOD": "IMAGERY", "VAL_DATE": "2014-02-10T00:00:00.000Z", "WEBSITE": "http:\/\/www.pendermemorial.org", "STATE_ID": "NOT AVAILABLE", "ALT_NAME": "NOT AVAILABLE", "ST_FIPS": "37", "OWNER": "GOVERNMENT - LOCAL", "TTL_STAFF": -999, "BEDS": 86, "TRAUMA": "NOT AVAILABLE", "HELIPAD": "Y" }, "geometry": { "type": "Point", "coordinates": [ -77.919875067999953, 34.550667552000043 ] } },
{ "type": "Feature", "properties": { "OBJECTID": 4616, "ID": "0009127804", "NAME": "LIFECARE HOSPITALS OF NORTH CAROLINA", "ADDRESS": "1051 NOELL LANE", "CITY": "ROCKY MOUNT", "STATE": "NC", "ZIP": "27804", "ZIP4": "NOT AVAILABLE", "TELEPHONE": "(252) 451-2300", "TYPE": "LONG TERM CARE", "STATUS": "OPEN", "POPULATION": 50, "COUNTY": "NASH", "COUNTYFIPS": "37127", "COUNTRY": "USA", "LATITUDE": 35.971412615000098, "LONGITUDE": -77.821183762999993, "NAICS_CODE": "622310", "NAICS_DESC": "SPECIALTY (EXCEPT PSYCHIATRIC AND SUBSTANCE ABUSE) HOSPITALS", "SOURCE": "https:\/\/www2.ncdhhs.gov\/dhsr\/reports.htm", "SOURCEDATE": "2018-08-10T00:00:00.000Z", "VAL_METHOD": "IMAGERY", "VAL_DATE": "2014-02-10T00:00:00.000Z", "WEBSITE": "http:\/\/www.lifecare-hospitals.com", "STATE_ID": "NOT AVAILABLE", "ALT_NAME": "NOT AVAILABLE", "ST_FIPS": "37", "OWNER": "PROPRIETARY", "TTL_STAFF": -999, "BEDS": 50, "TRAUMA": "NOT AVAILABLE", "HELIPAD": "N" }, "geometry": { "type": "Point", "coordinates": [ -77.821183762999965, 35.971412615000077 ] } },
{ "type": "Feature", "properties": { "OBJECTID": 4683, "ID": "0001327704", "NAME": "NORTH CAROLINA SPECIALTY HOSPITAL", "ADDRESS": "3916 BEN FRANKLIN BOULEVARD", "CITY": "DURHAM", "STATE": "NC", "ZIP": "27704", "ZIP4": "NOT AVAILABLE", "TELEPHONE": "(919) 956-9300", "TYPE": "GENERAL ACUTE CARE", "STATUS": "OPEN", "POPULATION": 18, "COUNTY": "DURHAM", "COUNTYFIPS": "37063", "COUNTRY": "USA", "LATITUDE": 36.043036072000099, "LONGITUDE": -78.896994668999994, "NAICS_CODE": "622110", "NAICS_DESC": "GENERAL MEDICAL AND SURGICAL HOSPITALS", "SOURCE": "https:\/\/www2.ncdhhs.gov\/dhsr\/reports.htm", "SOURCEDATE": "2018-08-10T00:00:00.000Z", "VAL_METHOD": "IMAGERY\/OTHER", "VAL_DATE": "2013-09-25T00:00:00.000Z", "WEBSITE": "http:\/\/www.ncspecialty.com", "STATE_ID": "NOT AVAILABLE", "ALT_NAME": "NOT AVAILABLE", "ST_FIPS": "37", "OWNER": "PROPRIETARY", "TTL_STAFF": -999, "BEDS": 18, "TRAUMA": "NOT AVAILABLE", "HELIPAD": "N" }, "geometry": { "type": "Point", "coordinates": [ -78.89699466899998, 36.043036072000056 ] } },
{ "type": "Feature", "properties": { "OBJECTID": 4684, "ID": "0008828117", "NAME": "LAKE NORMAN REGIONAL MEDICAL CENTER", "ADDRESS": "171 FAIRVIEW ROAD", "CITY": "MOORESVILLE", "STATE": "NC", "ZIP": "28117", "ZIP4": "NOT AVAILABLE", "TELEPHONE": "(704) 660-4010", "TYPE": "GENERAL ACUTE CARE", "STATUS": "OPEN", "POPULATION": 105, "COUNTY": "IREDELL", "COUNTYFIPS": "37097", "COUNTRY": "USA", "LATITUDE": 35.549204783999997, "LONGITUDE": -80.853572295999996, "NAICS_CODE": "622110", "NAICS_DESC": "GENERAL MEDICAL AND SURGICAL HOSPITALS", "SOURCE": "https:\/\/www2.ncdhhs.gov\/dhsr\/reports.htm", "SOURCEDATE": "2018-08-10T00:00:00.000Z", "VAL_METHOD": "IMAGERY\/OTHER", "VAL_DATE": "2014-02-10T00:00:00.000Z", "WEBSITE": "http:\/\/www.lnrmc.com", "STATE_ID": "NOT AVAILABLE", "ALT_NAME": "NOT AVAILABLE", "ST_FIPS": "37", "OWNER": "PROPRIETARY", "TTL_STAFF": -999, "BEDS": 105, "TRAUMA": "NOT AVAILABLE", "HELIPAD": "Y" }, "geometry": { "type": "Point", "coordinates": [ -80.853572295999982, 35.549204784000032 ] } },
{ "type": "Feature", "properties": { "OBJECTID": 4686, "ID": "0001027804", "NAME": "NASH GENERAL HOSPITAL", "ADDRESS": "2460 CURTIS ELLIS DR.", "CITY": "ROCKY MOUNT", "STATE": "NC", "ZIP": "27804", "ZIP4": "NOT AVAILABLE", "TELEPHONE": "(252) 443-8070", "TYPE": "GENERAL ACUTE CARE", "STATUS": "OPEN", "POPULATION": 353, "COUNTY": "NASH", "COUNTYFIPS": "37127", "COUNTRY": "USA", "LATITUDE": 35.97615597, "LONGITUDE": -77.852310808, "NAICS_CODE": "622110", "NAICS_DESC": "GENERAL MEDICAL AND SURGICAL HOSPITALS", "SOURCE": "https:\/\/www2.ncdhhs.gov\/dhsr\/reports.htm", "SOURCEDATE": "2018-08-10T00:00:00.000Z", "VAL_METHOD": "IMAGERY\/OTHER", "VAL_DATE": "2014-02-10T00:00:00.000Z", "WEBSITE": "http:\/\/www.nhcs.org", "STATE_ID": "NOT AVAILABLE", "ALT_NAME": "NOT AVAILABLE", "ST_FIPS": "37", "OWNER": "GOVERNMENT - DISTRICT\/AUTHORITY", "TTL_STAFF": -999, "BEDS": 353, "TRAUMA": "NOT AVAILABLE", "HELIPAD": "Y" }, "geometry": { "type": "Point", "coordinates": [ -77.85231080799997, 35.976155970000036 ] } },
{ "type": "Feature", "properties": { "OBJECTID": 4687, "ID": "0001128401", "NAME": "NEW HANOVER REGIONAL MEDICAL CENTER", "ADDRESS": "2228 S. 17TH STREET\/FISCAL SERVICES", "CITY": "WILMINGTON", "STATE": "NC", "ZIP": "28401", "ZIP4": "NOT AVAILABLE", "TELEPHONE": "(910) 343-7040", "TYPE": "GENERAL ACUTE CARE", "STATUS": "OPEN", "POPULATION": 769, "COUNTY": "NEW HANOVER", "COUNTYFIPS": "37129", "COUNTRY": "USA", "LATITUDE": 34.205463843000103, "LONGITUDE": -77.921284815000007, "NAICS_CODE": "622110", "NAICS_DESC": "GENERAL MEDICAL AND SURGICAL HOSPITALS", "SOURCE": "https:\/\/www2.ncdhhs.gov\/dhsr\/reports.htm", "SOURCEDATE": "2018-08-10T00:00:00.000Z", "VAL_METHOD": "IMAGERY\/OTHER", "VAL_DATE": "2014-02-10T00:00:00.000Z", "WEBSITE": "http:\/\/www.nhhn.org", "STATE_ID": "NOT AVAILABLE", "ALT_NAME": "NOT AVAILABLE", "ST_FIPS": "37", "OWNER": "GOVERNMENT - LOCAL", "TTL_STAFF": -999, "BEDS": 769, "TRAUMA": "LEVEL II", "HELIPAD": "Y" }, "geometry": { "type": "Point", "coordinates": [ -77.921284814999964, 34.205463843000068 ] } },
{ "type": "Feature", "properties": { "OBJECTID": 5066, "ID": "0006827103", "NAME": "NOVANT HEALTH FORSYTH MEDICAL CENTER", "ADDRESS": "3333 SILAS CREEK PKWY", "CITY": "WINSTON SALEM", "STATE": "NC", "ZIP": "27103", "ZIP4": "NOT AVAILABLE", "TELEPHONE": "(336) 718-5000", "TYPE": "GENERAL ACUTE CARE", "STATUS": "OPEN", "POPULATION": 919, "COUNTY": "FORSYTH", "COUNTYFIPS": "37067", "COUNTRY": "USA", "LATITUDE": 36.075550413000002, "LONGITUDE": -80.297287159999897, "NAICS_CODE": "622110", "NAICS_DESC": "GENERAL MEDICAL AND SURGICAL HOSPITALS", "SOURCE": "https:\/\/www2.ncdhhs.gov\/dhsr\/reports.htm", "SOURCEDATE": "2018-08-10T00:00:00.000Z", "VAL_METHOD": "IMAGERY\/OTHER", "VAL_DATE": "2014-02-10T00:00:00.000Z", "WEBSITE": "https:\/\/www.novanthealth.org\/forsyth-medical-center.aspx", "STATE_ID": "NOT AVAILABLE", "ALT_NAME": "NOT AVAILABLE", "ST_FIPS": "37", "OWNER": "NON-PROFIT", "TTL_STAFF": -999, "BEDS": 919, "TRAUMA": "NOT AVAILABLE", "HELIPAD": "Y" }, "geometry": { "type": "Point", "coordinates": [ -80.297287159999939, 36.075550413000023 ] } },
{ "type": "Feature", "properties": { "OBJECTID": 5067, "ID": "0006927549", "NAME": "FRANKLIN REGIONAL MEDICAL CENTER", "ADDRESS": "100 HOSPITAL DRIVE", "CITY": "LOUISBURG", "STATE": "NC", "ZIP": "27549", "ZIP4": "NOT AVAILABLE", "TELEPHONE": "(919) 496-5131", "TYPE": "GENERAL ACUTE CARE", "STATUS": "CLOSED", "POPULATION": 83, "COUNTY": "FRANKLIN", "COUNTYFIPS": "37069", "COUNTRY": "USA", "LATITUDE": 36.112306165000099, "LONGITUDE": -78.293533785999998, "NAICS_CODE": "622110", "NAICS_DESC": "GENERAL MEDICAL AND SURGICAL HOSPITALS", "SOURCE": "https:\/\/www2.ncdhhs.gov\/dhsr\/data\/hllist.pdf", "SOURCEDATE": "2012-07-03T00:00:00.000Z", "VAL_METHOD": "IMAGERY\/OTHER", "VAL_DATE": "2014-02-10T00:00:00.000Z", "WEBSITE": "https:\/\/www.novanthealth.org\/franklin-medical-center.aspx", "STATE_ID": "NOT AVAILABLE", "ALT_NAME": "NOT AVAILABLE", "ST_FIPS": "37", "OWNER": "NON-PROFIT", "TTL_STAFF": -999, "BEDS": 83, "TRAUMA": "NOT AVAILABLE", "HELIPAD": "Y" }, "geometry": { "type": "Point", "coordinates": [ -78.293533785999955, 36.112306165000057 ] } },
{ "type": "Feature", "properties": { "OBJECTID": 5068, "ID": "0005127330", "NAME": "CENTRAL CAROLINA HOSPITAL", "ADDRESS": "1135 CARTHAGE ST", "CITY": "SANFORD", "STATE": "NC", "ZIP": "27330", "ZIP4": "NOT AVAILABLE", "TELEPHONE": "(919) 774-2100", "TYPE": "GENERAL ACUTE CARE", "STATUS": "OPEN", "POPULATION": 127, "COUNTY": "LEE", "COUNTYFIPS": "37105", "COUNTRY": "USA", "LATITUDE": 35.4690744850001, "LONGITUDE": -79.187204878000003, "NAICS_CODE": "622110", "NAICS_DESC": "GENERAL MEDICAL AND SURGICAL HOSPITALS", "SOURCE": "https:\/\/www2.ncdhhs.gov\/dhsr\/reports.htm", "SOURCEDATE": "2018-08-10T00:00:00.000Z", "VAL_METHOD": "IMAGERY\/OTHER", "VAL_DATE": "2014-02-10T00:00:00.000Z", "WEBSITE": "http:\/\/www.centralcarolinahosp.com", "STATE_ID": "NOT AVAILABLE", "ALT_NAME": "NOT AVAILABLE", "ST_FIPS": "37", "OWNER": "PROPRIETARY", "TTL_STAFF": -999, "BEDS": 127, "TRAUMA": "NOT AVAILABLE", "HELIPAD": "Y" }, "geometry": { "type": "Point", "coordinates": [ -79.187204878, 35.469074485000078 ] } },
{ "type": "Feature", "properties": { "OBJECTID": 5069, "ID": "0007327565", "NAME": "GRANVILLE HEALTH SYSTEM", "ADDRESS": "1010 COLLEGE STREET", "CITY": "OXFORD", "STATE": "NC", "ZIP": "27565", "ZIP4": "NOT AVAILABLE", "TELEPHONE": "(919) 690-3000", "TYPE": "GENERAL ACUTE CARE", "STATUS": "OPEN", "POPULATION": 142, "COUNTY": "GRANVILLE", "COUNTYFIPS": "37077", "COUNTRY": "USA", "LATITUDE": 36.326415689000001, "LONGITUDE": -78.59335192, "NAICS_CODE": "622110", "NAICS_DESC": "GENERAL MEDICAL AND SURGICAL HOSPITALS", "SOURCE": "https:\/\/www2.ncdhhs.gov\/dhsr\/reports.htm", "SOURCEDATE": "2018-08-10T00:00:00.000Z", "VAL_METHOD": "IMAGERY\/OTHER", "VAL_DATE": "2014-02-10T00:00:00.000Z", "WEBSITE": "http:\/\/www.granvillemedical.com", "STATE_ID": "NOT AVAILABLE", "ALT_NAME": "NOT AVAILABLE", "ST_FIPS": "37", "OWNER": "GOVERNMENT - LOCAL", "TTL_STAFF": -999, "BEDS": 142, "TRAUMA": "NOT AVAILABLE", "HELIPAD": "Y" }, "geometry": { "type": "Point", "coordinates": [ -78.593351919999975, 36.326415689000036 ] } },
{ "type": "Feature", "properties": { "OBJECTID": 5070, "ID": "0004228207", "NAME": "CAROLINAS MEDICAL CENTER-MERCY", "ADDRESS": "2001 VAIL AVE", "CITY": "CHARLOTTE", "STATE": "NC", "ZIP": "28207", "ZIP4": "NOT AVAILABLE", "TELEPHONE": "(704) 304-5000", "TYPE": "GENERAL ACUTE CARE", "STATUS": "OPEN", "POPULATION": 305, "COUNTY": "MECKLENBURG", "COUNTYFIPS": "37119", "COUNTRY": "USA", "LATITUDE": 35.210155172, "LONGITUDE": -80.821029091999904, "NAICS_CODE": "622110", "NAICS_DESC": "GENERAL MEDICAL AND SURGICAL HOSPITALS", "SOURCE": "https:\/\/www2.ncdhhs.gov\/dhsr\/reports.htm", "SOURCEDATE": "2018-08-10T00:00:00.000Z", "VAL_METHOD": "IMAGERY\/OTHER", "VAL_DATE": "2013-09-26T00:00:00.000Z", "WEBSITE": "http:\/\/www.carolinashealthcare.org\/cmc-mercy", "STATE_ID": "NOT AVAILABLE", "ALT_NAME": "NOT AVAILABLE", "ST_FIPS": "37", "OWNER": "GOVERNMENT - DISTRICT\/AUTHORITY", "TTL_STAFF": -999, "BEDS": 305, "TRAUMA": "NOT AVAILABLE", "HELIPAD": "Y" }, "geometry": { "type": "Point", "coordinates": [ -80.821029091999932, 35.210155172000043 ] } },
{ "type": "Feature", "properties": { "OBJECTID": 5071, "ID": "0012528210", "NAME": "CAROLINAS HEALTHCARE SYSTEM PINEVILLE", "ADDRESS": "10628 PARK RD", "CITY": "CHARLOTTE", "STATE": "NC", "ZIP": "28210", "ZIP4": "NOT AVAILABLE", "TELEPHONE": "(704) 543-2025", "TYPE": "GENERAL ACUTE CARE", "STATUS": "OPEN", "POPULATION": 206, "COUNTY": "MECKLENBURG", "COUNTYFIPS": "37119", "COUNTRY": "USA", "LATITUDE": 35.092012183000101, "LONGITUDE": -80.871618186999996, "NAICS_CODE": "622110", "NAICS_DESC": "GENERAL MEDICAL AND SURGICAL HOSPITALS", "SOURCE": "https:\/\/www2.ncdhhs.gov\/dhsr\/reports.htm", "SOURCEDATE": "2018-08-10T00:00:00.000Z", "VAL_METHOD": "IMAGERY\/OTHER", "VAL_DATE": "2014-02-10T00:00:00.000Z", "WEBSITE": "https:\/\/www.carolinashealthcare.org\/locations\/carolinas-healthcare-system-pineville", "STATE_ID": "NOT AVAILABLE", "ALT_NAME": "CAROLINAS MEDICAL CENTER-PINEVILLE", "ST_FIPS": "37", "OWNER": "GOVERNMENT - DISTRICT\/AUTHORITY", "TTL_STAFF": -999, "BEDS": 206, "TRAUMA": "NOT AVAILABLE", "HELIPAD": "Y" }, "geometry": { "type": "Point", "coordinates": [ -80.871618186999967, 35.092012183000065 ] } },
{ "type": "Feature", "properties": { "OBJECTID": 5072, "ID": "0002628744", "NAME": "ANGEL MEDICAL CENTER", "ADDRESS": "120 RIVERVIEW STREET", "CITY": "FRANKLIN", "STATE": "NC", "ZIP": "28744", "ZIP4": "NOT AVAILABLE", "TELEPHONE": "(828) 524-8411", "TYPE": "GENERAL ACUTE CARE", "STATUS": "OPEN", "POPULATION": 59, "COUNTY": "MACON", "COUNTYFIPS": "37113", "COUNTRY": "USA", "LATITUDE": 35.184661415999997, "LONGITUDE": -83.378688919999902, "NAICS_CODE": "622110", "NAICS_DESC": "GENERAL MEDICAL AND SURGICAL HOSPITALS", "SOURCE": "https:\/\/www2.ncdhhs.gov\/dhsr\/reports.htm", "SOURCEDATE": "2018-08-10T00:00:00.000Z", "VAL_METHOD": "IMAGERY\/OTHER", "VAL_DATE": "2014-02-10T00:00:00.000Z", "WEBSITE": "http:\/\/www.angelmed.org", "STATE_ID": "NOT AVAILABLE", "ALT_NAME": "NOT AVAILABLE", "ST_FIPS": "37", "OWNER": "GOVERNMENT - DISTRICT\/AUTHORITY", "TTL_STAFF": -999, "BEDS": 59, "TRAUMA": "NOT AVAILABLE", "HELIPAD": "Y" }, "geometry": { "type": "Point", "coordinates": [ -83.378688919999945, 35.18466141600004 ] } },
{ "type": "Feature", "properties": { "OBJECTID": 5073, "ID": "0007928741", "NAME": "HIGHLANDS-CASHIERS HOSPITAL", "ADDRESS": "190 HOSPITAL DRIVE", "CITY": "HIGHLANDS", "STATE": "NC", "ZIP": "28741", "ZIP4": "NOT AVAILABLE", "TELEPHONE": "(828) 526-1200", "TYPE": "GENERAL ACUTE CARE", "STATUS": "OPEN", "POPULATION": 24, "COUNTY": "MACON", "COUNTYFIPS": "37113", "COUNTRY": "USA", "LATITUDE": 35.0865865110001, "LONGITUDE": -83.185891128999998, "NAICS_CODE": "622110", "NAICS_DESC": "GENERAL MEDICAL AND SURGICAL HOSPITALS", "SOURCE": "https:\/\/www2.ncdhhs.gov\/dhsr\/reports.htm", "SOURCEDATE": "2018-08-10T00:00:00.000Z", "VAL_METHOD": "IMAGERY", "VAL_DATE": "2014-03-12T00:00:00.000Z", "WEBSITE": "http:\/\/www.hchospital.org", "STATE_ID": "NOT AVAILABLE", "ALT_NAME": "NOT AVAILABLE", "ST_FIPS": "37", "OWNER": "NON-PROFIT", "TTL_STAFF": -999, "BEDS": 24, "TRAUMA": "NOT AVAILABLE", "HELIPAD": "Y" }, "geometry": { "type": "Point", "coordinates": [ -83.18589112899997, 35.086586511000057 ] } },
{ "type": "Feature", "properties": { "OBJECTID": 5074, "ID": "0012227403", "NAME": "WESLEY LONG COMMUNITY HOSPITAL", "ADDRESS": "501 N ELAM AVENUE", "CITY": "GREENSBORO", "STATE": "NC", "ZIP": "27403", "ZIP4": "NOT AVAILABLE", "TELEPHONE": "(336) 854-6100", "TYPE": "GENERAL ACUTE CARE", "STATUS": "OPEN", "POPULATION": 175, "COUNTY": "GUILFORD", "COUNTYFIPS": "37081", "COUNTRY": "USA", "LATITUDE": 36.083426061000097, "LONGITUDE": -79.825418580999994, "NAICS_CODE": "622110", "NAICS_DESC": "GENERAL MEDICAL AND SURGICAL HOSPITALS", "SOURCE": "https:\/\/www2.ncdhhs.gov\/dhsr\/reports.htm", "SOURCEDATE": "2018-08-10T00:00:00.000Z", "VAL_METHOD": "IMAGERY\/OTHER", "VAL_DATE": "2014-02-10T00:00:00.000Z", "WEBSITE": "http:\/\/www.conehealth.com\/locations\/wesley-long-hospital", "STATE_ID": "NOT AVAILABLE", "ALT_NAME": "NOT AVAILABLE", "ST_FIPS": "37", "OWNER": "NON-PROFIT", "TTL_STAFF": -999, "BEDS": 175, "TRAUMA": "NOT AVAILABLE", "HELIPAD": "N" }, "geometry": { "type": "Point", "coordinates": [ -79.825418580999951, 36.083426061000061 ] } },
{ "type": "Feature", "properties": { "OBJECTID": 5075, "ID": "0007528779", "NAME": "HARRIS REGIONAL HOSPITAL", "ADDRESS": "68 HOSPITAL RD", "CITY": "SYLVA", "STATE": "NC", "ZIP": "28779", "ZIP4": "NOT AVAILABLE", "TELEPHONE": "(828) 586-7000", "TYPE": "GENERAL ACUTE CARE", "STATUS": "OPEN", "POPULATION": 86, "COUNTY": "JACKSON", "COUNTYFIPS": "37099", "COUNTRY": "USA", "LATITUDE": 35.386010888000001, "LONGITUDE": -83.203001373000006, "NAICS_CODE": "622110", "NAICS_DESC": "GENERAL MEDICAL AND SURGICAL HOSPITALS", "SOURCE": "https:\/\/www2.ncdhhs.gov\/dhsr\/reports.htm", "SOURCEDATE": "2018-08-10T00:00:00.000Z", "VAL_METHOD": "IMAGERY\/OTHER", "VAL_DATE": "2014-02-10T00:00:00.000Z", "WEBSITE": "http:\/\/www.myharrisregional.com\/", "STATE_ID": "NOT AVAILABLE", "ALT_NAME": "NOT AVAILABLE", "ST_FIPS": "37", "OWNER": "NON-PROFIT", "TTL_STAFF": -999, "BEDS": 86, "TRAUMA": "NOT AVAILABLE", "HELIPAD": "Y" }, "geometry": { "type": "Point", "coordinates": [ -83.20300137299995, 35.386010888000037 ] } },
{ "type": "Feature", "properties": { "OBJECTID": 5076, "ID": "0011727533", "NAME": "WAYNE MEMORIAL HOSPITAL", "ADDRESS": "2700 WAYNE MEMORIAL DRIVE", "CITY": "GOLDSBORO", "STATE": "NC", "ZIP": "27533", "ZIP4": "NOT AVAILABLE", "TELEPHONE": "(919) 736-1110", "TYPE": "GENERAL ACUTE CARE", "STATUS": "OPEN", "POPULATION": 316, "COUNTY": "WAYNE", "COUNTYFIPS": "37191", "COUNTRY": "USA", "LATITUDE": 35.3984837530001, "LONGITUDE": -77.952468702999994, "NAICS_CODE": "622110", "NAICS_DESC": "GENERAL MEDICAL AND SURGICAL HOSPITALS", "SOURCE": "https:\/\/www2.ncdhhs.gov\/dhsr\/reports.htm", "SOURCEDATE": "2018-08-10T00:00:00.000Z", "VAL_METHOD": "IMAGERY\/OTHER", "VAL_DATE": "2014-02-10T00:00:00.000Z", "WEBSITE": "http:\/\/www.waynehealth.org", "STATE_ID": "NOT AVAILABLE", "ALT_NAME": "NOT AVAILABLE", "ST_FIPS": "37", "OWNER": "NON-PROFIT", "TTL_STAFF": -999, "BEDS": 316, "TRAUMA": "NOT AVAILABLE", "HELIPAD": "Y" }, "geometry": { "type": "Point", "coordinates": [ -77.952468702999965, 35.39848375300005 ] } },
{ "type": "Feature", "properties": { "OBJECTID": 5077, "ID": "0000327536", "NAME": "MARIA PARHAM MEDICAL CENTER", "ADDRESS": "566 RUIN CREEK ROAD", "CITY": "HENDERSON", "STATE": "NC", "ZIP": "27536", "ZIP4": "NOT AVAILABLE", "TELEPHONE": "(252) 436-1100", "TYPE": "GENERAL ACUTE CARE", "STATUS": "OPEN", "POPULATION": 102, "COUNTY": "VANCE", "COUNTYFIPS": "37181", "COUNTRY": "USA", "LATITUDE": 36.330865061000097, "LONGITUDE": -78.449446455, "NAICS_CODE": "622110", "NAICS_DESC": "GENERAL MEDICAL AND SURGICAL HOSPITALS", "SOURCE": "https:\/\/www2.ncdhhs.gov\/dhsr\/reports.htm", "SOURCEDATE": "2018-08-10T00:00:00.000Z", "VAL_METHOD": "IMAGERY", "VAL_DATE": "2014-02-10T00:00:00.000Z", "WEBSITE": "http:\/\/www.mariaparham.com", "STATE_ID": "NOT AVAILABLE", "ALT_NAME": "NOT AVAILABLE", "ST_FIPS": "37", "OWNER": "NON-PROFIT", "TTL_STAFF": -999, "BEDS": 102, "TRAUMA": "NOT AVAILABLE", "HELIPAD": "Y" }, "geometry": { "type": "Point", "coordinates": [ -78.449446454999986, 36.330865061000054 ] } },
{ "type": "Feature", "properties": { "OBJECTID": 5078, "ID": "0011628607", "NAME": "WATAUGA MEDICAL CENTER, INC.", "ADDRESS": "336 DEERFIELD ROAD", "CITY": "BOONE", "STATE": "NC", "ZIP": "28607", "ZIP4": "NOT AVAILABLE", "TELEPHONE": "(828) 262-4100", "TYPE": "GENERAL ACUTE CARE", "STATUS": "OPEN", "POPULATION": 117, "COUNTY": "WATAUGA", "COUNTYFIPS": "37189", "COUNTRY": "USA", "LATITUDE": 36.198468858000098, "LONGITUDE": -81.651529354999994, "NAICS_CODE": "622110", "NAICS_DESC": "GENERAL MEDICAL AND SURGICAL HOSPITALS", "SOURCE": "https:\/\/www2.ncdhhs.gov\/dhsr\/reports.htm", "SOURCEDATE": "2018-08-10T00:00:00.000Z", "VAL_METHOD": "IMAGERY\/OTHER", "VAL_DATE": "2014-02-10T00:00:00.000Z", "WEBSITE": "https:\/\/apprhs.org\/locations\/watauga-medical-center", "STATE_ID": "NOT AVAILABLE", "ALT_NAME": "NOT AVAILABLE", "ST_FIPS": "37", "OWNER": "NON-PROFIT", "TTL_STAFF": -999, "BEDS": 117, "TRAUMA": "NOT AVAILABLE", "HELIPAD": "Y" }, "geometry": { "type": "Point", "coordinates": [ -81.65152935499998, 36.198468858000062 ] } },
{ "type": "Feature", "properties": { "OBJECTID": 5079, "ID": "0001427030", "NAME": "NORTHERN HOSPITAL OF SURRY COUNTY", "ADDRESS": "830 ROCKFORD STREET", "CITY": "MOUNT AIRY", "STATE": "NC", "ZIP": "27030", "ZIP4": "NOT AVAILABLE", "TELEPHONE": "(336) 719-7100", "TYPE": "GENERAL ACUTE CARE", "STATUS": "OPEN", "POPULATION": 133, "COUNTY": "SURRY", "COUNTYFIPS": "37171", "COUNTRY": "USA", "LATITUDE": 36.488604093, "LONGITUDE": -80.612168097999998, "NAICS_CODE": "622110", "NAICS_DESC": "GENERAL MEDICAL AND SURGICAL HOSPITALS", "SOURCE": "https:\/\/www2.ncdhhs.gov\/dhsr\/reports.htm", "SOURCEDATE": "2018-08-10T00:00:00.000Z", "VAL_METHOD": "IMAGERY\/OTHER", "VAL_DATE": "2014-02-10T00:00:00.000Z", "WEBSITE": "http:\/\/www.northernhospital.com", "STATE_ID": "NOT AVAILABLE", "ALT_NAME": "NOT AVAILABLE", "ST_FIPS": "37", "OWNER": "GOVERNMENT - DISTRICT\/AUTHORITY", "TTL_STAFF": -999, "BEDS": 133, "TRAUMA": "NOT AVAILABLE", "HELIPAD": "Y" }, "geometry": { "type": "Point", "coordinates": [ -80.612168097999984, 36.488604093000042 ] } },
{ "type": "Feature", "properties": { "OBJECTID": 5080, "ID": "0008228621", "NAME": "HUGH CHATHAM MEMORIAL HOSPITAL, INC.", "ADDRESS": "180 PARKWOOD DRIVE", "CITY": "ELKIN", "STATE": "NC", "ZIP": "28621", "ZIP4": "NOT AVAILABLE", "TELEPHONE": "(336) 527-7000", "TYPE": "GENERAL ACUTE CARE", "STATUS": "OPEN", "POPULATION": 93, "COUNTY": "SURRY", "COUNTYFIPS": "37171", "COUNTRY": "USA", "LATITUDE": 36.261864605, "LONGITUDE": -80.838302665000001, "NAICS_CODE": "622110", "NAICS_DESC": "GENERAL MEDICAL AND SURGICAL HOSPITALS", "SOURCE": "https:\/\/www2.ncdhhs.gov\/dhsr\/reports.htm", "SOURCEDATE": "2018-08-10T00:00:00.000Z", "VAL_METHOD": "IMAGERY\/OTHER", "VAL_DATE": "2014-02-10T00:00:00.000Z", "WEBSITE": "http:\/\/www.hughchatham.org", "STATE_ID": "NOT AVAILABLE", "ALT_NAME": "NOT AVAILABLE", "ST_FIPS": "37", "OWNER": "NON-PROFIT", "TTL_STAFF": -999, "BEDS": 93, "TRAUMA": "NOT AVAILABLE", "HELIPAD": "Y" }, "geometry": { "type": "Point", "coordinates": [ -80.838302664999958, 36.261864605000028 ] } },
{ "type": "Feature", "properties": { "OBJECTID": 5081, "ID": "0002528675", "NAME": "ALLEGHANY MEMORIAL HOSPITAL", "ADDRESS": "233 DOCTORS STREET", "CITY": "SPARTA", "STATE": "NC", "ZIP": "28675", "ZIP4": "NOT AVAILABLE", "TELEPHONE": "(336) 372-5511", "TYPE": "GENERAL ACUTE CARE", "STATUS": "OPEN", "POPULATION": 41, "COUNTY": "ALLEGHANY", "COUNTYFIPS": "37005", "COUNTRY": "USA", "LATITUDE": 36.509521051, "LONGITUDE": -81.114611006000004, "NAICS_CODE": "622110", "NAICS_DESC": "GENERAL MEDICAL AND SURGICAL HOSPITALS", "SOURCE": "https:\/\/www2.ncdhhs.gov\/dhsr\/reports.htm", "SOURCEDATE": "2018-08-10T00:00:00.000Z", "VAL_METHOD": "IMAGERY\/OTHER", "VAL_DATE": "2014-02-10T00:00:00.000Z", "WEBSITE": "http:\/\/www.amhsparta.org", "STATE_ID": "NOT AVAILABLE", "ALT_NAME": "NOT AVAILABLE", "ST_FIPS": "37", "OWNER": "NON-PROFIT", "TTL_STAFF": -999, "BEDS": 41, "TRAUMA": "NOT AVAILABLE", "HELIPAD": "Y" }, "geometry": { "type": "Point", "coordinates": [ -81.114611005999961, 36.509521051000021 ] } },
{ "type": "Feature", "properties": { "OBJECTID": 5082, "ID": "0000127216", "NAME": "ALAMANCE REGIONAL MEDICAL CENTER", "ADDRESS": "1240 HUFFMAN MILL ROAD", "CITY": "BURLINGTON", "STATE": "NC", "ZIP": "27216", "ZIP4": "NOT AVAILABLE", "TELEPHONE": "(336) 538-7450", "TYPE": "GENERAL ACUTE CARE", "STATUS": "OPEN", "POPULATION": 238, "COUNTY": "ALAMANCE", "COUNTYFIPS": "37001", "COUNTRY": "USA", "LATITUDE": 36.061203888000101, "LONGITUDE": -79.502243566999894, "NAICS_CODE": "622110", "NAICS_DESC": "GENERAL MEDICAL AND SURGICAL HOSPITALS", "SOURCE": "https:\/\/www2.ncdhhs.gov\/dhsr\/reports.htm", "SOURCEDATE": "2018-08-10T00:00:00.000Z", "VAL_METHOD": "IMAGERY\/OTHER", "VAL_DATE": "2014-02-10T00:00:00.000Z", "WEBSITE": "http:\/\/www.armc.com", "STATE_ID": "NOT AVAILABLE", "ALT_NAME": "NOT AVAILABLE", "ST_FIPS": "37", "OWNER": "NON-PROFIT", "TTL_STAFF": -999, "BEDS": 238, "TRAUMA": "NOT AVAILABLE", "HELIPAD": "Y" }, "geometry": { "type": "Point", "coordinates": [ -79.502243566999937, 36.061203888000065 ] } },
{ "type": "Feature", "properties": { "OBJECTID": 5083, "ID": "0002928640", "NAME": "ASHE MEMORIAL HOSPITAL, INC.", "ADDRESS": "200 HOSPITAL AVE.", "CITY": "JEFFERSON", "STATE": "NC", "ZIP": "28640", "ZIP4": "NOT AVAILABLE", "TELEPHONE": "(336) 846-7101", "TYPE": "GENERAL ACUTE CARE", "STATUS": "OPEN", "POPULATION": 76, "COUNTY": "ASHE", "COUNTYFIPS": "37009", "COUNTRY": "USA", "LATITUDE": 36.423308531000004, "LONGITUDE": -81.457523178000002, "NAICS_CODE": "622110", "NAICS_DESC": "GENERAL MEDICAL AND SURGICAL HOSPITALS", "SOURCE": "https:\/\/www2.ncdhhs.gov\/dhsr\/reports.htm", "SOURCEDATE": "2018-08-10T00:00:00.000Z", "VAL_METHOD": "IMAGERY", "VAL_DATE": "2014-02-10T00:00:00.000Z", "WEBSITE": "http:\/\/www.ashememorial.org", "STATE_ID": "NOT AVAILABLE", "ALT_NAME": "NOT AVAILABLE", "ST_FIPS": "37", "OWNER": "NON-PROFIT", "TTL_STAFF": -999, "BEDS": 76, "TRAUMA": "NOT AVAILABLE", "HELIPAD": "Y" }, "geometry": { "type": "Point", "coordinates": [ -81.457523177999974, 36.423308531000032 ] } },
{ "type": "Feature", "properties": { "OBJECTID": 5084, "ID": "0010328722", "NAME": "ST. LUKE'S HOSPITAL", "ADDRESS": "101 HOSPITAL DRIVE", "CITY": "COLUMBUS", "STATE": "NC", "ZIP": "28722", "ZIP4": "NOT AVAILABLE", "TELEPHONE": "(828) 894-3311", "TYPE": "GENERAL ACUTE CARE", "STATUS": "OPEN", "POPULATION": 35, "COUNTY": "POLK", "COUNTYFIPS": "37149", "COUNTRY": "USA", "LATITUDE": 35.239467940000097, "LONGITUDE": -82.212624081999905, "NAICS_CODE": "622110", "NAICS_DESC": "GENERAL MEDICAL AND SURGICAL HOSPITALS", "SOURCE": "https:\/\/www2.ncdhhs.gov\/dhsr\/reports.htm", "SOURCEDATE": "2018-08-10T00:00:00.000Z", "VAL_METHOD": "IMAGERY\/OTHER", "VAL_DATE": "2014-02-10T00:00:00.000Z", "WEBSITE": "http:\/\/www.saintlukeshospital.com", "STATE_ID": "NOT AVAILABLE", "ALT_NAME": "NOT AVAILABLE", "ST_FIPS": "37", "OWNER": "NON-PROFIT", "TTL_STAFF": -999, "BEDS": 35, "TRAUMA": "NOT AVAILABLE", "HELIPAD": "Y" }, "geometry": { "type": "Point", "coordinates": [ -82.212624081999934, 35.239467940000054 ] } },
{ "type": "Feature", "properties": { "OBJECTID": 5085, "ID": "0005028602", "NAME": "CATAWBA VALLEY MEDICAL CENTER", "ADDRESS": "810 FAIRGROVE CHURCH ROAD", "CITY": "HICKORY", "STATE": "NC", "ZIP": "28602", "ZIP4": "NOT AVAILABLE", "TELEPHONE": "(828) 326-3800", "TYPE": "GENERAL ACUTE CARE", "STATUS": "OPEN", "POPULATION": 258, "COUNTY": "CATAWBA", "COUNTYFIPS": "37035", "COUNTRY": "USA", "LATITUDE": 35.713855570000099, "LONGITUDE": -81.267341912999896, "NAICS_CODE": "622110", "NAICS_DESC": "GENERAL MEDICAL AND SURGICAL HOSPITALS", "SOURCE": "https:\/\/www2.ncdhhs.gov\/dhsr\/reports.htm", "SOURCEDATE": "2018-08-10T00:00:00.000Z", "VAL_METHOD": "IMAGERY\/OTHER", "VAL_DATE": "2014-02-10T00:00:00.000Z", "WEBSITE": "http:\/\/www.catawbavalleymc.org", "STATE_ID": "NOT AVAILABLE", "ALT_NAME": "NOT AVAILABLE", "ST_FIPS": "37", "OWNER": "GOVERNMENT - LOCAL", "TTL_STAFF": -999, "BEDS": 258, "TRAUMA": "NOT AVAILABLE", "HELIPAD": "Y" }, "geometry": { "type": "Point", "coordinates": [ -81.267341912999939, 35.713855570000071 ] } },
{ "type": "Feature", "properties": { "OBJECTID": 5086, "ID": "0010128352", "NAME": "SCOTLAND MEMORIAL HOSPITAL AND EDWIN MORGAN CENTER", "ADDRESS": "500 LAUCHWOOD DRIVE", "CITY": "LAURINBURG", "STATE": "NC", "ZIP": "28352", "ZIP4": "NOT AVAILABLE", "TELEPHONE": "(910) 291-7000", "TYPE": "GENERAL ACUTE CARE", "STATUS": "OPEN", "POPULATION": 104, "COUNTY": "SCOTLAND", "COUNTYFIPS": "37165", "COUNTRY": "USA", "LATITUDE": 34.753169179000103, "LONGITUDE": -79.469801410999906, "NAICS_CODE": "622110", "NAICS_DESC": "GENERAL MEDICAL AND SURGICAL HOSPITALS", "SOURCE": "https:\/\/www2.ncdhhs.gov\/dhsr\/reports.htm", "SOURCEDATE": "2018-08-10T00:00:00.000Z", "VAL_METHOD": "IMAGERY\/OTHER", "VAL_DATE": "2014-02-10T00:00:00.000Z", "WEBSITE": "http:\/\/www.scotlandhealth.org\/getpage.php?name=index", "STATE_ID": "NOT AVAILABLE", "ALT_NAME": "NOT AVAILABLE", "ST_FIPS": "37", "OWNER": "PROPRIETARY", "TTL_STAFF": -999, "BEDS": 104, "TRAUMA": "NOT AVAILABLE", "HELIPAD": "Y" }, "geometry": { "type": "Point", "coordinates": [ -79.469801410999935, 34.753169179000061 ] } },
{ "type": "Feature", "properties": { "OBJECTID": 5087, "ID": "0003628777", "NAME": "BLUE RIDGE REGIONAL HOSPITAL, INC", "ADDRESS": "125 HOSPITAL DRIVE", "CITY": "SPRUCE PINE", "STATE": "NC", "ZIP": "28777", "ZIP4": "NOT AVAILABLE", "TELEPHONE": "(828) 765-4201", "TYPE": "GENERAL ACUTE CARE", "STATUS": "OPEN", "POPULATION": 46, "COUNTY": "MITCHELL", "COUNTYFIPS": "37121", "COUNTRY": "USA", "LATITUDE": 35.910989999000002, "LONGITUDE": -82.062774344999994, "NAICS_CODE": "622110", "NAICS_DESC": "GENERAL MEDICAL AND SURGICAL HOSPITALS", "SOURCE": "https:\/\/www2.ncdhhs.gov\/dhsr\/reports.htm", "SOURCEDATE": "2018-08-10T00:00:00.000Z", "VAL_METHOD": "IMAGERY\/OTHER", "VAL_DATE": "2014-02-10T00:00:00.000Z", "WEBSITE": "http:\/\/www.spchospital.org", "STATE_ID": "NOT AVAILABLE", "ALT_NAME": "NOT AVAILABLE", "ST_FIPS": "37", "OWNER": "NON-PROFIT", "TTL_STAFF": -999, "BEDS": 46, "TRAUMA": "NOT AVAILABLE", "HELIPAD": "Y" }, "geometry": { "type": "Point", "coordinates": [ -82.06277434499998, 35.910989999000023 ] } },
{ "type": "Feature", "properties": { "OBJECTID": 5088, "ID": "0006527371", "NAME": "FIRSTHEALTH MONTGOMERY MEMORIAL HOSPITAL", "ADDRESS": "520 ALLEN STREET", "CITY": "TROY", "STATE": "NC", "ZIP": "27371", "ZIP4": "NOT AVAILABLE", "TELEPHONE": "(910) 572-1301", "TYPE": "GENERAL ACUTE CARE", "STATUS": "OPEN", "POPULATION": 37, "COUNTY": "MONTGOMERY", "COUNTYFIPS": "37123", "COUNTRY": "USA", "LATITUDE": 35.364811234999998, "LONGITUDE": -79.890368296999995, "NAICS_CODE": "622110", "NAICS_DESC": "GENERAL MEDICAL AND SURGICAL HOSPITALS", "SOURCE": "https:\/\/www2.ncdhhs.gov\/dhsr\/reports.htm", "SOURCEDATE": "2018-08-10T00:00:00.000Z", "VAL_METHOD": "IMAGERY", "VAL_DATE": "2014-02-10T00:00:00.000Z", "WEBSITE": "http:\/\/www.firsthealth.org", "STATE_ID": "NOT AVAILABLE", "ALT_NAME": "NOT AVAILABLE", "ST_FIPS": "37", "OWNER": "NON-PROFIT", "TTL_STAFF": -999, "BEDS": 37, "TRAUMA": "NOT AVAILABLE", "HELIPAD": "N" }, "geometry": { "type": "Point", "coordinates": [ -79.890368296999952, 35.36481123500004 ] } },
{ "type": "Feature", "properties": { "OBJECTID": 5089, "ID": "0010827959", "NAME": "THE OUTER BANKS HOSPITAL", "ADDRESS": "4800 SOUTH CROATAN HIGHWAY", "CITY": "NAGS HEAD", "STATE": "NC", "ZIP": "27959", "ZIP4": "NOT AVAILABLE", "TELEPHONE": "(252) 449-4500", "TYPE": "GENERAL ACUTE CARE", "STATUS": "OPEN", "POPULATION": 21, "COUNTY": "DARE", "COUNTYFIPS": "37055", "COUNTRY": "USA", "LATITUDE": 35.939836499000101, "LONGITUDE": -75.61764914, "NAICS_CODE": "622110", "NAICS_DESC": "GENERAL MEDICAL AND SURGICAL HOSPITALS", "SOURCE": "https:\/\/www2.ncdhhs.gov\/dhsr\/reports.htm", "SOURCEDATE": "2018-08-10T00:00:00.000Z", "VAL_METHOD": "IMAGERY\/OTHER", "VAL_DATE": "2014-02-10T00:00:00.000Z", "WEBSITE": "http:\/\/www.theouterbankshospital.com", "STATE_ID": "NOT AVAILABLE", "ALT_NAME": "NOT AVAILABLE", "ST_FIPS": "37", "OWNER": "NON-PROFIT", "TTL_STAFF": -999, "BEDS": 21, "TRAUMA": "NOT AVAILABLE", "HELIPAD": "Y" }, "geometry": { "type": "Point", "coordinates": [ -75.617649139999955, 35.93983649900008 ] } },
{ "type": "Feature", "properties": { "OBJECTID": 5090, "ID": "0001528541", "NAME": "ONSLOW MEMORIAL HOSPITAL", "ADDRESS": "317 WESTERN BOULEVARD", "CITY": "JACKSONVILLE", "STATE": "NC", "ZIP": "28541", "ZIP4": "NOT AVAILABLE", "TELEPHONE": "(910) 577-2345", "TYPE": "GENERAL ACUTE CARE", "STATUS": "OPEN", "POPULATION": 162, "COUNTY": "ONSLOW", "COUNTYFIPS": "37133", "COUNTRY": "USA", "LATITUDE": 34.762759328000101, "LONGITUDE": -77.384986818000002, "NAICS_CODE": "622110", "NAICS_DESC": "GENERAL MEDICAL AND SURGICAL HOSPITALS", "SOURCE": "https:\/\/www2.ncdhhs.gov\/dhsr\/reports.htm", "SOURCEDATE": "2018-08-10T00:00:00.000Z", "VAL_METHOD": "IMAGERY\/OTHER", "VAL_DATE": "2014-02-10T00:00:00.000Z", "WEBSITE": "http:\/\/www.onslow.org", "STATE_ID": "NOT AVAILABLE", "ALT_NAME": "NOT AVAILABLE", "ST_FIPS": "37", "OWNER": "GOVERNMENT - DISTRICT\/AUTHORITY", "TTL_STAFF": -999, "BEDS": 162, "TRAUMA": "NOT AVAILABLE", "HELIPAD": "Y" }, "geometry": { "type": "Point", "coordinates": [ -77.384986817999959, 34.762759328000072 ] } },
{ "type": "Feature", "properties": { "OBJECTID": 5091, "ID": "0005828017", "NAME": "CRAWLEY MEMORIAL HOSPITAL", "ADDRESS": "315 WEST COLLEGE AVENUE", "CITY": "SHELBY", "STATE": "NC", "ZIP": "28017", "ZIP4": "NOT AVAILABLE", "TELEPHONE": "(704) 434-9466", "TYPE": "GENERAL ACUTE CARE", "STATUS": "CLOSED", "POPULATION": 60, "COUNTY": "CLEVELAND", "COUNTYFIPS": "37045", "COUNTRY": "USA", "LATITUDE": 35.249853092000002, "LONGITUDE": -81.676410587999996, "NAICS_CODE": "622110", "NAICS_DESC": "GENERAL MEDICAL AND SURGICAL HOSPITALS", "SOURCE": "https:\/\/www2.ncdhhs.gov\/dhsr\/data\/hllist.pdf", "SOURCEDATE": "2012-07-03T00:00:00.000Z", "VAL_METHOD": "IMAGERY\/OTHER", "VAL_DATE": "2014-02-10T00:00:00.000Z", "WEBSITE": "http:\/\/www.clevelandcountyhealthcaresystem.com\/crawleymemorial.html", "STATE_ID": "NOT AVAILABLE", "ALT_NAME": "NOT AVAILABLE", "ST_FIPS": "37", "OWNER": "NON-PROFIT", "TTL_STAFF": -999, "BEDS": 60, "TRAUMA": "NOT AVAILABLE", "HELIPAD": "N" }, "geometry": { "type": "Point", "coordinates": [ -81.676410587999968, 35.249853092000023 ] } },
{ "type": "Feature", "properties": { "OBJECTID": 5092, "ID": "0000000013", "NAME": "NAVAL HOSPITAL CAMP LEJEUNE", "ADDRESS": "100 BREWSTER BLVD", "CITY": "CAMP LEJEUNE", "STATE": "NC", "ZIP": "28547", "ZIP4": "NOT AVAILABLE", "TELEPHONE": "(910) 450-4300", "TYPE": "MILITARY", "STATUS": "OPEN", "POPULATION": -999, "COUNTY": "ONSLOW", "COUNTYFIPS": "37133", "COUNTRY": "USA", "LATITUDE": 34.723066246000002, "LONGITUDE": -77.358052055000002, "NAICS_CODE": "622110", "NAICS_DESC": "GENERAL MEDICAL AND SURGICAL HOSPITALS", "SOURCE": "http:\/\/www.tricare.mil\/mtf", "SOURCEDATE": "2019-04-02T00:00:00.000Z", "VAL_METHOD": "IMAGERY\/OTHER", "VAL_DATE": "2015-07-25T00:00:00.000Z", "WEBSITE": "http:\/\/www.med.navy.mil\/sites\/nhcl\/Pages\/default.aspx", "STATE_ID": "NOT AVAILABLE", "ALT_NAME": "NOT AVAILABLE", "ST_FIPS": "37", "OWNER": "GOVERNMENT - FEDERAL", "TTL_STAFF": -999, "BEDS": -999, "TRAUMA": "LEVEL III", "HELIPAD": "Y" }, "geometry": { "type": "Point", "coordinates": [ -77.358052054999973, 34.723066246000023 ] } },
{ "type": "Feature", "properties": { "OBJECTID": 5093, "ID": "0000000037", "NAME": "WOMACK ARMY MEDICAL CENTER", "ADDRESS": "2817 REILLY RD", "CITY": "FORT BRAGG", "STATE": "NC", "ZIP": "28307", "ZIP4": "NOT AVAILABLE", "TELEPHONE": "(910) 907-6000", "TYPE": "MILITARY", "STATUS": "OPEN", "POPULATION": -999, "COUNTY": "CUMBERLAND", "COUNTYFIPS": "37051", "COUNTRY": "USA", "LATITUDE": 35.145626237000002, "LONGITUDE": -79.002170230999994, "NAICS_CODE": "622110", "NAICS_DESC": "GENERAL MEDICAL AND SURGICAL HOSPITALS", "SOURCE": "http:\/\/www.tricare.mil\/mtf", "SOURCEDATE": "2019-04-02T00:00:00.000Z", "VAL_METHOD": "IMAGERY\/OTHER", "VAL_DATE": "2015-07-28T00:00:00.000Z", "WEBSITE": "http:\/\/www.wamc.amedd.army.mil\/", "STATE_ID": "NOT AVAILABLE", "ALT_NAME": "NOT AVAILABLE", "ST_FIPS": "37", "OWNER": "GOVERNMENT - FEDERAL", "TTL_STAFF": -999, "BEDS": -999, "TRAUMA": "NOT AVAILABLE", "HELIPAD": "Y" }, "geometry": { "type": "Point", "coordinates": [ -79.00217023099998, 35.14562623700003 ] } },
{ "type": "Feature", "properties": { "OBJECTID": 5094, "ID": "0008127705", "NAME": "VA MEDICAL CENTER - DURHAM", "ADDRESS": "508 FULTON ST", "CITY": "DURHAM", "STATE": "NC", "ZIP": "27705", "ZIP4": "NOT AVAILABLE", "TELEPHONE": "(919) 286-0411", "TYPE": "MILITARY", "STATUS": "OPEN", "POPULATION": -999, "COUNTY": "DURHAM", "COUNTYFIPS": "37063", "COUNTRY": "USA", "LATITUDE": 36.009512073000103, "LONGITUDE": -78.93883233, "NAICS_CODE": "622110", "NAICS_DESC": "GENERAL MEDICAL AND SURGICAL HOSPITALS", "SOURCE": "https:\/\/www.va.gov\/directory\/guide\/allstate.asp", "SOURCEDATE": "2018-09-26T00:00:00.000Z", "VAL_METHOD": "IMAGERY\/OTHER", "VAL_DATE": "2015-05-22T00:00:00.000Z", "WEBSITE": "http:\/\/www.durham.va.gov\/", "STATE_ID": "NOT AVAILABLE", "ALT_NAME": "NOT AVAILABLE", "ST_FIPS": "37", "OWNER": "GOVERNMENT - FEDERAL", "TTL_STAFF": -999, "BEDS": -999, "TRAUMA": "NOT AVAILABLE", "HELIPAD": "N" }, "geometry": { "type": "Point", "coordinates": [ -78.938832329999968, 36.009512073000053 ] } },
{ "type": "Feature", "properties": { "OBJECTID": 5095, "ID": "0008528301", "NAME": "VA MEDICAL CENTER - FAYETTEVILLE", "ADDRESS": "2300 RAMSEY ST", "CITY": "FAYETTEVILLE", "STATE": "NC", "ZIP": "28301", "ZIP4": "NOT AVAILABLE", "TELEPHONE": "(910) 488-2120", "TYPE": "MILITARY", "STATUS": "OPEN", "POPULATION": -999, "COUNTY": "CUMBERLAND", "COUNTYFIPS": "37051", "COUNTRY": "USA", "LATITUDE": 35.087822621000001, "LONGITUDE": -78.876955835999993, "NAICS_CODE": "622110", "NAICS_DESC": "GENERAL MEDICAL AND SURGICAL HOSPITALS", "SOURCE": "https:\/\/www.va.gov\/directory\/guide\/allstate.asp", "SOURCEDATE": "2018-09-26T00:00:00.000Z", "VAL_METHOD": "IMAGERY\/OTHER", "VAL_DATE": "2015-05-22T00:00:00.000Z", "WEBSITE": "http:\/\/www.fayettevillenc.va.gov\/", "STATE_ID": "NOT AVAILABLE", "ALT_NAME": "NOT AVAILABLE", "ST_FIPS": "37", "OWNER": "GOVERNMENT - FEDERAL", "TTL_STAFF": -999, "BEDS": -999, "TRAUMA": "NOT AVAILABLE", "HELIPAD": "N" }, "geometry": { "type": "Point", "coordinates": [ -78.876955835999979, 35.087822621000036 ] } },
{ "type": "Feature", "properties": { "OBJECTID": 5096, "ID": "0008928805", "NAME": "CHARLES GEORGE VA MEDICAL CENTER", "ADDRESS": "1100 TUNNEL RD", "CITY": "ASHEVILLE", "STATE": "NC", "ZIP": "28805", "ZIP4": "NOT AVAILABLE", "TELEPHONE": "(828) 298-7911", "TYPE": "MILITARY", "STATUS": "OPEN", "POPULATION": -999, "COUNTY": "BUNCOMBE", "COUNTYFIPS": "37021", "COUNTRY": "USA", "LATITUDE": 35.588613788000004, "LONGITUDE": -82.483540852000004, "NAICS_CODE": "622110", "NAICS_DESC": "GENERAL MEDICAL AND SURGICAL HOSPITALS", "SOURCE": "https:\/\/www.va.gov\/directory\/guide\/allstate.asp", "SOURCEDATE": "2018-09-26T00:00:00.000Z", "VAL_METHOD": "IMAGERY\/OTHER", "VAL_DATE": "2015-05-22T00:00:00.000Z", "WEBSITE": "http:\/\/www.asheville.va.gov\/", "STATE_ID": "NOT AVAILABLE", "ALT_NAME": "NOT AVAILABLE", "ST_FIPS": "37", "OWNER": "GOVERNMENT - FEDERAL", "TTL_STAFF": -999, "BEDS": -999, "TRAUMA": "NOT AVAILABLE", "HELIPAD": "N" }, "geometry": { "type": "Point", "coordinates": [ -82.483540851999976, 35.588613788000025 ] } },
{ "type": "Feature", "properties": { "OBJECTID": 5097, "ID": "0009028144", "NAME": "W. G. (BILL) HEFNER VA MEDICAL CENTER", "ADDRESS": "1601 BRENNER AVE", "CITY": "SALISBURY", "STATE": "NC", "ZIP": "28144", "ZIP4": "NOT AVAILABLE", "TELEPHONE": "(704) 638-9000", "TYPE": "MILITARY", "STATUS": "OPEN", "POPULATION": -999, "COUNTY": "ROWAN", "COUNTYFIPS": "37159", "COUNTRY": "USA", "LATITUDE": 35.684199841000101, "LONGITUDE": -80.488157759000003, "NAICS_CODE": "622110", "NAICS_DESC": "GENERAL MEDICAL AND SURGICAL HOSPITALS", "SOURCE": "https:\/\/www.va.gov\/directory\/guide\/allstate.asp", "SOURCEDATE": "2018-09-26T00:00:00.000Z", "VAL_METHOD": "IMAGERY\/OTHER", "VAL_DATE": "2015-05-22T00:00:00.000Z", "WEBSITE": "http:\/\/www.salisbury.va.gov\/", "STATE_ID": "NOT AVAILABLE", "ALT_NAME": "NOT AVAILABLE", "ST_FIPS": "37", "OWNER": "GOVERNMENT - FEDERAL", "TTL_STAFF": -999, "BEDS": -999, "TRAUMA": "NOT AVAILABLE", "HELIPAD": "Y" }, "geometry": { "type": "Point", "coordinates": [ -80.488157758999989, 35.684199841000058 ] } },
{ "type": "Feature", "properties": { "OBJECTID": 5098, "ID": "0000000128", "NAME": "NOVANT HEALTH BRUNSWICK MEDICAL CENTER", "ADDRESS": "240 HOSPITAL DR NE", "CITY": "BOLIVIA", "STATE": "NC", "ZIP": "28422", "ZIP4": "NOT AVAILABLE", "TELEPHONE": "(910) 721-1700", "TYPE": "GENERAL ACUTE CARE", "STATUS": "OPEN", "POPULATION": 74, "COUNTY": "BRUNSWICK", "COUNTYFIPS": "37019", "COUNTRY": "USA", "LATITUDE": 34.0313612100001, "LONGITUDE": -78.261445413999994, "NAICS_CODE": "622110", "NAICS_DESC": "GENERAL MEDICAL AND SURGICAL HOSPITALS", "SOURCE": "https:\/\/www2.ncdhhs.gov\/dhsr\/reports.htm", "SOURCEDATE": "2018-08-10T00:00:00.000Z", "VAL_METHOD": "IMAGERY\/OTHER", "VAL_DATE": "2015-05-23T00:00:00.000Z", "WEBSITE": "http:\/\/local.elitehearingnetwork.com\/bolivia-nc-hearing-center.html", "STATE_ID": "NOT AVAILABLE", "ALT_NAME": "NOT AVAILABLE", "ST_FIPS": "37", "OWNER": "NOT AVAILABLE", "TTL_STAFF": -999, "BEDS": -999, "TRAUMA": "NOT AVAILABLE", "HELIPAD": "Y" }, "geometry": { "type": "Point", "coordinates": [ -78.261445413999965, 34.031361210000057 ] } },
{ "type": "Feature", "properties": { "OBJECTID": 5469, "ID": "0004128093", "NAME": "CAROLINAS MEDICAL CENTER-LINCOLN", "ADDRESS": "433 MCALISTER ROAD", "CITY": "LINCOLNTON", "STATE": "NC", "ZIP": "28093", "ZIP4": "NOT AVAILABLE", "TELEPHONE": "(704) 735-3071", "TYPE": "GENERAL ACUTE CARE", "STATUS": "OPEN", "POPULATION": 101, "COUNTY": "LINCOLN", "COUNTYFIPS": "37109", "COUNTRY": "USA", "LATITUDE": 35.489918139000103, "LONGITUDE": -81.203598579999905, "NAICS_CODE": "622110", "NAICS_DESC": "GENERAL MEDICAL AND SURGICAL HOSPITALS", "SOURCE": "https:\/\/www2.ncdhhs.gov\/dhsr\/reports.htm", "SOURCEDATE": "2018-08-10T00:00:00.000Z", "VAL_METHOD": "IMAGERY", "VAL_DATE": "2014-02-10T00:00:00.000Z", "WEBSITE": "http:\/\/www.carolinashealthcare.org\/body.cfm?id=7626", "STATE_ID": "NOT AVAILABLE", "ALT_NAME": "NOT AVAILABLE", "ST_FIPS": "37", "OWNER": "GOVERNMENT - DISTRICT\/AUTHORITY", "TTL_STAFF": -999, "BEDS": 101, "TRAUMA": "NOT AVAILABLE", "HELIPAD": "Y" }, "geometry": { "type": "Point", "coordinates": [ -81.203598579999948, 35.489918139000054 ] } },
{ "type": "Feature", "properties": { "OBJECTID": 5726, "ID": "0007128053", "NAME": "CAROMONT REGIONAL MEDICAL CENTER", "ADDRESS": "2525 COURT DRIVE", "CITY": "GASTONIA", "STATE": "NC", "ZIP": "28053", "ZIP4": "NOT AVAILABLE", "TELEPHONE": "(704) 834-2121", "TYPE": "GENERAL ACUTE CARE", "STATUS": "OPEN", "POPULATION": 435, "COUNTY": "GASTON", "COUNTYFIPS": "37071", "COUNTRY": "USA", "LATITUDE": 35.272661502000098, "LONGITUDE": -81.139263827999997, "NAICS_CODE": "622110", "NAICS_DESC": "GENERAL MEDICAL AND SURGICAL HOSPITALS", "SOURCE": "https:\/\/www2.ncdhhs.gov\/dhsr\/reports.htm", "SOURCEDATE": "2018-08-10T00:00:00.000Z", "VAL_METHOD": "IMAGERY\/OTHER", "VAL_DATE": "2014-02-10T00:00:00.000Z", "WEBSITE": "http:\/\/www.caromont.org", "STATE_ID": "NOT AVAILABLE", "ALT_NAME": "GASTON MEMORIAL HOSPITAL", "ST_FIPS": "37", "OWNER": "NON-PROFIT", "TTL_STAFF": -999, "BEDS": 435, "TRAUMA": "LEVEL III", "HELIPAD": "Y" }, "geometry": { "type": "Point", "coordinates": [ -81.139263827999969, 35.272661502000062 ] } },
{ "type": "Feature", "properties": { "OBJECTID": 5727, "ID": "0005528150", "NAME": "CAROLINAS HEALTHCARE SYSTEM CLEVELAND", "ADDRESS": "201 EAST GROVER ST", "CITY": "SHELBY", "STATE": "NC", "ZIP": "28150", "ZIP4": "NOT AVAILABLE", "TELEPHONE": "(704) 487-3245", "TYPE": "GENERAL ACUTE CARE", "STATUS": "OPEN", "POPULATION": 241, "COUNTY": "CLEVELAND", "COUNTYFIPS": "37045", "COUNTRY": "USA", "LATITUDE": 35.3029042430001, "LONGITUDE": -81.536394213999998, "NAICS_CODE": "622110", "NAICS_DESC": "GENERAL MEDICAL AND SURGICAL HOSPITALS", "SOURCE": "https:\/\/www2.ncdhhs.gov\/dhsr\/reports.htm", "SOURCEDATE": "2018-08-10T00:00:00.000Z", "VAL_METHOD": "IMAGERY\/OTHER", "VAL_DATE": "2014-02-10T00:00:00.000Z", "WEBSITE": "http:\/\/www.carolinashealthcare.org\/cleveland", "STATE_ID": "NOT AVAILABLE", "ALT_NAME": "CLEVELAND REGIONAL MEDICAL CENTER", "ST_FIPS": "37", "OWNER": "NON-PROFIT", "TTL_STAFF": -999, "BEDS": 241, "TRAUMA": "LEVEL III", "HELIPAD": "Y" }, "geometry": { "type": "Point", "coordinates": [ -81.536394213999984, 35.302904243000064 ] } },
{ "type": "Feature", "properties": { "OBJECTID": 5728, "ID": "0000000127", "NAME": "NEW HANOVER REGIONAL MEDICAL CENTER ORTHOPEDIC HOSPITAL", "ADDRESS": "5301 WRIGHTSVILLE AVE", "CITY": "WILMINGTON", "STATE": "NC", "ZIP": "28403", "ZIP4": "NOT AVAILABLE", "TELEPHONE": "(910) 452-8100", "TYPE": "GENERAL ACUTE CARE", "STATUS": "OPEN", "POPULATION": -999, "COUNTY": "NEW HANOVER", "COUNTYFIPS": "37129", "COUNTRY": "USA", "LATITUDE": 34.212650386000099, "LONGITUDE": -77.862668823999996, "NAICS_CODE": "622110", "NAICS_DESC": "GENERAL MEDICAL AND SURGICAL HOSPITALS", "SOURCE": "https:\/\/www2.ncdhhs.gov\/dhsr\/reports.htm", "SOURCEDATE": "2018-08-10T00:00:00.000Z", "VAL_METHOD": "IMAGERY\/OTHER", "VAL_DATE": "2015-05-23T00:00:00.000Z", "WEBSITE": "https:\/\/www.nhrmc.org\/locations\/nhrmc-orthopedic-hospital", "STATE_ID": "NOT AVAILABLE", "ALT_NAME": "CAPE FEAR HOSPITAL", "ST_FIPS": "37", "OWNER": "NOT AVAILABLE", "TTL_STAFF": -999, "BEDS": -999, "TRAUMA": "NOT AVAILABLE", "HELIPAD": "N" }, "geometry": { "type": "Point", "coordinates": [ -77.862668823999968, 34.212650386000057 ] } },
{ "type": "Feature", "properties": { "OBJECTID": 5729, "ID": "0006227710", "NAME": "DUKE UNIVERSITY HOSPITAL", "ADDRESS": "2301 ERWIN ROAD", "CITY": "DURHAM", "STATE": "NC", "ZIP": "27710", "ZIP4": "NOT AVAILABLE", "TELEPHONE": "(919) 684-8076", "TYPE": "GENERAL ACUTE CARE", "STATUS": "OPEN", "POPULATION": 943, "COUNTY": "DURHAM", "COUNTYFIPS": "37063", "COUNTRY": "USA", "LATITUDE": 36.0070497990001, "LONGITUDE": -78.937758111999997, "NAICS_CODE": "622110", "NAICS_DESC": "GENERAL MEDICAL AND SURGICAL HOSPITALS", "SOURCE": "https:\/\/www2.ncdhhs.gov\/dhsr\/reports.htm", "SOURCEDATE": "2018-08-10T00:00:00.000Z", "VAL_METHOD": "IMAGERY\/OTHER", "VAL_DATE": "2014-02-10T00:00:00.000Z", "WEBSITE": "http:\/\/www.dukehealth.org", "STATE_ID": "NOT AVAILABLE", "ALT_NAME": "NOT AVAILABLE", "ST_FIPS": "37", "OWNER": "NON-PROFIT", "TTL_STAFF": -999, "BEDS": 943, "TRAUMA": "LEVEL I", "HELIPAD": "Y" }, "geometry": { "type": "Point", "coordinates": [ -78.937758111999983, 36.007049799000065 ] } },
{ "type": "Feature", "properties": { "OBJECTID": 5730, "ID": "0001227157", "NAME": "NORTH CAROLINA BAPTIST HOSPITAL", "ADDRESS": "MEDICAL CENTER BLVD", "CITY": "WINSTON SALEM", "STATE": "NC", "ZIP": "27157", "ZIP4": "NOT AVAILABLE", "TELEPHONE": "(336) 716-4750", "TYPE": "GENERAL ACUTE CARE", "STATUS": "OPEN", "POPULATION": 872, "COUNTY": "FORSYTH", "COUNTYFIPS": "37067", "COUNTRY": "USA", "LATITUDE": 36.089649608000101, "LONGITUDE": -80.268174833000003, "NAICS_CODE": "622110", "NAICS_DESC": "GENERAL MEDICAL AND SURGICAL HOSPITALS", "SOURCE": "https:\/\/www2.ncdhhs.gov\/dhsr\/reports.htm", "SOURCEDATE": "2018-08-10T00:00:00.000Z", "VAL_METHOD": "IMAGERY\/OTHER", "VAL_DATE": "2014-02-10T00:00:00.000Z", "WEBSITE": "http:\/\/www.wakehealth.edu\/", "STATE_ID": "NOT AVAILABLE", "ALT_NAME": "NOT AVAILABLE", "ST_FIPS": "37", "OWNER": "NON-PROFIT", "TTL_STAFF": -999, "BEDS": 872, "TRAUMA": "LEVEL I", "HELIPAD": "Y" }, "geometry": { "type": "Point", "coordinates": [ -80.268174832999989, 36.089649608000059 ] } },
{ "type": "Feature", "properties": { "OBJECTID": 5732, "ID": "0008928503", "NAME": "UNC LENOIR HEALTH CARE", "ADDRESS": "100 AIRPORT ROAD", "CITY": "KINSTON", "STATE": "NC", "ZIP": "28503", "ZIP4": "NOT AVAILABLE", "TELEPHONE": "(252) 522-7797", "TYPE": "GENERAL ACUTE CARE", "STATUS": "OPEN", "POPULATION": 261, "COUNTY": "LENOIR", "COUNTYFIPS": "37107", "COUNTRY": "USA", "LATITUDE": 35.290340626000003, "LONGITUDE": -77.583282811999894, "NAICS_CODE": "622110", "NAICS_DESC": "GENERAL MEDICAL AND SURGICAL HOSPITALS", "SOURCE": "https:\/\/www2.ncdhhs.gov\/dhsr\/reports.htm", "SOURCEDATE": "2018-08-10T00:00:00.000Z", "VAL_METHOD": "IMAGERY\/OTHER", "VAL_DATE": "2014-02-10T00:00:00.000Z", "WEBSITE": "http:\/\/www.lenoirmemorial.org", "STATE_ID": "NOT AVAILABLE", "ALT_NAME": "LENOIR MEMORIAL HOSPITAL, INC.", "ST_FIPS": "37", "OWNER": "NON-PROFIT", "TTL_STAFF": -999, "BEDS": 261, "TRAUMA": "NOT AVAILABLE", "HELIPAD": "Y" }, "geometry": { "type": "Point", "coordinates": [ -77.583282811999936, 35.290340626000038 ] } },
{ "type": "Feature", "properties": { "OBJECTID": 5733, "ID": "0004728203", "NAME": "CAROLINAS REHABILITATION", "ADDRESS": "1100 BLYTHE BLVD", "CITY": "CHARLOTTE", "STATE": "NC", "ZIP": "28203", "ZIP4": "NOT AVAILABLE", "TELEPHONE": "(704) 355-4300", "TYPE": "REHABILITATION", "STATUS": "OPEN", "POPULATION": 70, "COUNTY": "MECKLENBURG", "COUNTYFIPS": "37119", "COUNTRY": "USA", "LATITUDE": 35.201884954000001, "LONGITUDE": -80.838717822000007, "NAICS_CODE": "622310", "NAICS_DESC": "REHABILITATION HOSPITALS (EXCEPT ALCOHOLISM, DRUG ADDICTION)", "SOURCE": "https:\/\/www2.ncdhhs.gov\/dhsr\/reports.htm", "SOURCEDATE": "2018-08-10T00:00:00.000Z", "VAL_METHOD": "IMAGERY\/OTHER", "VAL_DATE": "2014-02-10T00:00:00.000Z", "WEBSITE": "http:\/\/www.carolinashealthcare.org\/carolinas-rehab", "STATE_ID": "NOT AVAILABLE", "ALT_NAME": "NOT AVAILABLE", "ST_FIPS": "37", "OWNER": "NON-PROFIT", "TTL_STAFF": -999, "BEDS": 70, "TRAUMA": "LEVEL I", "HELIPAD": "Y" }, "geometry": { "type": "Point", "coordinates": [ -80.838717821999978, 35.201884954000029 ] } },
{ "type": "Feature", "properties": { "OBJECTID": 5734, "ID": "0000827401", "NAME": "MOSES CONE MEMORIAL HOSPITAL", "ADDRESS": "1200 NORTH ELM ST", "CITY": "GREENSBORO", "STATE": "NC", "ZIP": "27401", "ZIP4": "NOT AVAILABLE", "TELEPHONE": "(336) 832-7000", "TYPE": "GENERAL ACUTE CARE", "STATUS": "OPEN", "POPULATION": 906, "COUNTY": "GUILFORD", "COUNTYFIPS": "37081", "COUNTRY": "USA", "LATITUDE": 36.090884738000099, "LONGITUDE": -79.786457379999902, "NAICS_CODE": "622110", "NAICS_DESC": "GENERAL MEDICAL AND SURGICAL HOSPITALS", "SOURCE": "https:\/\/www2.ncdhhs.gov\/dhsr\/reports.htm", "SOURCEDATE": "2018-08-10T00:00:00.000Z", "VAL_METHOD": "IMAGERY\/OTHER", "VAL_DATE": "2014-02-10T00:00:00.000Z", "WEBSITE": "http:\/\/www.conehealth.com\/locations\/moses-cone-hospital\/", "STATE_ID": "NOT AVAILABLE", "ALT_NAME": "NOT AVAILABLE", "ST_FIPS": "37", "OWNER": "NON-PROFIT", "TTL_STAFF": -999, "BEDS": 906, "TRAUMA": "LEVEL II", "HELIPAD": "N" }, "geometry": { "type": "Point", "coordinates": [ -79.786457379999945, 36.090884738000057 ] } },
{ "type": "Feature", "properties": { "OBJECTID": 5735, "ID": "0009527607", "NAME": "REX HOSPITAL", "ADDRESS": "4420 LAKE BOONE TRAIL", "CITY": "RALEIGH", "STATE": "NC", "ZIP": "27607", "ZIP4": "NOT AVAILABLE", "TELEPHONE": "(919) 784-3100", "TYPE": "GENERAL ACUTE CARE", "STATUS": "OPEN", "POPULATION": 514, "COUNTY": "WAKE", "COUNTYFIPS": "37183", "COUNTRY": "USA", "LATITUDE": 35.817488637000103, "LONGITUDE": -78.703171913999896, "NAICS_CODE": "622110", "NAICS_DESC": "GENERAL MEDICAL AND SURGICAL HOSPITALS", "SOURCE": "https:\/\/www2.ncdhhs.gov\/dhsr\/reports.htm", "SOURCEDATE": "2018-08-10T00:00:00.000Z", "VAL_METHOD": "IMAGERY\/OTHER", "VAL_DATE": "2014-02-10T00:00:00.000Z", "WEBSITE": "http:\/\/www.rexhealth.com", "STATE_ID": "NOT AVAILABLE", "ALT_NAME": "NOT AVAILABLE", "ST_FIPS": "37", "OWNER": "NON-PROFIT", "TTL_STAFF": -999, "BEDS": 514, "TRAUMA": "NOT AVAILABLE", "HELIPAD": "Y" }, "geometry": { "type": "Point", "coordinates": [ -78.703171913999938, 35.817488637000054 ] } },
{ "type": "Feature", "properties": { "OBJECTID": 5736, "ID": "0011327620", "NAME": "WAKEMED", "ADDRESS": "3000 NEW BERN AVENUE", "CITY": "RALEIGH", "STATE": "NC", "ZIP": "27620", "ZIP4": "NOT AVAILABLE", "TELEPHONE": "(919) 350-8000", "TYPE": "GENERAL ACUTE CARE", "STATUS": "OPEN", "POPULATION": 870, "COUNTY": "WAKE", "COUNTYFIPS": "37183", "COUNTRY": "USA", "LATITUDE": 35.784511348000002, "LONGITUDE": -78.587901970999994, "NAICS_CODE": "622110", "NAICS_DESC": "GENERAL MEDICAL AND SURGICAL HOSPITALS", "SOURCE": "https:\/\/www2.ncdhhs.gov\/dhsr\/reports.htm", "SOURCEDATE": "2018-08-10T00:00:00.000Z", "VAL_METHOD": "IMAGERY\/OTHER", "VAL_DATE": "2014-02-10T00:00:00.000Z", "WEBSITE": "http:\/\/www.wakemed.org\/subhome.cfm?id=52", "STATE_ID": "NOT AVAILABLE", "ALT_NAME": "NOT AVAILABLE", "ST_FIPS": "37", "OWNER": "NON-PROFIT", "TTL_STAFF": -999, "BEDS": 870, "TRAUMA": "LEVEL I", "HELIPAD": "Y" }, "geometry": { "type": "Point", "coordinates": [ -78.587901970999965, 35.784511348000024 ] } },
{ "type": "Feature", "properties": { "OBJECTID": 5737, "ID": "0012127614", "NAME": "WAKEMED NORTH", "ADDRESS": "10000 FALLS OF NEUSE ROAD", "CITY": "RALEIGH", "STATE": "NC", "ZIP": "27614", "ZIP4": "NOT AVAILABLE", "TELEPHONE": "(919) 350-1300", "TYPE": "GENERAL ACUTE CARE", "STATUS": "OPEN", "POPULATION": 61, "COUNTY": "WAKE", "COUNTYFIPS": "37183", "COUNTRY": "USA", "LATITUDE": 35.909082321, "LONGITUDE": -78.597837393000006, "NAICS_CODE": "622110", "NAICS_DESC": "GENERAL MEDICAL AND SURGICAL HOSPITALS", "SOURCE": "https:\/\/www2.ncdhhs.gov\/dhsr\/reports.htm", "SOURCEDATE": "2018-08-10T00:00:00.000Z", "VAL_METHOD": "IMAGERY\/OTHER", "VAL_DATE": "2014-02-10T00:00:00.000Z", "WEBSITE": "http:\/\/www.wakemed.org\/landing.cfm?id=1848", "STATE_ID": "NOT AVAILABLE", "ALT_NAME": "NOT AVAILABLE", "ST_FIPS": "37", "OWNER": "NON-PROFIT", "TTL_STAFF": -999, "BEDS": 61, "TRAUMA": "NOT AVAILABLE", "HELIPAD": "N" }, "geometry": { "type": "Point", "coordinates": [ -78.597837392999963, 35.909082321000028 ] } },
{ "type": "Feature", "properties": { "OBJECTID": 5738, "ID": "0004428111", "NAME": "CAROLINAS HEALTHCARE SYSTEM UNION", "ADDRESS": "600 HOSPITAL DRIVE", "CITY": "MONROE", "STATE": "NC", "ZIP": "28111", "ZIP4": "NOT AVAILABLE", "TELEPHONE": "(704) 283-3100", "TYPE": "GENERAL ACUTE CARE", "STATUS": "OPEN", "POPULATION": 227, "COUNTY": "UNION", "COUNTYFIPS": "37179", "COUNTRY": "USA", "LATITUDE": 34.9757067890001, "LONGITUDE": -80.522842413999996, "NAICS_CODE": "622110", "NAICS_DESC": "GENERAL MEDICAL AND SURGICAL HOSPITALS", "SOURCE": "https:\/\/www2.ncdhhs.gov\/dhsr\/reports.htm", "SOURCEDATE": "2018-08-10T00:00:00.000Z", "VAL_METHOD": "IMAGERY\/OTHER", "VAL_DATE": "2014-02-10T00:00:00.000Z", "WEBSITE": "http:\/\/www.carolinashealthcare.org\/cmc-uniong", "STATE_ID": "NOT AVAILABLE", "ALT_NAME": "CAROLINAS MEDICAL CENTER-UNION", "ST_FIPS": "37", "OWNER": "GOVERNMENT - DISTRICT\/AUTHORITY", "TTL_STAFF": -999, "BEDS": 227, "TRAUMA": "NOT AVAILABLE", "HELIPAD": "Y" }, "geometry": { "type": "Point", "coordinates": [ -80.522842413999953, 34.975706789000071 ] } },
{ "type": "Feature", "properties": { "OBJECTID": 5739, "ID": "0002027835", "NAME": "VIDANT MEDICAL CENTER", "ADDRESS": "2100 STANTONSBURG ROAD", "CITY": "GREENVILLE", "STATE": "NC", "ZIP": "27835", "ZIP4": "NOT AVAILABLE", "TELEPHONE": "(252) 847-4451", "TYPE": "GENERAL ACUTE CARE", "STATUS": "OPEN", "POPULATION": 909, "COUNTY": "PITT", "COUNTYFIPS": "37147", "COUNTRY": "USA", "LATITUDE": 35.607861683000102, "LONGITUDE": -77.40403107, "NAICS_CODE": "622110", "NAICS_DESC": "GENERAL MEDICAL AND SURGICAL HOSPITALS", "SOURCE": "https:\/\/www2.ncdhhs.gov\/dhsr\/reports.htm", "SOURCEDATE": "2018-08-10T00:00:00.000Z", "VAL_METHOD": "IMAGERY\/OTHER", "VAL_DATE": "2014-02-10T00:00:00.000Z", "WEBSITE": "https:\/\/www.vidanthealth.com\/medicalcenter\/default.aspx", "STATE_ID": "NOT AVAILABLE", "ALT_NAME": "NOT AVAILABLE", "ST_FIPS": "37", "OWNER": "NON-PROFIT", "TTL_STAFF": -999, "BEDS": 909, "TRAUMA": "LEVEL I", "HELIPAD": "Y" }, "geometry": { "type": "Point", "coordinates": [ -77.404031069999959, 35.607861683000067 ] } },
{ "type": "Feature", "properties": { "OBJECTID": 5740, "ID": "0000727288", "NAME": "MOREHEAD MEMORIAL HOSPITAL", "ADDRESS": "117 EAST KINGS HWY", "CITY": "EDEN", "STATE": "NC", "ZIP": "27288", "ZIP4": "NOT AVAILABLE", "TELEPHONE": "(336) 623-9711", "TYPE": "GENERAL ACUTE CARE", "STATUS": "OPEN", "POPULATION": 242, "COUNTY": "ROCKINGHAM", "COUNTYFIPS": "37157", "COUNTRY": "USA", "LATITUDE": 36.4947163080001, "LONGITUDE": -79.739444276, "NAICS_CODE": "622110", "NAICS_DESC": "GENERAL MEDICAL AND SURGICAL HOSPITALS", "SOURCE": "https:\/\/www2.ncdhhs.gov\/dhsr\/reports.htm", "SOURCEDATE": "2018-08-10T00:00:00.000Z", "VAL_METHOD": "IMAGERY\/OTHER", "VAL_DATE": "2014-02-10T00:00:00.000Z", "WEBSITE": "http:\/\/www.morehead.org", "STATE_ID": "NOT AVAILABLE", "ALT_NAME": "NOT AVAILABLE", "ST_FIPS": "37", "OWNER": "NON-PROFIT", "TTL_STAFF": -999, "BEDS": 242, "TRAUMA": "NOT AVAILABLE", "HELIPAD": "Y" }, "geometry": { "type": "Point", "coordinates": [ -79.739444275999986, 36.494716308000079 ] } },
{ "type": "Feature", "properties": { "OBJECTID": 5741, "ID": "0002727320", "NAME": "ANNIE PENN HOSPITAL", "ADDRESS": "618 SOUTH MAIN ST.", "CITY": "REIDSVILLE", "STATE": "NC", "ZIP": "27320", "ZIP4": "NOT AVAILABLE", "TELEPHONE": "(336) 951-4000", "TYPE": "GENERAL ACUTE CARE", "STATUS": "OPEN", "POPULATION": 110, "COUNTY": "ROCKINGHAM", "COUNTYFIPS": "37157", "COUNTRY": "USA", "LATITUDE": 36.3532448670001, "LONGITUDE": -79.667521593999894, "NAICS_CODE": "622110", "NAICS_DESC": "GENERAL MEDICAL AND SURGICAL HOSPITALS", "SOURCE": "https:\/\/www2.ncdhhs.gov\/dhsr\/reports.htm", "SOURCEDATE": "2018-08-10T00:00:00.000Z", "VAL_METHOD": "IMAGERY\/OTHER", "VAL_DATE": "2014-02-10T00:00:00.000Z", "WEBSITE": "www.conehealth.com\/locations\/annie-penn-hospital", "STATE_ID": "NOT AVAILABLE", "ALT_NAME": "NOT AVAILABLE", "ST_FIPS": "37", "OWNER": "NON-PROFIT", "TTL_STAFF": -999, "BEDS": 110, "TRAUMA": "NOT AVAILABLE", "HELIPAD": "N" }, "geometry": { "type": "Point", "coordinates": [ -79.667521593999936, 36.353244867000036 ] } },
{ "type": "Feature", "properties": { "OBJECTID": 5742, "ID": "0009427204", "NAME": "RANDOLPH HOSPITAL", "ADDRESS": "364 WHITE OAK STREET", "CITY": "ASHEBORO", "STATE": "NC", "ZIP": "27204", "ZIP4": "NOT AVAILABLE", "TELEPHONE": "(336) 625-5151", "TYPE": "GENERAL ACUTE CARE", "STATUS": "OPEN", "POPULATION": 145, "COUNTY": "RANDOLPH", "COUNTYFIPS": "37151", "COUNTRY": "USA", "LATITUDE": 35.711444614000101, "LONGITUDE": -79.814228041999996, "NAICS_CODE": "622110", "NAICS_DESC": "GENERAL MEDICAL AND SURGICAL HOSPITALS", "SOURCE": "https:\/\/www2.ncdhhs.gov\/dhsr\/reports.htm", "SOURCEDATE": "2018-08-10T00:00:00.000Z", "VAL_METHOD": "IMAGERY\/OTHER", "VAL_DATE": "2014-02-10T00:00:00.000Z", "WEBSITE": "http:\/\/www.randolphhospital.org", "STATE_ID": "NOT AVAILABLE", "ALT_NAME": "NOT AVAILABLE", "ST_FIPS": "37", "OWNER": "NON-PROFIT", "TTL_STAFF": -999, "BEDS": 145, "TRAUMA": "NOT AVAILABLE", "HELIPAD": "Y" }, "geometry": { "type": "Point", "coordinates": [ -79.814228041999982, 35.711444614000072 ] } },
{ "type": "Feature", "properties": { "OBJECTID": 5743, "ID": "0006728379", "NAME": "FIRSTHEALTH RICHMOND MEMORIAL HOSPITAL", "ADDRESS": "925 LONG DR", "CITY": "ROCKINGHAM", "STATE": "NC", "ZIP": "28379", "ZIP4": "NOT AVAILABLE", "TELEPHONE": "(910) 417-3000", "TYPE": "GENERAL ACUTE CARE", "STATUS": "OPEN", "POPULATION": 99, "COUNTY": "RICHMOND", "COUNTYFIPS": "37153", "COUNTRY": "USA", "LATITUDE": 34.928593503000101, "LONGITUDE": -79.749910174999997, "NAICS_CODE": "622110", "NAICS_DESC": "GENERAL MEDICAL AND SURGICAL HOSPITALS", "SOURCE": "https:\/\/www2.ncdhhs.gov\/dhsr\/reports.htm", "SOURCEDATE": "2018-08-10T00:00:00.000Z", "VAL_METHOD": "IMAGERY\/OTHER", "VAL_DATE": "2014-02-10T00:00:00.000Z", "WEBSITE": "https:\/\/www.firsthealth.org\/directory\/hospitals-and-service-locations\/firsthealth-moore-regional-hospital-richmond", "STATE_ID": "NOT AVAILABLE", "ALT_NAME": "FIRSTHEALTH RICHMOND MEMORIAL HOSPITAL", "ST_FIPS": "37", "OWNER": "NON-PROFIT", "TTL_STAFF": -999, "BEDS": 99, "TRAUMA": "NOT AVAILABLE", "HELIPAD": "Y" }, "geometry": { "type": "Point", "coordinates": [ -79.749910174999968, 34.928593503000059 ] } },
{ "type": "Feature", "properties": { "OBJECTID": 5744, "ID": "0010028345", "NAME": "FIRSTHEALTH MOORE REGIONAL HOSPITAL HAMLET", "ADDRESS": "1000 WEST HAMLET AVENUE", "CITY": "HAMLET", "STATE": "NC", "ZIP": "28345", "ZIP4": "NOT AVAILABLE", "TELEPHONE": "(910) 205-8000", "TYPE": "GENERAL ACUTE CARE", "STATUS": "OPEN", "POPULATION": 64, "COUNTY": "RICHMOND", "COUNTYFIPS": "37153", "COUNTRY": "USA", "LATITUDE": 34.901812005000103, "LONGITUDE": -79.708521446999995, "NAICS_CODE": "622110", "NAICS_DESC": "GENERAL MEDICAL AND SURGICAL HOSPITALS", "SOURCE": "https:\/\/www2.ncdhhs.gov\/dhsr\/reports.htm", "SOURCEDATE": "2018-08-10T00:00:00.000Z", "VAL_METHOD": "IMAGERY\/OTHER", "VAL_DATE": "2014-02-10T00:00:00.000Z", "WEBSITE": "http:\/\/www.sandhillsregional.com", "STATE_ID": "NOT AVAILABLE", "ALT_NAME": "SANDHILLS REGIONAL MEDICAL CENTER", "ST_FIPS": "37", "OWNER": "PROPRIETARY", "TTL_STAFF": -999, "BEDS": 64, "TRAUMA": "NOT AVAILABLE", "HELIPAD": "Y" }, "geometry": { "type": "Point", "coordinates": [ -79.708521446999953, 34.901812005000068 ] } },
{ "type": "Feature", "properties": { "OBJECTID": 5745, "ID": "0004328025", "NAME": "CAROLINAS HEALTHCARE SYSTEM NORTHEAST", "ADDRESS": "920 CHURCH ST N", "CITY": "CONCORD", "STATE": "NC", "ZIP": "28025", "ZIP4": "NOT AVAILABLE", "TELEPHONE": "(704) 783-3000", "TYPE": "GENERAL ACUTE CARE", "STATUS": "OPEN", "POPULATION": 457, "COUNTY": "CABARRUS", "COUNTYFIPS": "37025", "COUNTRY": "USA", "LATITUDE": 35.436106422000101, "LONGITUDE": -80.602508044000004, "NAICS_CODE": "622110", "NAICS_DESC": "GENERAL MEDICAL AND SURGICAL HOSPITALS", "SOURCE": "https:\/\/www2.ncdhhs.gov\/dhsr\/reports.htm", "SOURCEDATE": "2018-08-10T00:00:00.000Z", "VAL_METHOD": "IMAGERY\/OTHER", "VAL_DATE": "2014-02-10T00:00:00.000Z", "WEBSITE": "http:\/\/www.carolinashealthcare.org\/northeast", "STATE_ID": "NOT AVAILABLE", "ALT_NAME": "NOT AVAILABLE", "ST_FIPS": "37", "OWNER": "NON-PROFIT", "TTL_STAFF": -999, "BEDS": 457, "TRAUMA": "LEVEL III", "HELIPAD": "Y" }, "geometry": { "type": "Point", "coordinates": [ -80.60250804399999, 35.43610642200008 ] } },
{ "type": "Feature", "properties": { "OBJECTID": 5746, "ID": "0000628801", "NAME": "MEMORIAL MISSION HOSPITAL AND ASHEVILLE SURGERY CENTER", "ADDRESS": "509 BILTMORE AVE", "CITY": "ASHEVILLE", "STATE": "NC", "ZIP": "28801", "ZIP4": "NOT AVAILABLE", "TELEPHONE": "(828) 213-1111", "TYPE": "GENERAL ACUTE CARE", "STATUS": "OPEN", "POPULATION": 763, "COUNTY": "BUNCOMBE", "COUNTYFIPS": "37021", "COUNTRY": "USA", "LATITUDE": 35.576572566000003, "LONGITUDE": -82.549143219000001, "NAICS_CODE": "622110", "NAICS_DESC": "GENERAL MEDICAL AND SURGICAL HOSPITALS", "SOURCE": "https:\/\/www2.ncdhhs.gov\/dhsr\/reports.htm", "SOURCEDATE": "2018-08-10T00:00:00.000Z", "VAL_METHOD": "IMAGERY\/OTHER", "VAL_DATE": "2014-02-10T00:00:00.000Z", "WEBSITE": "http:\/\/www.missionhospitals.org", "STATE_ID": "NOT AVAILABLE", "ALT_NAME": "NOT AVAILABLE", "ST_FIPS": "37", "OWNER": "NON-PROFIT", "TTL_STAFF": -999, "BEDS": 763, "TRAUMA": "LEVEL II", "HELIPAD": "Y" }, "geometry": { "type": "Point", "coordinates": [ -82.549143218999973, 35.576572566000038 ] } },
{ "type": "Feature", "properties": { "OBJECTID": 5747, "ID": "0011127514", "NAME": "UNIVERSITY OF NORTH CAROLINA HOSPITALS", "ADDRESS": "101 MANNING DR", "CITY": "CHAPEL HILL", "STATE": "NC", "ZIP": "27514", "ZIP4": "NOT AVAILABLE", "TELEPHONE": "(919) 966-4131", "TYPE": "GENERAL ACUTE CARE", "STATUS": "OPEN", "POPULATION": 896, "COUNTY": "ORANGE", "COUNTYFIPS": "37135", "COUNTRY": "USA", "LATITUDE": 35.904542703000097, "LONGITUDE": -79.049689228999995, "NAICS_CODE": "622110", "NAICS_DESC": "GENERAL MEDICAL AND SURGICAL HOSPITALS", "SOURCE": "https:\/\/www2.ncdhhs.gov\/dhsr\/reports.htm", "SOURCEDATE": "2018-08-10T00:00:00.000Z", "VAL_METHOD": "IMAGERY\/OTHER", "VAL_DATE": "2013-10-02T00:00:00.000Z", "WEBSITE": "http:\/\/www.unchealthcare.org", "STATE_ID": "NOT AVAILABLE", "ALT_NAME": "NOT AVAILABLE", "ST_FIPS": "37", "OWNER": "GOVERNMENT - STATE", "TTL_STAFF": -999, "BEDS": 896, "TRAUMA": "LEVEL I", "HELIPAD": "Y" }, "geometry": { "type": "Point", "coordinates": [ -79.049689228999966, 35.904542703000054 ] } },
{ "type": "Feature", "properties": { "OBJECTID": 5748, "ID": "0014228170", "NAME": "CAPE FEAR VALLEY HOKE HOSPITAL", "ADDRESS": "201 MEDICAL PAVILION DRIVE", "CITY": "RAEFORD", "STATE": "NC", "ZIP": "28376", "ZIP4": "NOT AVAILABLE", "TELEPHONE": "(910) 615-4000", "TYPE": "GENERAL ACUTE CARE", "STATUS": "OPEN", "POPULATION": 41, "COUNTY": "HOKE", "COUNTYFIPS": "37093", "COUNTRY": "USA", "LATITUDE": 35.029733910000097, "LONGITUDE": -79.107592038000007, "NAICS_CODE": "622110", "NAICS_DESC": "GENERAL MEDICAL AND SURGICAL HOSPITALS", "SOURCE": "https:\/\/www2.ncdhhs.gov\/dhsr\/reports.htm", "SOURCEDATE": "2018-08-10T00:00:00.000Z", "VAL_METHOD": "IMAGERY\/OTHER", "VAL_DATE": "2016-01-25T00:00:00.000Z", "WEBSITE": "http:\/\/www.capefearvalley.com\/hospitals\/hoke.html", "STATE_ID": "NOT AVAILABLE", "ALT_NAME": "NOT AVAILABLE", "ST_FIPS": "37", "OWNER": "NON-PROFIT", "TTL_STAFF": -999, "BEDS": 41, "TRAUMA": "NOT AVAILABLE", "HELIPAD": "N" }, "geometry": { "type": "Point", "coordinates": [ -79.10759203799995, 35.029733910000061 ] } },
{ "type": "Feature", "properties": { "OBJECTID": 3509, "ID": "0003227983", "NAME": "VIDANT BERTIE HOSPITAL", "ADDRESS": "1403 SOUTH KING STREET", "CITY": "WINDSOR", "STATE": "NC", "ZIP": "27983", "ZIP4": "NOT AVAILABLE", "TELEPHONE": "(252) 794-6600", "TYPE": "GENERAL ACUTE CARE", "STATUS": "OPEN", "POPULATION": 6, "COUNTY": "BERTIE", "COUNTYFIPS": "37015", "COUNTRY": "USA", "LATITUDE": 35.988647545, "LONGITUDE": -76.928249488999896, "NAICS_CODE": "622110", "NAICS_DESC": "GENERAL MEDICAL AND SURGICAL HOSPITALS", "SOURCE": "https:\/\/www2.ncdhhs.gov\/dhsr\/reports.htm", "SOURCEDATE": "2018-08-10T00:00:00.000Z", "VAL_METHOD": "IMAGERY\/OTHER", "VAL_DATE": "2014-02-10T00:00:00.000Z", "WEBSITE": "https:\/\/www.vidanthealth.com\/bertie\/dynamic-detail.aspx?id=381", "STATE_ID": "NOT AVAILABLE", "ALT_NAME": "BERTIE MEMORIAL HOSPITAL", "ST_FIPS": "37", "OWNER": "NON-PROFIT", "TTL_STAFF": -999, "BEDS": 6, "TRAUMA": "NOT AVAILABLE", "HELIPAD": "Y" }, "geometry": { "type": "Point", "coordinates": [ -76.928249488999938, 35.988647545000049 ] } },
{ "type": "Feature", "properties": { "OBJECTID": 3510, "ID": "0010927360", "NAME": "NOVANT HEALTH THOMASVILLE MEDICAL CENTER", "ADDRESS": "207 OLD LEXINGTON ROAD", "CITY": "THOMASVILLE", "STATE": "NC", "ZIP": "27360", "ZIP4": "NOT AVAILABLE", "TELEPHONE": "(336) 472-2000", "TYPE": "GENERAL ACUTE CARE", "STATUS": "OPEN", "POPULATION": 149, "COUNTY": "DAVIDSON", "COUNTYFIPS": "37057", "COUNTRY": "USA", "LATITUDE": 35.879885118000097, "LONGITUDE": -80.111479564000007, "NAICS_CODE": "622110", "NAICS_DESC": "GENERAL MEDICAL AND SURGICAL HOSPITALS", "SOURCE": "https:\/\/www2.ncdhhs.gov\/dhsr\/reports.htm", "SOURCEDATE": "2018-08-10T00:00:00.000Z", "VAL_METHOD": "IMAGERY\/OTHER", "VAL_DATE": "2014-02-10T00:00:00.000Z", "WEBSITE": "https:\/\/www.novanthealth.org\/thomasville-medical-center.aspx", "STATE_ID": "NOT AVAILABLE", "ALT_NAME": "THOMASVILLE MEDICAL CENTER", "ST_FIPS": "37", "OWNER": "NON-PROFIT", "TTL_STAFF": -999, "BEDS": 149, "TRAUMA": "NOT AVAILABLE", "HELIPAD": "N" }, "geometry": { "type": "Point", "coordinates": [ -80.111479563999978, 35.879885118000061 ] } },
{ "type": "Feature", "properties": { "OBJECTID": 3511, "ID": "0005427932", "NAME": "VIDANT CHOWAN HOSPITAL", "ADDRESS": "211 VIRGINIA ROAD", "CITY": "EDENTON", "STATE": "NC", "ZIP": "27932", "ZIP4": "NOT AVAILABLE", "TELEPHONE": "(252) 482-8451", "TYPE": "GENERAL ACUTE CARE", "STATUS": "OPEN", "POPULATION": 89, "COUNTY": "CHOWAN", "COUNTYFIPS": "37041", "COUNTRY": "USA", "LATITUDE": 36.069979282000098, "LONGITUDE": -76.611203527000001, "NAICS_CODE": "622110", "NAICS_DESC": "GENERAL MEDICAL AND SURGICAL HOSPITALS", "SOURCE": "https:\/\/www2.ncdhhs.gov\/dhsr\/reports.htm", "SOURCEDATE": "2018-08-10T00:00:00.000Z", "VAL_METHOD": "IMAGERY\/OTHER", "VAL_DATE": "2014-02-10T00:00:00.000Z", "WEBSITE": "http:\/\/www.vidanthealth.com", "STATE_ID": "NOT AVAILABLE", "ALT_NAME": "CHOWAN HOSPITAL", "ST_FIPS": "37", "OWNER": "NON-PROFIT", "TTL_STAFF": -999, "BEDS": 89, "TRAUMA": "NOT AVAILABLE", "HELIPAD": "Y" }, "geometry": { "type": "Point", "coordinates": [ -76.611203526999986, 36.06997928200007 ] } },
{ "type": "Feature", "properties": { "OBJECTID": 3512, "ID": "0006427704", "NAME": "DUKE REGIONAL HOSPITAL", "ADDRESS": "3643 NORTH ROXBORO RD", "CITY": "DURHAM", "STATE": "NC", "ZIP": "27704", "ZIP4": "NOT AVAILABLE", "TELEPHONE": "(919) 470-4000", "TYPE": "GENERAL ACUTE CARE", "STATUS": "OPEN", "POPULATION": 369, "COUNTY": "DURHAM", "COUNTYFIPS": "37063", "COUNTRY": "USA", "LATITUDE": 36.036793594000102, "LONGITUDE": -78.900254542, "NAICS_CODE": "622110", "NAICS_DESC": "GENERAL MEDICAL AND SURGICAL HOSPITALS", "SOURCE": "https:\/\/www2.ncdhhs.gov\/dhsr\/reports.htm", "SOURCEDATE": "2018-08-10T00:00:00.000Z", "VAL_METHOD": "IMAGERY\/OTHER", "VAL_DATE": "2014-02-10T00:00:00.000Z", "WEBSITE": "http:\/\/www.dukeregional.org\/", "STATE_ID": "NOT AVAILABLE", "ALT_NAME": "NOT AVAILABLE", "ST_FIPS": "37", "OWNER": "NON-PROFIT", "TTL_STAFF": -999, "BEDS": 369, "TRAUMA": "NOT AVAILABLE", "HELIPAD": "N" }, "geometry": { "type": "Point", "coordinates": [ -78.900254541999956, 36.036793594000066 ] } },
{ "type": "Feature", "properties": { "OBJECTID": 3513, "ID": "0004828012", "NAME": "CAROLINAS REHABILITATION - MOUNT HOLLY", "ADDRESS": "275 BEATTY DRIVE", "CITY": "BELMONT", "STATE": "NC", "ZIP": "28012", "ZIP4": "NOT AVAILABLE", "TELEPHONE": "(704) 355-3398", "TYPE": "REHABILITATION", "STATUS": "OPEN", "POPULATION": 40, "COUNTY": "GASTON", "COUNTYFIPS": "37071", "COUNTRY": "USA", "LATITUDE": 35.263157962000001, "LONGITUDE": -81.030128712999996, "NAICS_CODE": "622310", "NAICS_DESC": "REHABILITATION HOSPITALS (EXCEPT ALCOHOLISM, DRUG ADDICTION)", "SOURCE": "https:\/\/www2.ncdhhs.gov\/dhsr\/reports.htm", "SOURCEDATE": "2018-08-10T00:00:00.000Z", "VAL_METHOD": "IMAGERY\/OTHER", "VAL_DATE": "2013-09-26T00:00:00.000Z", "WEBSITE": "http:\/\/www.carolinashealthcare.org\/carolinas-rehab", "STATE_ID": "NOT AVAILABLE", "ALT_NAME": "NOT AVAILABLE", "ST_FIPS": "37", "OWNER": "GOVERNMENT - LOCAL", "TTL_STAFF": -999, "BEDS": 40, "TRAUMA": "NOT AVAILABLE", "HELIPAD": "N" }, "geometry": { "type": "Point", "coordinates": [ -81.030128712999954, 35.263157962000037 ] } },
{ "type": "Feature", "properties": { "OBJECTID": 3514, "ID": "0004628232", "NAME": "CAROLINAS MEDICAL CENTER", "ADDRESS": "1000 BLYTHE BOULEVARD", "CITY": "CHARLOTTE", "STATE": "NC", "ZIP": "28232", "ZIP4": "NOT AVAILABLE", "TELEPHONE": "(704) 355-2000", "TYPE": "GENERAL ACUTE CARE", "STATUS": "OPEN", "POPULATION": 1023, "COUNTY": "MECKLENBURG", "COUNTYFIPS": "37119", "COUNTRY": "USA", "LATITUDE": 35.203899886000002, "LONGITUDE": -80.838901796000002, "NAICS_CODE": "622110", "NAICS_DESC": "GENERAL MEDICAL AND SURGICAL HOSPITALS", "SOURCE": "https:\/\/www2.ncdhhs.gov\/dhsr\/reports.htm", "SOURCEDATE": "2018-08-10T00:00:00.000Z", "VAL_METHOD": "IMAGERY\/OTHER", "VAL_DATE": "2014-02-10T00:00:00.000Z", "WEBSITE": "http:\/\/www.carolinasmedicalcenter.org", "STATE_ID": "NOT AVAILABLE", "ALT_NAME": "NOT AVAILABLE", "ST_FIPS": "37", "OWNER": "GOVERNMENT - DISTRICT\/AUTHORITY", "TTL_STAFF": -999, "BEDS": 1023, "TRAUMA": "LEVEL I", "HELIPAD": "Y" }, "geometry": { "type": "Point", "coordinates": [ -80.838901795999959, 35.203899886000038 ] } },
{ "type": "Feature", "properties": { "OBJECTID": 3515, "ID": "0001728732", "NAME": "PARK RIDGE HOSPITAL", "ADDRESS": "100 HOSPITAL DRIVE", "CITY": "HENDERSONVILLE", "STATE": "NC", "ZIP": "28732", "ZIP4": "NOT AVAILABLE", "TELEPHONE": "(828) 684-8501", "TYPE": "GENERAL ACUTE CARE", "STATUS": "OPEN", "POPULATION": 103, "COUNTY": "HENDERSON", "COUNTYFIPS": "37089", "COUNTRY": "USA", "LATITUDE": 35.390043302000002, "LONGITUDE": -82.488193011000007, "NAICS_CODE": "622110", "NAICS_DESC": "GENERAL MEDICAL AND SURGICAL HOSPITALS", "SOURCE": "https:\/\/www2.ncdhhs.gov\/dhsr\/reports.htm", "SOURCEDATE": "2018-08-10T00:00:00.000Z", "VAL_METHOD": "IMAGERY", "VAL_DATE": "2014-02-10T00:00:00.000Z", "WEBSITE": "http:\/\/www.parkridgehealth.org", "STATE_ID": "NOT AVAILABLE", "ALT_NAME": "NOT AVAILABLE", "ST_FIPS": "37", "OWNER": "NON-PROFIT", "TTL_STAFF": -999, "BEDS": 103, "TRAUMA": "NOT AVAILABLE", "HELIPAD": "Y" }, "geometry": { "type": "Point", "coordinates": [ -82.488193010999964, 35.390043302000038 ] } },
{ "type": "Feature", "properties": { "OBJECTID": 3516, "ID": "0008627406", "NAME": "KINDRED HOSPITAL - GREENSBORO", "ADDRESS": "2401 SOUTHSIDE BLVD", "CITY": "GREENSBORO", "STATE": "NC", "ZIP": "27406", "ZIP4": "NOT AVAILABLE", "TELEPHONE": "(336) 271-2800", "TYPE": "GENERAL ACUTE CARE", "STATUS": "OPEN", "POPULATION": 124, "COUNTY": "GUILFORD", "COUNTYFIPS": "37081", "COUNTRY": "USA", "LATITUDE": 36.0492638260001, "LONGITUDE": -79.770365023999901, "NAICS_CODE": "622110", "NAICS_DESC": "GENERAL MEDICAL AND SURGICAL HOSPITALS", "SOURCE": "https:\/\/www2.ncdhhs.gov\/dhsr\/reports.htm", "SOURCEDATE": "2018-08-10T00:00:00.000Z", "VAL_METHOD": "IMAGERY\/OTHER", "VAL_DATE": "2013-09-27T00:00:00.000Z", "WEBSITE": "http:\/\/www.khgreensboro.com", "STATE_ID": "NOT AVAILABLE", "ALT_NAME": "NOT AVAILABLE", "ST_FIPS": "37", "OWNER": "PROPRIETARY", "TTL_STAFF": -999, "BEDS": 124, "TRAUMA": "NOT AVAILABLE", "HELIPAD": "N" }, "geometry": { "type": "Point", "coordinates": [ -79.770365023999943, 36.049263826000065 ] } },
{ "type": "Feature", "properties": { "OBJECTID": 3517, "ID": "0011927893", "NAME": "WILSON MEDICAL CENTER", "ADDRESS": "1705 TARBORO ST. SW", "CITY": "WILSON", "STATE": "NC", "ZIP": "27893", "ZIP4": "NOT AVAILABLE", "TELEPHONE": "(252) 399-8040", "TYPE": "GENERAL ACUTE CARE", "STATUS": "OPEN", "POPULATION": 317, "COUNTY": "WILSON", "COUNTYFIPS": "37195", "COUNTRY": "USA", "LATITUDE": 35.7185586700001, "LONGITUDE": -77.943813092, "NAICS_CODE": "622110", "NAICS_DESC": "GENERAL MEDICAL AND SURGICAL HOSPITALS", "SOURCE": "https:\/\/www2.ncdhhs.gov\/dhsr\/reports.htm", "SOURCEDATE": "2018-08-10T00:00:00.000Z", "VAL_METHOD": "IMAGERY\/OTHER", "VAL_DATE": "2014-02-10T00:00:00.000Z", "WEBSITE": "http:\/\/www.wilmed.org", "STATE_ID": "NOT AVAILABLE", "ALT_NAME": "NOT AVAILABLE", "ST_FIPS": "37", "OWNER": "NON-PROFIT", "TTL_STAFF": -999, "BEDS": 317, "TRAUMA": "NOT AVAILABLE", "HELIPAD": "Y" }, "geometry": { "type": "Point", "coordinates": [ -77.943813091999971, 35.718558670000036 ] } },
{ "type": "Feature", "properties": { "OBJECTID": 3518, "ID": "0008127055", "NAME": "YADKIN VALLEY COMMUNITY HOSPITAL", "ADDRESS": "624 WEST MAIN ST", "CITY": "YADKINVILLE", "STATE": "NC", "ZIP": "27055", "ZIP4": "NOT AVAILABLE", "TELEPHONE": "(336) 679-2041", "TYPE": "GENERAL ACUTE CARE", "STATUS": "OPEN", "POPULATION": 22, "COUNTY": "YADKIN", "COUNTYFIPS": "37197", "COUNTRY": "USA", "LATITUDE": 36.135283917000002, "LONGITUDE": -80.671125477999993, "NAICS_CODE": "622110", "NAICS_DESC": "GENERAL MEDICAL AND SURGICAL HOSPITALS", "SOURCE": "https:\/\/www2.ncdhhs.gov\/dhsr\/reports.htm", "SOURCEDATE": "2018-08-10T00:00:00.000Z", "VAL_METHOD": "IMAGERY\/OTHER", "VAL_DATE": "2014-02-10T00:00:00.000Z", "WEBSITE": "http:\/\/www.yadkinhospital.com\/", "STATE_ID": "NOT AVAILABLE", "ALT_NAME": "NOT AVAILABLE", "ST_FIPS": "37", "OWNER": "NON-PROFIT", "TTL_STAFF": -999, "BEDS": 22, "TRAUMA": "NOT AVAILABLE", "HELIPAD": "N" }, "geometry": { "type": "Point", "coordinates": [ -80.671125477999965, 36.135283917000031 ] } },
{ "type": "Feature", "properties": { "OBJECTID": 3519, "ID": "0011028712", "NAME": "TRANSYLVANIA COMMUNITY HOSPITAL, INC. AND BRIDGEWAY", "ADDRESS": "P O BOX 1116", "CITY": "BREVARD", "STATE": "NC", "ZIP": "28712", "ZIP4": "NOT AVAILABLE", "TELEPHONE": "(828) 884-9111", "TYPE": "GENERAL ACUTE CARE", "STATUS": "OPEN", "POPULATION": 94, "COUNTY": "TRANSYLVANIA", "COUNTYFIPS": "37175", "COUNTRY": "USA", "LATITUDE": 35.256139104000098, "LONGITUDE": -82.711910288, "NAICS_CODE": "622110", "NAICS_DESC": "GENERAL MEDICAL AND SURGICAL HOSPITALS", "SOURCE": "https:\/\/www2.ncdhhs.gov\/dhsr\/reports.htm", "SOURCEDATE": "2018-08-10T00:00:00.000Z", "VAL_METHOD": "IMAGERY\/OTHER", "VAL_DATE": "2014-03-12T00:00:00.000Z", "WEBSITE": "http:\/\/www.trhospital.org", "STATE_ID": "NOT AVAILABLE", "ALT_NAME": "NOT AVAILABLE", "ST_FIPS": "37", "OWNER": "NON-PROFIT", "TTL_STAFF": -999, "BEDS": 94, "TRAUMA": "NOT AVAILABLE", "HELIPAD": "Y" }, "geometry": { "type": "Point", "coordinates": [ -82.711910287999956, 35.256139104000063 ] } },
{ "type": "Feature", "properties": { "OBJECTID": 3520, "ID": "0010628713", "NAME": "SWAIN COMMUNITY HOSPITAL", "ADDRESS": "45 PLATEAU ST", "CITY": "BRYSON CITY", "STATE": "NC", "ZIP": "28713", "ZIP4": "NOT AVAILABLE", "TELEPHONE": "(828) 488-2155", "TYPE": "GENERAL ACUTE CARE", "STATUS": "OPEN", "POPULATION": 48, "COUNTY": "SWAIN", "COUNTYFIPS": "37173", "COUNTRY": "USA", "LATITUDE": 35.434485493000103, "LONGITUDE": -83.444792567999997, "NAICS_CODE": "622110", "NAICS_DESC": "GENERAL MEDICAL AND SURGICAL HOSPITALS", "SOURCE": "https:\/\/www2.ncdhhs.gov\/dhsr\/reports.htm", "SOURCEDATE": "2018-08-10T00:00:00.000Z", "VAL_METHOD": "IMAGERY", "VAL_DATE": "2014-02-10T00:00:00.000Z", "WEBSITE": "http:\/\/www.myswaincommunity.com\/", "STATE_ID": "NOT AVAILABLE", "ALT_NAME": "NOT AVAILABLE", "ST_FIPS": "37", "OWNER": "NON-PROFIT", "TTL_STAFF": -999, "BEDS": 48, "TRAUMA": "NOT AVAILABLE", "HELIPAD": "Y" }, "geometry": { "type": "Point", "coordinates": [ -83.444792567999968, 35.434485493000068 ] } },
{ "type": "Feature", "properties": { "OBJECTID": 3521, "ID": "0010527016", "NAME": "LIFEBRITE COMMUNITY HOSPITAL OF STOKES", "ADDRESS": "1570 NC 8 & 89 HWY NORTH", "CITY": "DANBURY", "STATE": "NC", "ZIP": "27016", "ZIP4": "NOT AVAILABLE", "TELEPHONE": "(336) 593-2831", "TYPE": "GENERAL ACUTE CARE", "STATUS": "OPEN", "POPULATION": 93, "COUNTY": "STOKES", "COUNTYFIPS": "37169", "COUNTRY": "USA", "LATITUDE": 36.418067999000101, "LONGITUDE": -80.231076208999994, "NAICS_CODE": "622110", "NAICS_DESC": "GENERAL MEDICAL AND SURGICAL HOSPITALS", "SOURCE": "https:\/\/www2.ncdhhs.gov\/dhsr\/reports.htm", "SOURCEDATE": "2018-08-10T00:00:00.000Z", "VAL_METHOD": "IMAGERY\/OTHER", "VAL_DATE": "2013-10-01T00:00:00.000Z", "WEBSITE": "http:\/\/lifebritestokes.com\/", "STATE_ID": "NOT AVAILABLE", "ALT_NAME": "PIONEER COMMUNITY HOSPITAL OF STOKES", "ST_FIPS": "37", "OWNER": "PROPRIETARY", "TTL_STAFF": -999, "BEDS": 93, "TRAUMA": "NOT AVAILABLE", "HELIPAD": "N" }, "geometry": { "type": "Point", "coordinates": [ -80.23107620899998, 36.418067999000066 ] } },
{ "type": "Feature", "properties": { "OBJECTID": 3522, "ID": "0003728462", "NAME": "BRUNSWICK COMMUNITY HOSPITAL", "ADDRESS": "240 HOSPITAL DRIVE NE", "CITY": "BOLIVIA", "STATE": "NC", "ZIP": "28462", "ZIP4": "NOT AVAILABLE", "TELEPHONE": "(910) 755-8121", "TYPE": "GENERAL ACUTE CARE", "STATUS": "CLOSED", "POPULATION": 60, "COUNTY": "BRUNSWICK", "COUNTYFIPS": "37019", "COUNTRY": "USA", "LATITUDE": 34.008958065999998, "LONGITUDE": -78.290906561, "NAICS_CODE": "622110", "NAICS_DESC": "GENERAL MEDICAL AND SURGICAL HOSPITALS", "SOURCE": "https:\/\/www2.ncdhhs.gov\/dhsr\/data\/hllist.pdf", "SOURCEDATE": "2012-07-03T00:00:00.000Z", "VAL_METHOD": "IMAGERY\/OTHER", "VAL_DATE": "2014-02-10T00:00:00.000Z", "WEBSITE": "http:\/\/brunswicknovant.org\/", "STATE_ID": "NOT AVAILABLE", "ALT_NAME": "NOT AVAILABLE", "ST_FIPS": "37", "OWNER": "NON-PROFIT", "TTL_STAFF": -999, "BEDS": 60, "TRAUMA": "NOT AVAILABLE", "HELIPAD": "Y" }, "geometry": { "type": "Point", "coordinates": [ -78.290906560999986, 34.008958066000041 ] } },
{ "type": "Feature", "properties": { "OBJECTID": 3523, "ID": "0005628472", "NAME": "COLUMBUS REGIONAL HEALTHCARE SYSTEM", "ADDRESS": "500 JEFFERSON ST", "CITY": "WHITEVILLE", "STATE": "NC", "ZIP": "28472", "ZIP4": "NOT AVAILABLE", "TELEPHONE": "(910) 642-8011", "TYPE": "GENERAL ACUTE CARE", "STATUS": "OPEN", "POPULATION": 154, "COUNTY": "COLUMBUS", "COUNTYFIPS": "37047", "COUNTRY": "USA", "LATITUDE": 34.337734292999997, "LONGITUDE": -78.694124087999995, "NAICS_CODE": "622110", "NAICS_DESC": "GENERAL MEDICAL AND SURGICAL HOSPITALS", "SOURCE": "https:\/\/www2.ncdhhs.gov\/dhsr\/reports.htm", "SOURCEDATE": "2018-08-10T00:00:00.000Z", "VAL_METHOD": "IMAGERY\/OTHER", "VAL_DATE": "2013-10-02T00:00:00.000Z", "WEBSITE": "http:\/\/www.crhealthcare.org", "STATE_ID": "NOT AVAILABLE", "ALT_NAME": "NOT AVAILABLE", "ST_FIPS": "37", "OWNER": "GOVERNMENT - DISTRICT\/AUTHORITY", "TTL_STAFF": -999, "BEDS": 154, "TRAUMA": "NOT AVAILABLE", "HELIPAD": "Y" }, "geometry": { "type": "Point", "coordinates": [ -78.694124087999967, 34.33773429300004 ] } },
{ "type": "Feature", "properties": { "OBJECTID": 3799, "ID": "0014428603", "NAME": "ALEXANDER HOSPITAL", "ADDRESS": "PO BOX 2568", "CITY": "HICKORY", "STATE": "NC", "ZIP": "28603", "ZIP4": "NOT AVAILABLE", "TELEPHONE": "(828) 377-4745", "TYPE": "GENERAL ACUTE CARE", "STATUS": "OPEN", "POPULATION": 25, "COUNTY": "ALEXANDER", "COUNTYFIPS": "37003", "COUNTRY": "USA", "LATITUDE": 35.695534197000001, "LONGITUDE": -81.291151430999903, "NAICS_CODE": "622110", "NAICS_DESC": "GENERAL MEDICAL AND SURGICAL HOSPITALS", "SOURCE": "https:\/\/www2.ncdhhs.gov\/dhsr\/reports.htm", "SOURCEDATE": "2018-08-10T00:00:00.000Z", "VAL_METHOD": "IMAGERY\/OTHER", "VAL_DATE": "2019-04-16T00:00:00.000Z", "WEBSITE": "http:\/\/www.fryemedctr.com\/en-US\/Pages\/default.aspx", "STATE_ID": "NOT AVAILABLE", "ALT_NAME": "NOT AVAILABLE", "ST_FIPS": "37", "OWNER": "PROPRIETARY", "TTL_STAFF": -999, "BEDS": 25, "TRAUMA": "NOT AVAILABLE", "HELIPAD": "N" }, "geometry": { "type": "Point", "coordinates": [ -81.291151430999946, 35.695534197000022 ] } },
{ "type": "Feature", "properties": { "OBJECTID": 3895, "ID": "0168327610", "NAME": "HOLLY HILL HOSPITAL", "ADDRESS": "3019 FALSTAFF RD", "CITY": "RALEIGH", "STATE": "NC", "ZIP": "27610", "ZIP4": "1899", "TELEPHONE": "(919) 250-7000", "TYPE": "PSYCHIATRIC", "STATUS": "OPEN", "POPULATION": -999, "COUNTY": "WAKE", "COUNTYFIPS": "37183", "COUNTRY": "USA", "LATITUDE": 35.7827737470001, "LONGITUDE": -78.583921133000004, "NAICS_CODE": "622210", "NAICS_DESC": "PSYCHIATRIC AND SUBSTANCE ABUSE HOSPITALS", "SOURCE": "https:\/\/www2.ncdhhs.gov\/dhsr\/reports.htm", "SOURCEDATE": "2018-08-10T00:00:00.000Z", "VAL_METHOD": "IMAGERY\/OTHER", "VAL_DATE": "2019-05-09T00:00:00.000Z", "WEBSITE": "https:\/\/hollyhillhospital.com\/", "STATE_ID": "MHH0113", "ALT_NAME": "NOT AVAILABLE", "ST_FIPS": "37", "OWNER": "PROPRIETARY", "TTL_STAFF": -999, "BEDS": -999, "TRAUMA": "NOT AVAILABLE", "HELIPAD": "N" }, "geometry": { "type": "Point", "coordinates": [ -78.583921133, 35.782773747000078 ] } },
{ "type": "Feature", "properties": { "OBJECTID": 3923, "ID": "0177827006", "NAME": "DAVIE MEDICAL CENTER", "ADDRESS": "MEDICAL CENTER BLVD", "CITY": "BERMUDA RUN", "STATE": "NC", "ZIP": "27006", "ZIP4": "NOT AVAILABLE", "TELEPHONE": "(336) 751-8100", "TYPE": "GENERAL ACUTE CARE", "STATUS": "OPEN", "POPULATION": 50, "COUNTY": "DAVIE", "COUNTYFIPS": "37059", "COUNTRY": "USA", "LATITUDE": 36.009403894000101, "LONGITUDE": -80.447589687999894, "NAICS_CODE": "622110", "NAICS_DESC": "GENERAL MEDICAL AND SURGICAL HOSPITALS", "SOURCE": "https:\/\/www2.ncdhhs.gov\/dhsr\/reports.htm", "SOURCEDATE": "2018-08-10T00:00:00.000Z", "VAL_METHOD": "IMAGERY\/OTHER", "VAL_DATE": "2019-05-09T00:00:00.000Z", "WEBSITE": "https:\/\/www.wakehealth.edu\/Davie-Medical-Center\/", "STATE_ID": "NOT AVAILABLE", "ALT_NAME": "NOT AVAILABLE", "ST_FIPS": "37", "OWNER": "NON-PROFIT", "TTL_STAFF": -999, "BEDS": 50, "TRAUMA": "NOT AVAILABLE", "HELIPAD": "N" }, "geometry": { "type": "Point", "coordinates": [ -80.447589687999937, 36.009403894000037 ] } },
{ "type": "Feature", "properties": { "OBJECTID": 3924, "ID": "0172728451", "NAME": "STRATEGIC BEHAVIORAL CENTER LELAND", "ADDRESS": "2050 MERCANTILE DRIVE", "CITY": "LELAND", "STATE": "NC", "ZIP": "28451", "ZIP4": "NOT AVAILABLE", "TELEPHONE": "(910) 371-2500", "TYPE": "PSYCHIATRIC", "STATUS": "OPEN", "POPULATION": 112, "COUNTY": "BEAUFORT", "COUNTYFIPS": "37013", "COUNTRY": "USA", "LATITUDE": 34.26075781, "LONGITUDE": -78.063713706000001, "NAICS_CODE": "622210", "NAICS_DESC": "PSYCHIATRIC AND SUBSTANCE ABUSE HOSPITALS", "SOURCE": "https:\/\/www2.ncdhhs.gov\/dhsr\/reports.htm", "SOURCEDATE": "2018-08-10T00:00:00.000Z", "VAL_METHOD": "IMAGERY\/OTHER", "VAL_DATE": "2019-05-09T00:00:00.000Z", "WEBSITE": "http:\/\/sbcwilmington.com\/", "STATE_ID": "MHH0976", "ALT_NAME": "NOT AVAILABLE", "ST_FIPS": "37", "OWNER": "PROPRIETARY", "TTL_STAFF": -999, "BEDS": 112, "TRAUMA": "NOT AVAILABLE", "HELIPAD": "N" }, "geometry": { "type": "Point", "coordinates": [ -78.063713705999973, 34.260757810000023 ] } },
{ "type": "Feature", "properties": { "OBJECTID": 3925, "ID": "0178727705", "NAME": "VERITAS COLLABORATIVE NORTH CAROLINA LLC", "ADDRESS": "615 DOUGLAS STREET", "CITY": "DURHAM", "STATE": "NC", "ZIP": "27705", "ZIP4": "NOT AVAILABLE", "TELEPHONE": "(919) 597-0296", "TYPE": "GENERAL ACUTE CARE", "STATUS": "OPEN", "POPULATION": -999, "COUNTY": "DURHAM", "COUNTYFIPS": "37063", "COUNTRY": "USA", "LATITUDE": 36.009940376000003, "LONGITUDE": -78.942325378999996, "NAICS_CODE": "622210", "NAICS_DESC": "PSYCHIATRIC AND SUBSTANCE ABUSE HOSPITALS", "SOURCE": "https:\/\/www2.ncdhhs.gov\/dhsr\/reports.htm", "SOURCEDATE": "2018-08-10T00:00:00.000Z", "VAL_METHOD": "IMAGERY\/OTHER", "VAL_DATE": "2019-05-09T00:00:00.000Z", "WEBSITE": "https:\/\/veritascollaborative.com\/eating-disorder-treatment-levels-of-care\/inpatient", "STATE_ID": "NOT AVAILABLE", "ALT_NAME": "NOT AVAILABLE", "ST_FIPS": "37", "OWNER": "PROPRIETARY", "TTL_STAFF": -999, "BEDS": -999, "TRAUMA": "NOT AVAILABLE", "HELIPAD": "N" }, "geometry": { "type": "Point", "coordinates": [ -78.942325378999954, 36.009940376000031 ] } },
{ "type": "Feature", "properties": { "OBJECTID": 3926, "ID": "0178827104", "NAME": "OLD VINEYARD YOUTH SERVICES", "ADDRESS": "3637 OLD VINEYARD ROAD", "CITY": "WINSTON SALEM", "STATE": "NC", "ZIP": "27104", "ZIP4": "NOT AVAILABLE", "TELEPHONE": "(336) 794-3550", "TYPE": "PSYCHIATRIC", "STATUS": "OPEN", "POPULATION": -999, "COUNTY": "FORSYTH", "COUNTYFIPS": "37067", "COUNTRY": "USA", "LATITUDE": 36.078334382000001, "LONGITUDE": -80.318573817999905, "NAICS_CODE": "622210", "NAICS_DESC": "PSYCHIATRIC AND SUBSTANCE ABUSE HOSPITALS", "SOURCE": "https:\/\/www2.ncdhhs.gov\/dhsr\/reports.htm", "SOURCEDATE": "2018-08-10T00:00:00.000Z", "VAL_METHOD": "IMAGERY\/OTHER", "VAL_DATE": "2019-05-09T00:00:00.000Z", "WEBSITE": "http:\/\/oldvineyardbhs.com\/", "STATE_ID": "NOT AVAILABLE", "ALT_NAME": "OLD VINEYARD BEHAVIORAL HEALTH SERVICES", "ST_FIPS": "37", "OWNER": "PROPRIETARY", "TTL_STAFF": -999, "BEDS": -999, "TRAUMA": "NOT AVAILABLE", "HELIPAD": "N" }, "geometry": { "type": "Point", "coordinates": [ -80.318573817999948, 36.078334382000037 ] } },
{ "type": "Feature", "properties": { "OBJECTID": 3927, "ID": "0179027408", "NAME": "WOMEN'S HOSPITAL", "ADDRESS": "801 GREEN VALLEY ROAD", "CITY": "GREENSBORO", "STATE": "NC", "ZIP": "27408", "ZIP4": "NOT AVAILABLE", "TELEPHONE": "(336) 832-6500", "TYPE": "WOMEN", "STATUS": "OPEN", "POPULATION": 134, "COUNTY": "GUILFORD", "COUNTYFIPS": "37081", "COUNTRY": "USA", "LATITUDE": 36.092908213000001, "LONGITUDE": -79.817863791999997, "NAICS_CODE": "622310", "NAICS_DESC": "MATERNITY HOSPITALS", "SOURCE": "https:\/\/www2.ncdhhs.gov\/dhsr\/reports.htm", "SOURCEDATE": "2018-08-10T00:00:00.000Z", "VAL_METHOD": "IMAGERY\/OTHER", "VAL_DATE": "2019-05-09T00:00:00.000Z", "WEBSITE": "https:\/\/www.conehealth.com\/locations\/womens-hospital\/", "STATE_ID": "H0159", "ALT_NAME": "CONE HEALTH WOMEN'S HOSPITAL", "ST_FIPS": "37", "OWNER": "NON-PROFIT", "TTL_STAFF": -999, "BEDS": 134, "TRAUMA": "NOT AVAILABLE", "HELIPAD": "N" }, "geometry": { "type": "Point", "coordinates": [ -79.817863791999969, 36.092908213000044 ] } },
{ "type": "Feature", "properties": { "OBJECTID": 3928, "ID": "0176627403", "NAME": "BEHAVIORAL HEALTH HOSPITAL", "ADDRESS": "700 WALTER REED DRIVE", "CITY": "GREENSBORO", "STATE": "NC", "ZIP": "27403", "ZIP4": "NOT AVAILABLE", "TELEPHONE": "(336) 832-9700", "TYPE": "PSYCHIATRIC", "STATUS": "OPEN", "POPULATION": 80, "COUNTY": "GUILFORD", "COUNTYFIPS": "37081", "COUNTRY": "USA", "LATITUDE": 36.082795504000003, "LONGITUDE": -79.822456152000001, "NAICS_CODE": "622210", "NAICS_DESC": "PSYCHIATRIC AND SUBSTANCE ABUSE HOSPITALS", "SOURCE": "https:\/\/www2.ncdhhs.gov\/dhsr\/reports.htm", "SOURCEDATE": "2018-08-10T00:00:00.000Z", "VAL_METHOD": "IMAGERY\/OTHER", "VAL_DATE": "2019-05-09T00:00:00.000Z", "WEBSITE": "https:\/\/www.conehealth.com\/locations\/behavioral-health-hospital\/", "STATE_ID": "H0159", "ALT_NAME": "CONE HEALTH BEHAVIORAL HEALTH HOSPITAL", "ST_FIPS": "37", "OWNER": "NON-PROFIT", "TTL_STAFF": -999, "BEDS": 80, "TRAUMA": "NOT AVAILABLE", "HELIPAD": "N" }, "geometry": { "type": "Point", "coordinates": [ -79.822456151999972, 36.082795504000039 ] } },
{ "type": "Feature", "properties": { "OBJECTID": 3929, "ID": "0176728339", "NAME": "GOOD HOPE HOSPITAL", "ADDRESS": "P.O. BOX 639", "CITY": "ERWIN", "STATE": "NC", "ZIP": "28339", "ZIP4": "NOT AVAILABLE", "TELEPHONE": "(910) 230-4011", "TYPE": "PSYCHIATRIC", "STATUS": "OPEN", "POPULATION": 16, "COUNTY": "HARNETT", "COUNTYFIPS": "37085", "COUNTRY": "USA", "LATITUDE": 35.3273632470001, "LONGITUDE": -78.669802887999893, "NAICS_CODE": "622210", "NAICS_DESC": "PSYCHIATRIC AND SUBSTANCE ABUSE HOSPITALS", "SOURCE": "https:\/\/www2.ncdhhs.gov\/dhsr\/reports.htm", "SOURCEDATE": "2018-08-10T00:00:00.000Z", "VAL_METHOD": "IMAGERY\/OTHER", "VAL_DATE": "2019-05-09T00:00:00.000Z", "WEBSITE": "NOT AVAILABLE", "STATE_ID": "NOT AVAILABLE", "ALT_NAME": "NOT AVAILABLE", "ST_FIPS": "37", "OWNER": "PROPRIETARY", "TTL_STAFF": -999, "BEDS": 16, "TRAUMA": "NOT AVAILABLE", "HELIPAD": "N" }, "geometry": { "type": "Point", "coordinates": [ -78.669802887999936, 35.327363247000044 ] } },
{ "type": "Feature", "properties": { "OBJECTID": 3930, "ID": "0176828211", "NAME": "CAROLINAS MEDICAL CENTER FOR MENTAL HEALTH", "ADDRESS": "501 BILLINGSLEY RD", "CITY": "CHARLOTTE", "STATE": "NC", "ZIP": "28211", "ZIP4": "NOT AVAILABLE", "TELEPHONE": "(704) 444-2400", "TYPE": "PSYCHIATRIC", "STATUS": "OPEN", "POPULATION": 132, "COUNTY": "MECKLENBURG", "COUNTYFIPS": "37119", "COUNTRY": "USA", "LATITUDE": 35.192050170000101, "LONGITUDE": -80.803893975999998, "NAICS_CODE": "622210", "NAICS_DESC": "PSYCHIATRIC AND SUBSTANCE ABUSE HOSPITALS", "SOURCE": "https:\/\/www2.ncdhhs.gov\/dhsr\/reports.htm", "SOURCEDATE": "2018-08-10T00:00:00.000Z", "VAL_METHOD": "IMAGERY\/OTHER", "VAL_DATE": "2019-05-09T00:00:00.000Z", "WEBSITE": "https:\/\/www.carolinashealthcare.org\/locations\/detail\/Carolinas-HealthCare-System-Behavioral-Health--Charlotte", "STATE_ID": "NOT AVAILABLE", "ALT_NAME": "CAROLINAS HEALTHCARE SYSTEM BEHAVIORAL HEALTH CHARLOTTE", "ST_FIPS": "37", "OWNER": "NON-PROFIT", "TTL_STAFF": -999, "BEDS": 132, "TRAUMA": "NOT AVAILABLE", "HELIPAD": "N" }, "geometry": { "type": "Point", "coordinates": [ -80.803893975999983, 35.192050170000073 ] } },
{ "type": "Feature", "properties": { "OBJECTID": 3931, "ID": "0179128210", "NAME": "STRATEGIC BEHAVIORAL CENTER CHARLOTTE", "ADDRESS": "1715 SHARON ROAD WEST", "CITY": "CHARLOTTE", "STATE": "NC", "ZIP": "28210", "ZIP4": "NOT AVAILABLE", "TELEPHONE": "(704) 944-0650", "TYPE": "PSYCHIATRIC", "STATUS": "OPEN", "POPULATION": 60, "COUNTY": "MECKLENBURG", "COUNTYFIPS": "37119", "COUNTRY": "USA", "LATITUDE": 35.1208566970001, "LONGITUDE": -80.871603917999906, "NAICS_CODE": "622210", "NAICS_DESC": "PSYCHIATRIC AND SUBSTANCE ABUSE HOSPITALS", "SOURCE": "https:\/\/www2.ncdhhs.gov\/dhsr\/reports.htm", "SOURCEDATE": "2018-08-10T00:00:00.000Z", "VAL_METHOD": "IMAGERY\/OTHER", "VAL_DATE": "2018-02-26T00:00:00.000Z", "WEBSITE": "http:\/\/sbccharlotte.com\/", "STATE_ID": "MHH0977", "ALT_NAME": "NOT AVAILABLE", "ST_FIPS": "37", "OWNER": "PROPRIETARY", "TTL_STAFF": -999, "BEDS": 60, "TRAUMA": "NOT AVAILABLE", "HELIPAD": "N" }, "geometry": { "type": "Point", "coordinates": [ -80.871603917999948, 35.120856697000079 ] } },
{ "type": "Feature", "properties": { "OBJECTID": 3932, "ID": "0177928546", "NAME": "BRYNN MARR HOSPITAL", "ADDRESS": "192 VILLAGE DR", "CITY": "JACKSONVILLE", "STATE": "NC", "ZIP": "28546", "ZIP4": "NOT AVAILABLE", "TELEPHONE": "(910) 577-1400", "TYPE": "PSYCHIATRIC", "STATUS": "OPEN", "POPULATION": -999, "COUNTY": "ONSLOW", "COUNTYFIPS": "37133", "COUNTRY": "USA", "LATITUDE": 34.746335098000003, "LONGITUDE": -77.374386318999896, "NAICS_CODE": "622210", "NAICS_DESC": "PSYCHIATRIC AND SUBSTANCE ABUSE HOSPITALS", "SOURCE": "https:\/\/www2.ncdhhs.gov\/dhsr\/reports.htm", "SOURCEDATE": "2018-08-10T00:00:00.000Z", "VAL_METHOD": "IMAGERY\/OTHER", "VAL_DATE": "2019-05-09T00:00:00.000Z", "WEBSITE": "https:\/\/www.brynnmarr.org\/", "STATE_ID": "MHH0190", "ALT_NAME": "NOT AVAILABLE", "ST_FIPS": "37", "OWNER": "PROPRIETARY", "TTL_STAFF": -999, "BEDS": -999, "TRAUMA": "NOT AVAILABLE", "HELIPAD": "N" }, "geometry": { "type": "Point", "coordinates": [ -77.374386318999939, 34.746335098000024 ] } },
{ "type": "Feature", "properties": { "OBJECTID": 3933, "ID": "0178027529", "NAME": "STRATEGIC BEHAVIORAL CENTER GARNER", "ADDRESS": "3200 WATERFIELD ROAD", "CITY": "GARNER", "STATE": "NC", "ZIP": "27529", "ZIP4": "NOT AVAILABLE", "TELEPHONE": "(919) 800-4400", "TYPE": "PSYCHIATRIC", "STATUS": "OPEN", "POPULATION": -999, "COUNTY": "WAKE", "COUNTYFIPS": "37183", "COUNTRY": "USA", "LATITUDE": 35.678034190000098, "LONGITUDE": -78.561408282999906, "NAICS_CODE": "622210", "NAICS_DESC": "PSYCHIATRIC AND SUBSTANCE ABUSE HOSPITALS", "SOURCE": "https:\/\/www2.ncdhhs.gov\/dhsr\/reports.htm", "SOURCEDATE": "2018-08-10T00:00:00.000Z", "VAL_METHOD": "IMAGERY\/OTHER", "VAL_DATE": "2019-05-09T00:00:00.000Z", "WEBSITE": "http:\/\/sbcraleigh.com\/", "STATE_ID": "MHH0973", "ALT_NAME": "NOT AVAILABLE", "ST_FIPS": "37", "OWNER": "PROPRIETARY", "TTL_STAFF": -999, "BEDS": -999, "TRAUMA": "NOT AVAILABLE", "HELIPAD": "N" }, "geometry": { "type": "Point", "coordinates": [ -78.561408282999935, 35.678034190000062 ] } },
{ "type": "Feature", "properties": { "OBJECTID": 3934, "ID": "0178127610", "NAME": "UNC HOSPITALS AT WAKEBROOK", "ADDRESS": "111 SUNNYBROOK ROAD", "CITY": "RALEIGH", "STATE": "NC", "ZIP": "27610", "ZIP4": "NOT AVAILABLE", "TELEPHONE": "NOT AVAILABLE", "TYPE": "PSYCHIATRIC", "STATUS": "OPEN", "POPULATION": -999, "COUNTY": "WAKE", "COUNTYFIPS": "37183", "COUNTRY": "USA", "LATITUDE": 35.782897479, "LONGITUDE": -78.581798653999996, "NAICS_CODE": "622210", "NAICS_DESC": "PSYCHIATRIC AND SUBSTANCE ABUSE HOSPITALS", "SOURCE": "https:\/\/www2.ncdhhs.gov\/dhsr\/reports.htm", "SOURCEDATE": "2018-08-10T00:00:00.000Z", "VAL_METHOD": "IMAGERY\/OTHER", "VAL_DATE": "2019-05-09T00:00:00.000Z", "WEBSITE": "http:\/\/www.wakegov.com\/humanservices\/locations\/wakebrook\/Pages\/default.aspx", "STATE_ID": "MHH0975", "ALT_NAME": "NOT AVAILABLE", "ST_FIPS": "37", "OWNER": "GOVERNMENT - STATE", "TTL_STAFF": -999, "BEDS": -999, "TRAUMA": "NOT AVAILABLE", "HELIPAD": "N" }, "geometry": { "type": "Point", "coordinates": [ -78.581798653999954, 35.782897479000049 ] } },
{ "type": "Feature", "properties": { "OBJECTID": 3995, "ID": "0181228719", "NAME": "UNITY HEALING CENTER", "ADDRESS": "448 SEQUOYAH TRAIL DR", "CITY": "CHEROKEE", "STATE": "NC", "ZIP": "28719", "ZIP4": "NOT AVAILABLE", "TELEPHONE": "(828) 497-3958", "TYPE": "REHABILITATION", "STATUS": "OPEN", "POPULATION": -999, "COUNTY": "CHEROKEE", "COUNTYFIPS": "37173", "COUNTRY": "USA", "LATITUDE": 35.48234511, "LONGITUDE": -83.318549547999993, "NAICS_CODE": "622310", "NAICS_DESC": "REHABILITATION HOSPITALS (EXCEPT ALCOHOLISM, DRUG ADDICTION)", "SOURCE": "https:\/\/www.ihs.gov\/findhealthcare\/", "SOURCEDATE": "2018-09-27T00:00:00.000Z", "VAL_METHOD": "IMAGERY\/OTHER", "VAL_DATE": "2019-04-17T00:00:00.000Z", "WEBSITE": "http:\/\/www.ihs.gov\/Nashville\/index.cfm?module=dsp_nsh_unity", "STATE_ID": "NOT AVAILABLE", "ALT_NAME": "NOT AVAILABLE", "ST_FIPS": "37", "OWNER": "NOT AVAILABLE", "TTL_STAFF": -999, "BEDS": -999, "TRAUMA": "NOT AVAILABLE", "HELIPAD": "N" }, "geometry": { "type": "Point", "coordinates": [ -83.318549547999964, 35.482345110000033 ] } }
]
}
